     2.10           OBSERVATION DATA    G (GPS)             RINEX VERSION / TYPE
goGPS                                                       PGM / RUN BY / DATE 
EPS1                                                        MARKER NAME         
                                                            OBSERVER / AGENCY   
                    u-blox                                  REC # / TYPE / VERS 
                                                            ANT # / TYPE        
  5036339.5525  -332565.7115  3887151.5386                  APPROX POSITION XYZ 
        0.0000        0.0000        0.0000                  ANTENNA: DELTA H/E/N
     2     0                                                WAVELENGTH FACT L1/2
     4    C1    L1    S1    D1                              # / TYPES OF OBSERV 
  2012    12    12    12    12   11.9990005     GPS         TIME OF FIRST OBS   
                                                            END OF HEADER       
 12 12 12 12 12 11.9990005  0 12G01G03G06G11G14G17G19G20G22G23G28G32
  20407038.285 7  -2696238.20907        47.000 7      2026.141 7
  23178476.980 7   2731344.58507        46.000 7     -2393.823 7
  24414163.893 5   2557989.00705        33.000 5     -2205.113 5
  19925347.849 7  -1778000.47007        45.000 7      1191.511 7
  23332595.314 7   -595019.10007        45.000 7        93.591 7
  25631315.742 4   -620953.05434        27.000 4      4712.036 4
  21347889.529 7    924411.23207        46.000 7     -1046.338 7
  21126494.411 7  -4706954.11907        45.000 7      3574.438 7
  24865930.695 7   2440698.99507        44.000 7     -2046.899 7
  25054312.758 5  -2388196.01705        34.000 5      4609.232 5
  23132441.159 7  -2995101.63607        46.000 7      2073.850 7
  20027615.042 7  -2429314.28207        46.000 7      1588.231 7
 12 12 12 12 12 12.9990005  0 12G01G03G06G11G14G17G19G20G22G23G28G32
  20406653.158 7  -2698264.71807        47.000 7      2025.688 7
  23178932.099 7   2733738.19107        46.000 7     -2394.519 7
  24414583.204 5   2560194.26005        32.000 5     -2205.960 5
  19925121.031 7  -1779192.03407        45.000 7      1190.455 7
  23332577.863 7   -595112.87707        45.000 7        92.805 7
  25630419.063 4   -625665.29134        27.000 4      4711.867 4
  21348088.514 7    925456.87607        46.000 7     -1047.117 7
  21125814.498 7  -4710529.09507        45.000 7      3573.681 7
  24866319.922 7   2442745.35007        44.000 7     -2047.166 7
  25053435.448 5  -2392805.73905        34.000 5      4609.412 5
  23132047.133 7  -2997175.52707        46.000 7      2072.604 7
  20027312.717 7  -2430902.33307        46.000 7      1586.978 7
 12 12 12 12 12 13.9990005  0 12G01G03G06G11G14G17G19G20G22G23G28G32
  20406267.753 7  -2700291.08307        47.000 7      2026.331 7
  23179387.881 7   2736131.88107        46.000 7     -2393.736 7
  24415002.515 5   2562399.61405        33.000 5     -2203.791 5
  19924894.318 7  -1780383.30307        45.000 7      1191.571 7
  23332559.820 7   -595206.17407        45.000 7        93.030 7
  25629522.942 4   -630377.55634        27.000 4      4712.364 4
  21348287.551 7    926502.82407        46.000 7     -1045.938 7
  21125134.585 7  -4714103.75807        45.000 7      3575.263 7
  24866709.149 7   2444791.62907        44.000 7     -2046.250 7
  25052558.156 5  -2397415.64305        34.000 5      4611.008 5
  23131652.374 7  -2999248.93207        46.000 7      2073.388 7
  20027010.182 7  -2432489.88407        46.000 7      1587.254 7
 12 12 12 12 12 14.9990005  0 12G01G03G06G11G14G17G19G20G22G23G28G32
  20405882.208 7  -2702317.75807        47.000 7      2027.112 7
  23179843.018 7   2738525.19007        46.000 7     -2392.501 7
  24415422.507 5   2564604.44905        33.000 5     -2205.245 5
  19924667.622 7  -1781574.75507        45.000 7      1191.656 7
  23332541.689 7   -595299.43807        45.000 7        93.797 7
  25628626.245 4   -635090.50434        27.000 4      4714.634 4
  21348486.309 7    927548.63707        46.000 7     -1045.512 7
  21124454.376 7  -4717678.59407        45.000 7      3575.070 7
  24867099.388 7   2446837.31107        44.000 7     -2045.175 7
  25051680.585 5  -2402026.29905        35.000 5      4610.701 5
  23131257.755 7  -3001322.32807        46.000 7      2073.443 7
  20026707.875 7  -2434077.38907        46.000 7      1587.952 7
 12 12 12 12 12 15.9990005  0 12G01G03G06G11G14G17G19G20G22G23G28G32
  20405496.628 7  -2704344.60007        47.000 7      2027.070 7
  23180298.015 7   2740918.27007        46.000 7     -2392.604 7
  24415841.661 5   2566809.03605        32.000 5     -2204.491 5
  19924441.467 7  -1782766.22207        45.000 7      1191.951 7
  23332524.047 7   -595392.54207        44.000 7        93.567 7
  25627729.653 4   -639803.98034        27.000 4      4712.590 4
  21348685.695 7    928594.45207        46.000 7     -1045.358 7
  21123774.254 7  -4721253.39807        45.000 7      3575.295 7
  24867487.673 7   2448882.63107        44.000 7     -2044.886 7
  25050803.240 5  -2406637.49605        35.000 5      4611.643 5
  23130863.014 7  -3003395.55207        46.000 7      2073.387 7
  20026405.654 7  -2435664.71607        46.000 7      1587.567 7
 12 12 12 12 12 16.9990005  0 12G01G03G06G11G14G17G19G20G22G23G28G32
  20405111.135 7  -2706370.78007        47.000 7      2026.275 7
  23180753.972 7   2743311.95207        46.000 7     -2393.423 7
  24416261.130 5   2569014.09705        32.000 5     -2204.201 5
  19924214.614 7  -1783956.89007        45.000 7      1190.917 7
  23332506.702 7   -595484.65007        44.000 7        91.615 7
  25626832.851 4   -644516.96034        27.000 4      4713.407 4
  21348884.226 7    929641.08207        46.000 7     -1046.447 7
  21123094.132 7  -4724827.38707        45.000 7      3574.158 7
  24867876.708 7   2450928.36607        44.000 7     -2045.252 7
  25049926.384 5  -2411247.85235        34.000 5      4611.623 5
  23130469.128 7  -3005467.78807        46.000 7      2071.850 7
  20026103.644 7  -2437251.02007        46.000 7      1586.345 7
 12 12 12 12 12 17.9990005  0 12G01G03G06G11G14G17G19G20G22G23G28G32
  20404725.677 7  -2708396.10507        47.000 7      2025.090 7
  23181209.300 7   2745706.41807        46.000 7     -2394.865 7
  24416680.982 5   2571219.96305        32.000 5     -2205.359 5
  19923988.006 7  -1785146.56007        45.000 7      1188.804 7
  23332489.059 7   -595575.54507        44.000 7        90.189 7
  25625937.219 4   -649229.50534        28.000 4      4711.956 4
  21349083.665 7    930688.74007        46.000 7     -1048.404 7
  21122414.411 7  -4728400.34007        45.000 7      3572.407 7
  24868266.075 7   2452974.72807        44.000 7     -2046.156 7
  25049049.092 5  -2415858.26725        34.000 5      4608.437 5
  23130074.927 7  -3007538.82607        46.000 7      2070.778 7
  20025801.894 7  -2438836.13007        46.000 7      1584.435 7
 12 12 12 12 12 18.9990005  0 12G01G03G06G11G14G17G19G20G22G23G28G32
  20404340.132 7  -2710421.42607        47.000 7      2025.517 7
  23181665.117 7   2748100.84207        46.000 7     -2394.316 7
  24417100.572 5   2573425.62005        32.000 5     -2202.814 5
  19923761.868 7  -1786336.09207        45.000 7      1189.955 7
  23332472.080 7   -595666.12407        45.000 7        90.635 7
  25625040.574 4   -653942.19334        28.000 4      4713.654 4
  21349282.615 7    931736.55107        46.000 7     -1047.625 7
  21121735.021 7  -4731973.12907        46.000 7      3572.879 7
  24868655.826 7   2455020.83207        44.000 7     -2045.511 7
  25048171.730 5  -2420469.09025        34.000 5      4610.153 5
  23129680.727 7  -3009609.56207        46.000 7      2070.923 7
  20025500.756 7  -2440420.88707        46.000 7      1585.143 7
 12 12 12 12 12 19.9990005  0 12G01G03G06G11G14G17G19G20G22G23G28G32
  20403955.006 7  -2712446.82807        47.000 7      2025.152 7
  23182120.585 7   2750495.09607        46.000 7     -2394.219 7
  24417520.826 5   2575631.05705        32.000 5     -2203.678 5
  19923535.731 7  -1787525.56407        45.000 7      1188.974 7
  23332455.311 7   -595756.43907        45.000 7        90.039 7
  25624141.085 4   -658655.34534        29.000 4      4713.784 4
  21349482.158 7    932784.45507        46.000 7     -1047.548 7
  21121055.161 7  -4735545.82107        46.000 7      3572.970 7
  24869045.000 7   2457066.63407        44.000 7     -2045.269 7
  25047294.263 5  -2425080.32525        34.000 5      4610.321 5
  23129286.753 7  -3011680.02507        46.000 7      2070.527 7
  20025199.112 7  -2442005.35307        46.000 7      1584.394 7
 12 12 12 12 12 20.9990005  0 12G01G03G06G11G14G17G19G20G22G23G28G32
  20403569.879 7  -2714471.60607        47.000 7      2024.962 7
  23182576.246 7   2752889.92207        46.000 7     -2394.421 7
  24417940.713 5   2577836.97205        31.000 5     -2206.975 5
  19923309.576 7  -1788714.25007        45.000 7      1188.783 7
  23332438.471 7   -595845.78607        45.000 7        88.922 7
  25623246.064 4   -663368.13834        29.000 4      4712.979 4
  21349681.492 7    933833.16107        46.000 7     -1048.516 7
  21120375.649 7  -4739117.72307        46.000 7      3571.548 7
  24869434.716 7   2459112.81407        44.000 7     -2045.914 7
  25046416.849 5  -2429691.34125        34.000 5      4610.750 5
  23128892.884 7  -3013749.52407        46.000 7      2069.814 7
  20024897.642 7  -2443588.86207        46.000 7      1583.227 7
 12 12 12 12 12 21.9990005  0 12G01G03G06G11G14G17G19G20G22G23G28G32
  20403184.893 7  -2716496.04907        47.000 7      2024.673 7
  23183031.853 7   2755285.01607        46.000 7     -2395.244 7
  24418360.984 5   2580043.17505        31.000 5     -2204.899 5
  19923082.776 7  -1789902.47207        45.000 7      1187.931 7
  23332421.649 7   -595934.45707        45.000 7        88.601 7
  25622351.269 4   -668080.86034        29.000 4      4712.980 4
  21349881.489 7    934882.35607        46.000 7     -1049.148 7
  21119695.963 7  -4742689.12607        46.000 7      3571.303 7
  24869823.839 7   2461159.11607        44.000 7     -2046.364 7
  25045538.701 5  -2434302.37125        34.000 5      4610.705 5
  23128499.330 7  -3015818.36507        46.000 7      2068.307 7
  20024597.009 7  -2445171.65307        46.000 7      1582.637 7
 12 12 12 12 12 22.9990005  0 12G01G03G06G11G14G17G19G20G22G23G28G32
  20402799.679 7  -2718520.76007        47.000 7      2024.831 7
  23183487.688 7   2757679.78407        46.000 7     -2394.434 7
  24418780.173 5   2582248.89705        31.000 5     -2206.622 5
  19922856.534 7  -1791090.81107        45.000 7      1188.467 7
  23332405.019 7   -596023.05607        45.000 7        88.417 7
  25621453.473 4   -672794.14334        29.000 4      4713.429 4
  21350081.346 7    935931.43407        46.000 7     -1048.572 7
  21119015.911 7  -4746260.61707        45.000 7      3571.383 7
  24870213.223 7   2463204.88407        44.000 7     -2045.436 7
  25044661.339 5  -2438914.06125        34.000 5      4610.137 5
  23128105.705 7  -3017887.14507        46.000 7      2068.614 7
  20024295.644 7  -2446754.38507        46.000 7      1582.528 7
 12 12 12 12 12 23.9990005  0 12G01G03G06G11G14G17G19G20G22G23G28G32
  20402414.431 7  -2720545.38507        47.000 7      2024.479 7
  23183943.837 7   2760074.57207        46.000 7     -2394.777 7
  24419199.816 5   2584454.63305        31.000 5     -2204.160 5
  19922630.553 7  -1792278.91107        45.000 7      1187.806 7
  23332389.139 7   -596111.25307        45.000 7        87.558 7
  25620556.095 4   -677507.59634        29.000 4      4715.229 4
  21350280.820 7    936980.78207        46.000 7     -1049.367 7
  21118335.283 7  -4749831.84907        45.000 7      3570.858 7
  24870602.066 7   2465250.50707        44.000 7     -2045.028 7
  25043783.279 5  -2443526.00525        33.000 5      4611.488 5
  23127711.941 7  -3019955.48507        46.000 7      2067.917 7
  20023994.314 7  -2448336.66607        46.000 7      1582.175 7
 12 12 12 12 12 24.9990005  0 12G01G03G06G11G14G17G19G20G22G23G28G32
  20402029.217 7  -2722569.66207        47.000 7      2023.982 7
  23184399.392 7   2762469.64207        46.000 7     -2395.254 7
  24419619.878 5   2586660.52605        31.000 5     -2205.933 5
  19922404.468 7  -1793466.53107        45.000 7      1186.708 7
  23332372.789 7   -596198.73007        45.000 7        87.122 7
  25619659.102 4   -682221.14334        29.000 4      4712.606 4
  21350480.817 7    938030.62707        46.000 7     -1050.520 7
  21117655.422 7  -4753402.57607        45.000 7      3570.070 7
  24870990.700 7   2467296.24507        44.000 7     -2046.343 7
  25042905.464 5  -2448138.55305        33.000 5      4609.307 5
  23127318.229 7  -3022023.17707        46.000 7      2066.328 7
  20023693.228 7  -2449918.23707        46.000 7      1581.007 7
 12 12 12 12 12 25.9990005  0 12G01G03G06G11G14G17G19G20G22G23G28G32
  20401644.370 7  -2724593.54307        47.000 7      2024.436 7
  23184855.750 7   2764865.03907        46.000 7     -2395.178 7
  24420039.887 5   2588866.73535        31.000 5     -2204.873 5
  19922178.401 7  -1794653.59707        45.000 7      1187.793 7
  23332356.769 7   -596285.50507        45.000 7        87.224 7
  25618759.805 4   -686934.31634        29.000 4      4714.286 4
  21350680.779 7    939081.04207        46.000 7     -1049.551 7
  21116976.207 7  -4756972.72107        45.000 7      3570.660 7
  24871380.503 7   2469342.14507        44.000 7     -2044.951 7
  25042027.648 5  -2452750.46305        33.000 5      4612.837 5
  23126924.273 7  -3024090.11707        46.000 7      2067.150 7
  20023392.351 7  -2451499.06307        46.000 7      1581.404 7
 12 12 12 12 12 26.9990005  0 12G01G03G06G11G14G17G19G20G22G23G28G32
  20401259.191 7  -2726617.43807        47.000 7      2022.554 7
  23185311.393 7   2767260.35407        46.000 7     -2396.690 7
  24420459.669 5   2591072.70425        31.000 5     -2208.175 5
  19921952.577 7  -1795840.54407        44.000 7      1185.357 7
  23332340.279 7   -596371.93707        45.000 7        84.989 7
  25617862.968 4   -691648.04134        29.000 4      4713.022 4
  21350880.688 7    940131.60007        46.000 7     -1052.234 7
  21116296.661 7  -4760542.71607        45.000 7      3568.516 7
  24871769.590 7   2471387.78107        44.000 7     -2047.134 7
  25041149.815 5  -2457362.86605        33.000 5      4611.971 5
  23126531.434 7  -3026156.74907        46.000 7      2065.257 7
  20023091.527 7  -2453079.57707        46.000 7      1578.894 7
 12 12 12 12 12 27.9990005  0 12G01G03G06G11G14G17G19G20G22G23G28G32
  20400874.239 7  -2728640.61307        47.000 7      2023.186 7
  23185767.157 7   2769656.31807        46.000 7     -2396.103 7
  24420879.277 5   2593279.26925        30.000 5     -2208.034 5
  19921726.911 7  -1797026.63207        44.000 7      1186.124 7
  23332323.928 7   -596457.32207        45.000 7        85.642 7
  25616964.701 4   -696361.20934        29.000 4      4712.653 4
  21351080.825 7    941183.03807        46.000 7     -1051.277 7
  21115617.429 7  -4764111.82107        45.000 7      3569.301 7
  24872159.288 7   2473433.90007        44.000 7     -2045.975 7
  25040271.789 5  -2461974.94505        33.000 5      4611.829 5
  23126138.123 7  -3028222.33507        45.000 7      2065.372 7
  20022791.156 7  -2454659.02107        46.000 7      1579.310 7
 12 12 12 12 12 28.9990005  0 12G01G03G06G11G14G17G19G20G22G23G28G32
  20400489.323 7  -2730663.17307        47.000 7      2022.443 7
  23186223.114 7   2772052.84307        46.000 7     -2396.701 7
  24421298.955 5   2595486.43325        30.000 5     -2206.694 5
  19921501.367 7  -1798211.96007        44.000 7      1184.928 7
  23332307.961 7   -596541.76307        45.000 7        84.063 7
  25616069.854 4   -701074.01134        29.000 4      4713.188 4
  21351281.223 7    942235.25507        46.000 7     -1052.456 7
  21114938.109 7  -4767680.16007        45.000 7      3567.673 7
  24872548.306 7   2475480.40307        44.000 7     -2045.960 7
  25039393.398 5  -2466586.67905        33.000 5      4614.030 5
  23125745.109 7  -3030286.97407        45.000 7      2064.324 7
  20022490.838 7  -2456237.49607        46.000 7      1578.213 7
 12 12 12 12 12 29.9990005  0 12G01G03G06G11G14G17G19G20G22G23G28G32
  20400104.284 7  -2732685.53307        47.000 7      2022.941 7
  23186679.507 7   2774449.49107        46.000 7     -2396.456 7
  24421719.121 5   2597693.57935        30.000 5     -2206.695 5
  19921275.526 7  -1799396.94507        44.000 7      1185.148 7
  23332291.471 7   -596625.66807        45.000 7        83.931 7
  25615172.755 4   -705787.00434        29.000 4      4712.992 4
  21351481.639 7    943287.84507        46.000 7     -1052.872 7
  21114258.580 7  -4771248.12207        45.000 7      3568.171 7
  24872937.551 7   2477526.85507        44.000 7     -2046.247 7
  25038515.285 5  -2471198.09135        33.000 5      4615.330 5
  23125352.462 7  -3032351.09407        46.000 7      2064.057 7
  20022190.502 7  -2457815.41907        46.000 7      1577.715 7
 12 12 12 12 12 30.9990005  0 12G01G03G06G11G14G17G19G20G22G23G28G32
  20399719.785 7  -2734707.78307        47.000 7      2022.161 7
  23187135.464 7   2776846.19507        46.000 7     -2396.701 7
  24422139.253 5   2599900.70225        30.000 5     -2206.266 5
  19921050.366 7  -1800581.66407        44.000 7      1184.950 7
  23332275.538 7   -596709.10907        45.000 7        83.252 7
  25614276.268 4   -710500.08334        29.000 4      4713.324 4
  21351681.950 7    944340.70007        47.000 7     -1053.119 7
  21113579.697 7  -4774815.79707        45.000 7      3567.300 7
  24873327.790 7   2479573.17907        44.000 7     -2046.721 7
  25037636.841 5  -2475810.38735        33.000 5      4611.523 5
  23124959.535 7  -3034414.74807        46.000 7      2063.610 7
  20021890.254 7  -2459392.86507        46.000 7      1576.811 7
 12 12 12 12 12 31.9990005  0 12G01G03G06G11G14G17G19G20G22G23G28G32
  20399335.130 7  -2736729.37507        47.000 7      2021.389 7
  23187591.996 7   2779243.50607        46.000 7     -2397.427 7
  24422559.018 5   2602108.39825        30.000 5     -2206.960 5
  19920825.293 7  -1801765.59507        44.000 7      1183.847 7
  23332259.327 7   -596791.56407        45.000 7        81.957 7
  25613379.571 5   -715212.83335        30.000 5      4714.275 5
  21351882.732 7    945394.38807        47.000 7     -1054.041 7
  21112900.709 7  -4778382.64507        45.000 7      3565.920 7
  24873716.808 7   2481619.96007        44.000 7     -2046.688 7
  25036758.712 5  -2480422.37125        33.000 5      4611.937 5
  23124567.063 7  -3036477.42407        46.000 7      2062.412 7
  20021590.337 7  -2460969.30407        46.000 7      1576.668 7
 12 12 12 12 12 32.9990005  0 12G01G03G06G11G14G17G19G20G22G23G28G32
  20398950.126 7  -2738750.69107        47.000 7      2021.936 7
  23188048.389 7   2781640.99707        46.000 7     -2397.035 7
  24422978.818 5   2604316.19235        30.000 5     -2201.685 5
  19920600.028 7  -1802949.10007        44.000 7      1184.259 7
  23332243.448 7   -596873.40207        45.000 7        82.295 7
  25612479.419 5   -719925.55125        31.000 5      4713.923 5
  21352083.323 7    946448.51807        47.000 7     -1053.265 7
  21112222.384 7  -4781949.04407        45.000 7      3566.880 7
  24874105.599 7   2483666.75407        44.000 7     -2046.482 7
  25035881.105 5  -2485034.37825        33.000 5      4613.777 5
  23124174.520 7  -3038539.48507        46.000 7      2062.436 7
  20021290.664 7  -2462545.13307        46.000 7      1576.234 7
 12 12 12 12 12 33.9990005  0 12G01G03G06G11G14G17G19G20G22G23G28G32
  20398565.611 7  -2740771.95907        47.000 7      2020.844 7
  23188504.625 7   2784038.49007        46.000 7     -2398.140 7
  24423399.333 4   2606523.90324        29.000 4     -2206.898 4
  19920375.305 7  -1804132.43207        44.000 7      1182.627 7
  23332227.411 7   -596954.85207        45.000 7        81.444 7
  25611586.858 5   -724638.54325        31.000 5      4712.730 5
  21352283.773 7    947502.83907        47.000 7     -1054.914 7
  21111543.850 7  -4785515.23507        45.000 7      3565.614 7
  24874495.698 7   2485713.35107        44.000 7     -2046.648 7
  25035003.429 5  -2489646.77725        33.000 5      4610.226 5
  23123782.483 7  -3040601.16807        46.000 7      2060.498 7
  20020990.957 7  -2464120.55107        46.000 7      1574.912 7
 12 12 12 12 12 34.9990005  0 12G01G03G06G11G14G17G19G20G22G23G28G32
  20398180.537 7  -2742793.25107        47.000 7      2021.115 7
  23188960.757 7   2786435.88507        46.000 7     -2397.292 7
  24423819.796 4   2608731.45434        29.000 4     -2208.052 4
  19920149.778 7  -1805315.62107        44.000 7      1182.954 7
  23332211.653 7   -597036.00307        45.000 7        80.699 7
  25610687.613 5   -729351.85025        32.000 5      4711.519 5
  21352484.887 7    948557.32407        47.000 7     -1054.989 7
  21110865.298 7  -4789081.27207        45.000 7      3566.539 7
  24874885.833 7   2487759.67407        44.000 7     -2045.864 7
  25034125.561 5  -2494259.56925        33.000 5      4611.858 5
  23123389.888 7  -3042662.55207        46.000 7      2060.843 7
  20020691.249 7  -2465695.65707        46.000 7      1574.703 7
 12 12 12 12 12 35.9990005  0 12G01G03G06G11G14G17G19G20G22G23G28G32
  20397796.161 7  -2744813.90307        47.000 7      2019.758 7
  23189417.202 7   2788833.84507        46.000 7     -2399.560 7
  24424240.085 4   2610939.49224        29.000 4     -2209.859 4
  19919924.565 7  -1806498.05607        44.000 7      1180.890 7
  23332196.210 7   -597116.18907        44.000 7        78.554 7
  25609792.975 5   -734064.77425        32.000 5      4712.589 5
  21352686.193 7    949612.58607        47.000 7     -1056.337 7
  21110186.746 7  -4792646.51807        45.000 7      3563.533 7
  24875274.501 7   2489806.40607        44.000 7     -2047.794 7
  25033247.536 5  -2498872.04425        33.000 5      4610.933 5
  23122997.520 7  -3044722.96207        46.000 7      2059.037 7
  20020392.117 7  -2467269.77207        46.000 7      1572.370 7
 12 12 12 12 12 36.9990005  0 12G01G03G06G11G14G17G19G20G22G23G28G32
  20397412.012 7  -2746834.08407        47.000 7      2020.954 7
  23189873.403 7   2791232.21907        46.000 7     -2398.404 7
  24424660.059 4   2613147.93734        29.000 4     -2207.148 4
  19919699.440 7  -1807679.86807        44.000 7      1182.198 7
  23332181.063 7   -597195.54307        44.000 7        79.583 7
  25608895.406 5   -738777.55025        31.000 5      4713.072 5
  21352887.114 7    950668.49707        47.000 7     -1055.863 7
  21109508.631 7  -4796211.10407        45.000 7      3564.223 7
  24875664.793 7   2491853.35607        44.000 7     -2047.326 7
  25032369.633 5  -2503484.46625        33.000 5      4614.410 5
  23122605.920 7  -3046782.57207        45.000 7      2059.851 7
  20020092.340 7  -2468843.04107        46.000 7      1573.302 7
 12 12 12 12 12 37.9990005  0 12G01G03G06G11G14G17G19G20G22G23G28G32
  20397028.020 7  -2748853.69307        47.000 7      2018.244 7
  23190330.040 7   2793631.11307        46.000 7     -2399.808 7
  24425079.946 4   2615356.74934        29.000 4     -2209.465 4
  19919474.995 7  -1808860.94207        44.000 7      1180.210 7
  23332165.899 7   -597273.97907        44.000 7        77.218 7
  25607997.016 5   -743489.98725        31.000 5      4710.402 5
  21353088.385 7    951725.15607        47.000 7     -1057.786 7
  21108830.707 7  -4799774.93207        45.000 7      3563.055 7
  24876055.032 7   2493900.67507        44.000 7     -2048.158 7
  25031491.887 5  -2508096.70325        33.000 5      4611.188 5
  23122214.354 7  -3048841.26607        45.000 7      2057.200 7
  20019792.877 7  -2470415.38307        47.000 7      1571.255 7
 12 12 12 12 12 38.9990005  0 12G01G03G06G11G14G17G19G20G22G23G28G32
  20396643.801 7  -2750872.79607        47.000 7      2020.070 7
  23190786.451 7   2796030.42507        46.000 7     -2398.472 7
  24425500.112 4   2617565.96234        29.000 4     -2210.054 4
  19919250.446 7  -1810041.39407        44.000 7      1180.910 7
  23332151.223 7   -597351.60707        44.000 7        78.449 7
  25607101.314 5   -748202.19525        32.000 5      4712.527 5
  21353290.180 7    952782.46907        47.000 7     -1056.887 7
  21108152.714 7  -4803338.11907        45.000 7      3563.622 7
  24876444.434 7   2495948.23707        44.000 7     -2046.956 7
  25030614.001 5  -2512708.81525        33.000 5      4612.487 5
  23121823.016 7  -3050899.12707        45.000 7      2058.610 7
  20019494.112 7  -2471986.90007        46.000 7      1572.171 7
 12 12 12 12 12 39.9990005  0 12G01G03G06G11G14G17G19G20G22G23G28G32
  20396259.582 7  -2752892.25607        47.000 7      2018.525 7
  23191242.687 7   2798429.32407        46.000 7     -2399.364 7
  24425920.139 4   2619774.68124        29.000 4     -2208.941 4
  19919026.001 7  -1811222.03807        45.000 7      1180.060 7
  23332136.286 7   -597429.21807        45.000 7        76.708 7
  25606204.251 5   -752915.04625        32.000 5      4712.095 5
  21353491.642 7    953839.60007        47.000 7     -1058.304 7
  21107475.000 7  -4806901.44907        45.000 7      3562.487 7
  24876833.574 7   2497995.19807        44.000 7     -2047.547 7
  25029735.662 5  -2517321.61225        33.000 5      4611.794 5
  23121431.101 7  -3052957.02407        46.000 7      2056.889 7
  20019194.893 7  -2473558.40107        46.000 7      1570.917 7
 12 12 12 12 12 40.9990005  0 12G01G03G06G11G14G17G19G20G22G23G28G32
  20395875.049 7  -2754911.12107        47.000 7      2018.615 7
  23191698.923 7   2800828.74707        46.000 7     -2399.500 7
  24426340.166 4   2621983.87634        29.000 4     -2207.190 4
  19918801.679 7  -1812401.94007        45.000 7      1180.042 7
  23332122.029 7   -597505.92007        45.000 7        76.825 7
  25605308.025 5   -757627.59025        31.000 5      4710.769 5
  21353692.983 7    954897.48107        47.000 7     -1057.952 7
  21106797.635 7  -4810464.04307        46.000 7      3562.581 7
  24877222.487 7   2500042.53107        44.000 7     -2047.304 7
  25028857.637 5  -2521934.21625        33.000 5      4611.792 5
  23121039.867 7  -3055013.98207        46.000 7      2056.552 7
  20018895.988 7  -2475128.96407        46.000 7      1570.216 7
 12 12 12 12 12 42.0000000  0 12G01G03G06G11G14G17G19G20G22G23G28G32
  20695283.512 7  -2756929.08007        47.000 7      2017.649 7
  23491948.556 7   2803229.01007        46.000 7     -2400.822 7
  24726552.874 4   2624193.78934        28.000 4     -2210.533 4
  20218369.706 7  -1813580.80307        45.000 7      1178.421 7
  23631900.052 7   -597581.39007        45.000 7        74.334 7
  25904203.975 5   -762339.55625        31.000 5      4711.742 5
  21653686.918 7    955956.44207        47.000 7     -1059.884 7
  21405912.498 7  -4814025.55607        46.000 7      3560.828 7
  25177405.634 7   2502090.51607        44.000 7     -2048.397 7
  25327772.224 5  -2526546.30525        33.000 5      4612.397 5
  23420441.263 7  -3057069.71007        46.000 7      2055.097 7
  20318389.974 7  -2476698.26807        46.000 7      1569.129 7
 12 12 12 12 12 43.0000000  0 12G01G03G06G11G14G17G19G20G22G23G28G32
  20694899.554 7  -2758947.02907        47.000 7      2018.571 7
  23492405.088 7   2805629.21807        46.000 7     -2399.848 7
  24726973.302 4   2626403.64034        29.000 4     -2208.284 4
  20218145.576 7  -1814759.54307        45.000 7      1179.295 7
  23631886.110 7   -597656.52007        45.000 7        75.681 7
  25903307.592 5   -767052.29505        31.000 5      4712.233 5
  21653888.416 7    957015.54907        47.000 7     -1059.316 7
  21405235.848 7  -4817586.90607        46.000 7      3561.569 7
  25177795.472 7   2504138.27207        44.000 7     -2046.573 7
  25326895.036 5  -2531159.19805        34.000 5      4613.696 5
  23420050.448 7  -3059125.10607        46.000 7      2055.597 7
  20318091.244 7  -2478267.20907        46.000 7      1569.589 7
 12 12 12 12 12 44.0000000  0 12G01G03G06G11G14G17G19G20G22G23G28G32
  20694515.545 7  -2760964.82007        47.000 7      2017.399 7
  23492861.883 7   2808029.53307        46.000 7     -2400.770 7
  24727393.573 4   2628613.45134        29.000 4     -2208.133 4
  20217921.498 7  -1815937.95007        45.000 7      1177.928 7
  23631871.800 7   -597731.14107        44.000 7        74.224 7
  25902410.878 5   -771764.58605        31.000 5      4711.430 5
  21654090.018 7    958075.01207        47.000 7     -1060.410 7
  21404557.925 7  -4821147.89907        46.000 7      3559.946 7
  25178184.926 7   2506185.96807        44.000 7     -2048.348 7
  25326017.377 5  -2535771.85205        34.000 5      4611.354 5
  23419659.162 7  -3061179.97907        46.000 7      2054.336 7
  20317792.671 7  -2479835.64507        46.000 7      1567.678 7
 12 12 12 12 12 45.0000000  0 12G01G03G06G11G14G17G19G20G22G23G28G32
  20694131.309 7  -2762982.15007        47.000 7      2016.129 7
  23493318.485 7   2810430.23007        46.000 7     -2401.317 7
  24727814.926 4   2630823.60834        29.000 4     -2209.973 4
  20217697.349 7  -1817115.75007        45.000 7      1176.734 7
  23631858.102 7   -597804.95207        44.000 7        73.092 7
  25901514.216 5   -776476.22235        31.000 5      4712.047 5
  21654291.411 7    959135.09507        47.000 7     -1060.884 7
  21403880.298 7  -4824708.25007        46.000 7      3559.782 7
  25178574.694 7   2508233.89407        44.000 7     -2048.387 7
  25325139.928 5  -2540384.43905        34.000 5      4612.372 5
  23419268.643 7  -3063234.08107        46.000 7      2052.834 7
  20317494.499 7  -2481403.24407        46.000 7      1566.635 7
 12 12 12 12 12 46.0000000  0 12G01G03G06G11G14G17G19G20G22G23G28G32
  20693747.927 7  -2764998.95007        47.000 7      2017.853 7
  23493775.489 7   2812831.38807        46.000 7     -2400.645 7
  24728236.070 5   2633034.07725        30.000 5     -2209.364 5
  20217473.638 7  -1818292.89807        45.000 7      1177.508 7
  23631844.822 7   -597877.92107        45.000 7        73.541 7
  25900617.816 5   -781188.16725        31.000 5      4712.368 5
  21654493.450 7    960195.85207        47.000 7     -1060.047 7
  21403203.509 7  -4828267.93107        46.000 7      3560.105 7
  25178965.422 7   2510282.08307        44.000 7     -2046.890 7
  25324262.514 5  -2544996.82605        34.000 5      4613.494 5
  23418878.439 7  -3065287.32207        46.000 7      2053.797 7
  20317196.746 7  -2482969.98207        46.000 7      1567.966 7
 12 12 12 12 12 47.0000000  0 12G01G03G06G11G14G17G19G20G22G23G28G32
  20693364.738 7  -2767015.67307        47.000 7      2016.598 7
  23494232.667 7   2815232.55607        46.000 7     -2401.436 7
  24728656.742 4   2635244.50524        29.000 4     -2212.594 4
  20217250.031 7  -1819469.82807        45.000 7      1176.631 7
  23631830.758 7   -597950.46407        45.000 7        72.438 7
  25899721.590 5   -785900.23125        31.000 5      4711.606 5
  21654695.349 7    961256.85807        47.000 7     -1061.758 7
  21402526.004 7  -4831827.35507        46.000 7      3558.997 7
  25179355.138 7   2512330.10607        44.000 7     -2048.683 7
  25323384.349 5  -2549609.56305        34.000 5      4612.277 5
  23418487.728 7  -3067340.15007        46.000 7      2052.581 7
  20316898.400 7  -2484536.31907        46.000 7      1566.486 7
 12 12 12 12 12 48.0000000  0 12G01G03G06G11G14G17G19G20G22G23G28G32
  20692980.798 7  -2769032.52607        47.000 7      2017.168 7
  23494689.531 7   2817633.53307        46.000 7     -2400.873 7
  24729076.787 4   2637454.78334        28.000 4     -2208.270 4
  20217025.359 7  -1820646.73707        45.000 7      1176.746 7
  23631816.920 7   -598022.80807        45.000 7        72.589 7
  25898824.875 5   -790612.80425        31.000 5      4713.839 5
  21654896.933 7    962317.89207        47.000 7     -1061.395 7
  21401848.935 7  -4835386.74207        46.000 7      3559.152 7
  25179743.911 7   2514377.78607        44.000 7     -2047.424 7
  25322506.708 5  -2554222.76705        34.000 5      4614.875 5
  23418097.262 7  -3069392.79407        46.000 7      2052.643 7
  20316600.385 7  -2486102.42007        46.000 7      1566.201 7
 12 12 12 12 12 49.0000000  0 12G01G03G06G11G14G17G19G20G22G23G28G32
  20692596.981 7  -2771049.30607        47.000 7      2015.579 7
  23495146.675 7   2820034.50707        46.000 7     -2402.224 7
  24729497.284 4   2639664.96634        29.000 4     -2213.464 4
  20216801.822 7  -1821823.44307        45.000 7      1175.177 7
  23631803.762 7   -598094.75407        45.000 7        70.133 7
  25897928.301 5   -795325.50825        30.000 5      4712.394 5
  21655099.024 7    963379.16207        47.000 7     -1062.672 7
  21401171.762 7  -4838945.88807        46.000 7      3557.468 7
  25180133.819 7   2516425.28507        44.000 7     -2048.240 7
  25321629.049 5  -2558836.28205        34.000 5      4613.042 5
  23417707.006 7  -3071445.03607        46.000 7      2050.632 7
  20316302.422 7  -2487668.08007        46.000 7      1564.362 7
 12 12 12 12 12 50.0000000  0 12G01G03G06G11G14G17G19G20G22G23G28G32
  20692213.495 7  -2773065.13407        47.000 7      2016.795 7
  23495603.783 7   2822436.37507        46.000 7     -2401.515 7
  24729918.725 5   2641875.95035        30.000 5     -2211.253 5
  20216578.354 7  -1822999.04107        45.000 7      1176.285 7
  23631789.889 7   -598165.39607        45.000 7        70.853 7
  25897031.604 5   -800037.61925        30.000 5      4712.605 5
  21655301.203 7    964441.54607        47.000 7     -1062.251 7
  21400495.147 7  -4842503.90507        46.000 7      3558.332 7
  25180522.854 7   2518473.50907        44.000 7     -2047.082 7
  25320751.565 5  -2563449.24805        34.000 5      4612.886 5
  23417316.575 7  -3073495.99707        46.000 7      2051.529 7
  20316004.687 7  -2489232.44207        46.000 7      1565.135 7
 12 12 12 12 12 51.0000000  0 12G01G03G06G11G14G17G19G20G22G23G28G32
  20691829.852 7  -2775081.15607        47.000 7      2015.545 7
  23496060.612 7   2824837.97707        46.000 7     -2402.001 7
  24730339.694 5   2644086.59835        30.000 5     -2210.411 5
  20216354.276 7  -1824174.69907        45.000 7      1174.926 7
  23631776.365 7   -598235.89907        45.000 7        69.823 7
  25896134.732 5   -804750.13825        30.000 5      4711.583 5
  21655503.625 7    965503.90007        47.000 7     -1062.616 7
  21399818.428 7  -4846061.94907        46.000 7      3557.458 7
  25180912.570 7   2520521.29307        44.000 7     -2048.325 7
  25319873.906 5  -2568062.26735        34.000 5      4614.167 5
  23416926.108 7  -3075546.81307        46.000 7      2050.187 7
  20315707.544 7  -2490796.65507        46.000 7      1563.414 7
 12 12 12 12 12 52.0000000  0 12G01G03G06G11G14G17G19G20G22G23G28G32
  20691446.191 7  -2777096.65407        47.000 7      2014.198 7
  23496518.122 7   2827240.02707        46.000 7     -2402.523 7
  24730760.226 5   2646297.65425        30.000 5     -2213.273 5
  20216130.843 7  -1825349.68907        45.000 7      1174.355 7
  23631763.382 7   -598305.54707        45.000 7        68.851 7
  25895237.250 5   -809462.49225        30.000 5      4711.894 5
  21655706.379 7    966566.93907        47.000 7     -1063.639 7
  21399141.482 7  -4849619.29807        46.000 7      3556.236 7
  25181302.914 7   2522569.34507        44.000 7     -2049.032 7
  25318995.549 5  -2572675.62725        35.000 5      4613.600 5
  23416535.642 7  -3077596.77607        46.000 7      2048.931 7
  20315409.966 7  -2492359.99007        46.000 7      1562.274 7
 12 12 12 12 12 53.0000000  0 12G01G03G06G11G14G17G19G20G22G23G28G32
  20691062.374 7  -2779111.60407        47.000 7      2015.474 7
  23496975.440 7   2829642.55407        46.000 7     -2402.131 7
  24731181.702 5   2648509.06425        30.000 5     -2211.909 5
  20215907.725 7  -1826523.99907        45.000 7      1174.616 7
  23631749.893 7   -598374.31007        44.000 7        68.489 7
  25894340.047 5   -814174.55125        30.000 5      4712.903 5
  21655908.400 7    967630.67607        47.000 7     -1063.829 7
  21398464.361 7  -4853175.92807        46.000 7      3556.859 7
  25181691.547 7   2524617.71407        44.000 7     -2047.900 7
  25318117.559 5  -2577288.81425        34.000 5      4612.551 5
  23416146.415 7  -3079645.86307        46.000 7      2049.456 7
  20315112.195 7  -2493922.41707        46.000 7      1562.410 7
 12 12 12 12 12 54.0000000  0 12G01G03G06G11G14G17G19G20G22G23G28G32
  20690679.429 7  -2781125.90607        47.000 7      2014.686 7
  23497432.514 7   2832045.67307        46.000 7     -2403.144 7
  24731603.683 4   2650721.05434        29.000 4     -2212.582 4
  20215683.682 7  -1827697.49207        45.000 7      1173.846 7
  23631736.683 7   -598442.07007        44.000 7        67.698 7
  25893443.124 5   -818886.23635        30.000 5      4712.370 5
  21656111.032 7    968695.26007        47.000 7     -1064.624 7
  21397786.821 7  -4856731.73607        46.000 7      3556.123 7
  25182081.874 7   2526666.52607        44.000 7     -2048.459 7
  25317239.953 5  -2581901.71825        35.000 5      4614.387 5
  23415756.106 7  -3081693.95607        46.000 7      2047.713 7
  20314815.280 7  -2495483.86307        46.000 7      1561.318 7
 12 12 12 12 12 55.0000000  0 12G01G03G06G11G14G17G19G20G22G23G28G32
  20690295.995 7  -2783139.32007        47.000 7      2013.542 7
  23497889.500 7   2834449.60207        46.000 7     -2404.220 7
  24732025.891 5   2652933.75035        30.000 5     -2211.785 5
  20215460.842 7  -1828869.98107        45.000 7      1172.316 7
  23631723.578 7   -598508.62907        44.000 7        66.176 7
  25892546.619 5   -823597.34225        30.000 5      4711.019 5
  21656313.368 7    969760.87207        47.000 7     -1065.795 7
  21397110.067 7  -4860286.51007        46.000 7      3554.620 7
  25182473.352 7   2528715.94007        45.000 7     -2049.309 7
  25316362.364 5  -2586514.12725        35.000 5      4611.670 5
  23415366.286 7  -3083740.84307        46.000 7      2046.629 7
  20314518.487 7  -2497044.05507        47.000 7      1559.939 7
 12 12 12 12 12 56.0000000  0 12G01G03G06G11G14G17G19G20G22G23G28G32
  20689912.718 7  -2785152.97307        47.000 7      2013.899 7
  23498346.800 7   2836853.24907        46.000 7     -2403.368 7
  24732447.401 5   2655146.06725        30.000 5     -2211.778 5
  20215237.427 7  -1830042.53307        45.000 7      1172.918 7
  23631710.892 7   -598575.07507        44.000 7        66.294 7
  25891649.712 5   -828308.92225        30.000 5      4709.609 5
  21656516.139 7    970826.44007        47.000 7     -1065.325 7
  21396433.417 7  -4863841.31907        46.000 7      3555.054 7
  25182862.946 7   2530764.89607        45.000 7     -2048.841 7
  25315485.333 5  -2591127.13625        35.000 5      4613.251 5
  23414976.780 7  -3085787.61707        46.000 7      2046.820 7
  20314221.815 7  -2498604.13207        47.000 7      1560.120 7
 12 12 12 12 12 57.0000000  0 12G01G03G06G11G14G17G19G20G22G23G28G32
  20689529.058 7  -2787166.99307        47.000 7      2014.534 7
  23498804.380 7   2839256.43807        46.000 7     -2402.585 7
  24732868.946 5   2657357.87935        30.000 5     -2210.869 5
  20215014.326 7  -1831215.32407        45.000 7      1173.229 7
  23631698.014 7   -598641.54907        44.000 7        66.712 7
  25890752.614 5   -833021.16925        31.000 5      4712.597 5
  21656718.597 7    971891.78307        47.000 7     -1064.760 7
  21395756.820 7  -4867396.33807        46.000 7      3555.219 7
  25183252.836 7   2532813.25907        45.000 7     -2047.974 7
  25314607.535 5  -2595740.88825        35.000 5      4613.445 5
  23414587.203 7  -3087834.43507        45.000 7      2047.153 7
  20313925.022 7  -2500164.24207        47.000 7      1560.510 7
 12 12 12 12 12 58.0000000  0 12G01G03G06G11G14G17G19G20G22G23G28G32
  20689145.607 7  -2789180.26907        47.000 7      2012.425 7
  23499261.645 7   2841660.31607        46.000 7     -2404.559 7
  24733290.351 5   2659570.27135        30.000 5     -2215.468 5
  20214791.836 7  -1832387.23407        45.000 7      1170.590 7
  23631685.659 7   -598706.95707        44.000 7        64.437 7
  25889856.127 5   -837732.98525        31.000 5      4711.716 5
  21656921.578 7    972958.03707        47.000 7     -1067.313 7
  21395080.188 7  -4870950.43207        46.000 7      3553.245 7
  25183642.866 7   2534862.10907        45.000 7     -2049.458 7
  25313729.702 5  -2600354.25325        35.000 5      4611.972 5
  23414197.261 7  -3089880.18607        45.000 7      2044.883 7
  20313628.054 7  -2501723.26407        47.000 7      1557.715 7
 12 12 12 12 12 59.0000000  0 12G01G03G06G11G14G17G19G20G22G23G28G32
  20688762.470 7  -2791192.74907        47.000 7      2012.722 7
  23499719.068 7   2844064.90807        46.000 7     -2404.893 7
  24733711.564 5   2661783.38925        30.000 5     -2214.820 5
  20214569.398 7  -1833558.20507        45.000 7      1170.678 7
  23631673.496 7   -598771.22807        44.000 7        64.349 7
  25888959.046 5   -842444.24525        31.000 5      4710.195 5
  21657124.838 7    974025.24607        47.000 7     -1067.243 7
  21394403.817 7  -4874503.58707        46.000 7      3552.908 7
  25184032.756 7   2536911.50907        45.000 7     -2049.222 7
  25312851.432 5  -2604967.23325        34.000 5      4613.397 5
  23413807.737 7  -3091924.80407        45.000 7      2044.288 7
  20313331.645 7  -2503281.13607        47.000 7      1557.539 7
 12 12 12 12 13  0.0000000  0 12G01G03G06G11G14G17G19G20G22G23G28G32
  20688379.333 7  -2793205.24707        47.000 7      2012.692 7
  23500177.154 7   2846469.43307        46.000 7     -2404.977 7
  24734132.795 5   2663996.33225        30.000 5     -2212.301 5
  20214345.808 7  -1834729.01907        45.000 7      1171.084 7
  23631661.351 7   -598835.16907        44.000 7        63.771 7
  25888062.506 5   -847155.80625        31.000 5      4711.079 5
  21657327.749 7    975092.62107        47.000 7     -1067.308 7
  21393727.709 7  -4878056.55607        46.000 7      3553.181 7
  25184422.664 7   2538960.68807        45.000 7     -2049.140 7
  25311973.390 5  -2609580.57635        35.000 5      4613.667 5
  23413419.278 7  -3093969.09207        45.000 7      2043.961 7
  20313035.567 7  -2504838.64107        47.000 7      1557.278 7
 12 12 12 12 13  1.0000000  0 12G01G03G06G11G14G17G19G20G22G23G28G32
  20687996.021 7  -2795217.98507        47.000 7      2012.619 7
  23500634.349 7   2848873.64707        46.000 7     -2404.112 7
  24734553.851 5   2666208.89225        30.000 5     -2210.415 5
  20214123.161 7  -1835899.97207        45.000 7      1170.646 7
  23631649.746 7   -598899.04407        44.000 7        63.365 7
  25887165.792 5   -851868.42905        31.000 5      4712.101 5
  21657531.532 7    976159.88107        47.000 7     -1067.304 7
  21393051.844 7  -4881609.62507        46.000 7      3553.249 7
  25184812.693 7   2541009.35607        45.000 7     -2048.817 7
  25311095.103 5  -2614194.57925        35.000 5      4613.567 5
  23413030.347 7  -3096013.30607        45.000 7      2044.507 7
  20312739.297 7  -2506396.06507        47.000 7      1557.525 7
 12 12 12 12 13  2.0000000  0 12G01G03G06G11G14G17G19G20G22G23G28G32
  20687613.460 7  -2797230.00707        47.000 7      2012.098 7
  23501092.034 7   2851278.50607        46.000 7     -2404.231 7
  24734975.152 5   2668421.98335        30.000 5     -2212.906 5
  20213900.374 7  -1837070.05707        45.000 7      1170.326 7
  23631637.706 7   -598961.85007        44.000 7        62.857 7
  25886269.165 5   -856580.08705        32.000 5      4712.725 5
  21657734.985 7    977228.04207        47.000 7     -1067.928 7
  21392375.404 7  -4885161.80307        46.000 7      3551.941 7
  25185202.392 7   2543058.51807        44.000 7     -2048.931 7
  25310216.886 5  -2618808.19625        35.000 5      4614.024 5
  23412641.050 7  -3098056.49007        45.000 7      2042.981 7
  20312443.150 7  -2507952.42607        47.000 7      1556.351 7
 12 12 12 12 13  3.0000000  0 12G01G03G06G11G14G17G19G20G22G23G28G32
  20687230.533 7  -2799241.62807        47.000 7      2011.766 7
  23501549.805 7   2853683.67607        46.000 7     -2405.381 7
  24735396.243 4   2670635.38924        29.000 4     -2212.597 4
  20213678.180 7  -1838239.60107        45.000 7      1168.941 7
  23631626.311 7   -599023.93607        44.000 7        61.644 7
  25885372.956 5   -861291.70405        32.000 5      4710.702 5
  21657938.524 7    978296.76607        47.000 7     -1068.661 7
  21391699.487 7  -4888713.39707        45.000 7      3551.583 7
  25185593.346 7   2545107.81407        45.000 7     -2049.404 7
  25309338.773 5  -2623421.76525        35.000 5      4614.397 5
  23412253.080 7  -3100098.93207        45.000 7      2041.949 7
  20312147.211 7  -2509508.03007        47.000 7      1555.618 7
 12 12 12 12 13  4.0000000  0 12G01G03G06G11G14G17G19G20G22G23G28G32
  20686847.570 7  -2801253.19707        46.000 7      2011.430 7
  23502007.001 7   2856088.84907        46.000 7     -2405.207 7
  24735817.457 4   2672848.69024        29.000 4     -2216.971 4
  20213455.219 7  -1839408.94107        45.000 7      1168.966 7
  23631614.689 7   -599085.63207        44.000 7        61.101 7
  25884477.132 5   -866003.48105        32.000 5      4710.771 5
  21658141.889 7    979365.69607        47.000 7     -1069.424 7
  21391023.204 7  -4892264.78307        46.000 7      3550.778 7
  25185982.626 7   2547156.93307        45.000 7     -2049.439 7
  25308460.888 5  -2628035.70925        34.000 5      4613.984 5
  23411863.940 7  -3102140.98007        45.000 7      2041.485 7
  20311851.378 7  -2511063.22607        47.000 7      1554.692 7
 12 12 12 12 13  5.0000000  0 12G01G03G06G11G14G17G19G20G22G23G28G32
  20686464.782 7  -2803263.95607        46.000 7      2009.843 7
  23502464.912 7   2858494.76307        46.000 7     -2406.724 7
  24736239.298 4   2675062.64324        29.000 4     -2217.383 4
  20213232.956 7  -1840577.32507        44.000 7      1167.784 7
  23631603.294 7   -599146.17707        44.000 7        59.375 7
  25883581.081 5   -870714.71605        32.000 5      4710.497 5
  21658345.934 7    980435.61007        47.000 7     -1070.759 7
  21390347.951 7  -4895815.17107        46.000 7      3549.258 7
  25186372.080 7   2549206.65507        45.000 7     -2050.353 7
  25307583.089 5  -2632649.18725        34.000 5      4613.198 5
  23411475.463 7  -3104181.88307        45.000 7      2040.075 7
  20311555.614 7  -2512617.26407        47.000 7      1553.384 7
 12 12 12 12 13  6.0000000  0 12G01G03G06G11G14G17G19G20G22G23G28G32
  20686082.134 7  -2805274.87107        46.000 7      2011.285 7
  23502922.945 7   2860900.43607        46.000 7     -2405.829 7
  24736660.372 5   2677276.34935        30.000 5     -2212.635 5
  20213010.395 7  -1841745.72507        44.000 7      1168.941 7
  23631591.916 7   -599206.56207        44.000 7        60.861 7
  25882684.680 5   -875426.40705        33.000 5      4712.746 5
  21658549.980 8    981505.51008        48.000 8     -1069.527 8
  21389672.243 7  -4899365.56007        46.000 7      3550.145 7
  25186763.104 7   2551255.92407        45.000 7     -2048.843 7
  25306705.221 5  -2637263.21225        34.000 5      4615.083 5
  23411086.777 7  -3106222.62107        45.000 7      2040.852 7
  20311259.833 7  -2514171.11807        47.000 7      1553.939 7
 12 12 12 12 13  7.0000000  0 12G01G03G06G11G14G17G19G20G22G23G28G32
  20685699.555 7  -2807285.44907        46.000 7      2010.414 7
  23503381.502 7   2863306.41907        46.000 7     -2405.711 7
  24737081.062 4   2679490.27334        29.000 4     -2215.346 4
  20212788.027 7  -1842913.64407        44.000 7      1167.927 7
  23631581.045 7   -599266.25007        44.000 7        59.615 7
  25881788.978 5   -880138.04605        32.000 5      4711.613 5
  21658753.676 8    982575.93508        48.000 8     -1070.771 8
  21388997.251 7  -4902915.42407        46.000 7      3549.747 7
  25187153.500 7   2553305.31707        45.000 7     -2049.549 7
  25305827.388 5  -2641877.72205        34.000 5      4614.364 5
  23410698.737 7  -3108262.68907        45.000 7      2039.897 7
  20310964.122 7  -2515724.27307        47.000 7      1552.919 7
 12 12 12 12 13  8.0000000  0 12G01G03G06G11G14G17G19G20G22G23G28G32
  20685317.064 7  -2809295.74007        46.000 7      2010.065 7
  23503839.570 7   2865712.57507        46.000 7     -2406.094 7
  24737501.525 4   2681704.33534        28.000 4     -2214.397 4
  20212565.677 7  -1844081.15207        44.000 7      1167.498 7
  23631568.708 7   -599325.34207        45.000 7        58.247 7
  25880893.451 5   -884849.74005        32.000 5      4711.742 5
  21658957.791 8    983646.78308        48.000 8     -1071.260 8
  21388321.841 7  -4906464.84307        46.000 7      3549.208 7
  25187542.239 7   2555354.74607        44.000 7     -2049.468 7
  25304948.787 5  -2646491.85905        35.000 5      4614.208 5
  23410310.661 7  -3110302.13807        45.000 7      2039.013 7
  20310668.846 7  -2517276.78907        47.000 7      1552.012 7
 12 12 12 12 13  9.0000000  0 12G01G03G06G11G14G17G19G20G22G23G28G32
  20684934.224 7  -2811306.40307        47.000 7      2010.348 7
  23504297.499 7   2868118.31607        46.000 7     -2405.648 7
  24737922.529 4   2683917.87234        29.000 4     -2214.452 4
  20212343.309 7  -1845248.85907        44.000 7      1167.538 7
  23631557.400 7   -599384.43107        45.000 7        59.350 7
  25879997.626 5   -889562.06205        32.000 5      4712.840 5
  21659161.540 8    984717.45708        48.000 8     -1070.651 8
  21387646.029 7  -4910014.45307        46.000 7      3549.613 7
  25187932.461 7   2557403.58807        45.000 7     -2048.292 7
  25304070.919 5  -2651106.75605        35.000 5      4614.802 5
  23409923.266 7  -3112341.61207        45.000 7      2039.486 7
  20310373.048 7  -2518829.33207        46.000 7      1552.446 7
 12 12 12 12 13 10.0000000  0 12G01G03G06G11G14G17G19G20G22G23G28G32
  20684551.959 7  -2813316.77107        46.000 7      2010.483 7
  23504755.340 7   2870524.26707        46.000 7     -2405.796 7
  24738343.847 4   2686131.55334        29.000 4     -2214.541 4
  20212121.185 7  -1846416.16307        44.000 7      1167.245 7
  23631546.354 7   -599442.93607        44.000 7        58.475 7
  25879101.697 5   -894274.36005        31.000 5      4714.139 5
  21659364.992 8    985788.54908        48.000 8     -1071.275 8
  21386970.618 7  -4913563.61407        46.000 7      3549.409 7
  25188324.253 7   2559452.42807        45.000 7     -2048.930 7
  25303192.667 5  -2655721.77505        35.000 5      4613.854 5
  23409535.418 7  -3114380.49307        45.000 7      2038.857 7
  20310077.720 7  -2520381.25107        46.000 7      1551.193 7
 12 12 12 12 13 11.0000000  0 12G01G03G06G11G14G17G19G20G22G23G28G32
  20684169.101 7  -2815326.48907        47.000 7      2009.035 7
  23505213.217 7   2872930.81507        46.000 7     -2407.507 7
  24738765.619 4   2688345.78524        29.000 4     -2216.490 4
  20211899.043 7  -1847582.64507        44.000 7      1165.295 7
  23631535.186 7   -599500.41907        44.000 7        56.364 7
  25878206.082 5   -898986.31805        32.000 5      4710.071 5
  21659568.933 8    986860.49108        48.000 8     -1072.896 8
  21386295.556 7  -4917111.94207        45.000 7      3546.897 7
  25188713.393 7   2561501.72907        45.000 7     -2050.550 7
  25302314.310 5  -2660336.39805        35.000 5      4614.306 5
  23409147.691 7  -3116418.36807        46.000 7      2037.202 7
  20309782.829 7  -2521932.14107        46.000 7      1549.925 7
 12 12 12 12 13 12.0000000  0 12G01G03G06G11G14G17G19G20G22G23G28G32
  20683786.470 7  -2817335.45407        47.000 7      2009.950 7
  23505671.285 7   2875338.04207        46.000 7     -2406.556 7
  24739186.849 4   2690560.64734        28.000 4     -2209.214 4
  20211677.461 7  -1848748.21607        44.000 7      1166.842 7
  23631524.559 7   -599556.84207        44.000 7        56.726 7
  25877310.519 5   -903697.76305        32.000 5      4711.653 5
  21659773.170 8    987933.33008        48.000 8     -1072.047 8
  21385620.372 7  -4920659.35407        45.000 7      3547.858 7
  25189103.283 7   2563551.52707        45.000 7     -2049.104 7
  25301436.739 5  -2664950.70405        35.000 5      4614.916 5
  23408760.157 7  -3118455.17607        46.000 7      2037.342 7
  20309487.502 7  -2523481.94507        46.000 7      1550.218 7
 12 12 12 12 13 13.0000000  0 12G01G03G06G11G14G17G19G20G22G23G28G32
  20683404.590 7  -2819344.51507        47.000 7      2008.882 7
  23506129.370 7   2877745.10507        46.000 7     -2407.000 7
  24739607.522 4   2692775.15234        28.000 4     -2218.579 4
  20211455.738 7  -1849913.77307        44.000 7      1165.383 7
  23631514.193 7   -599613.02507        44.000 7        55.821 7
  25876414.468 5   -908409.57005        32.000 5      4711.921 5
  21659978.123 8    989006.22808        48.000 8     -1072.772 8
  21384945.276 7  -4924206.68407        45.000 7      3546.714 7
  25189494.011 7   2565600.98007        45.000 7     -2049.893 7
  25300558.853 5  -2669565.48005        35.000 5      4614.253 5
  23408372.797 7  -3120491.74907        46.000 7      2036.157 7
  20309192.593 7  -2525031.50007        46.000 7      1549.473 7
 12 12 12 12 13 14.0000000  0 12G01G03G06G11G14G17G19G20G22G23G28G32
  20683022.116 7  -2821352.85507        47.000 7      2008.502 7
  23506587.439 7   2880152.83307        46.000 7     -2407.153 7
  24740028.630 4   2694990.39924        28.000 4     -2212.678 4
  20211234.434 7  -1851078.44607        44.000 7      1165.336 7
  23631503.514 7   -599668.12607        44.000 7        55.894 7
  25875518.609 5   -913120.99105        32.000 5      4711.043 5
  21660182.919 8    990080.01808        48.000 8     -1073.094 8
  21384270.441 7  -4927753.12307        45.000 7      3547.708 7
  25189884.529 7   2567650.92107        45.000 7     -2049.066 7
  25299680.985 6  -2674179.89306        36.000 6      4614.902 6
  23407985.856 7  -3122527.24607        46.000 7      2036.375 7
  20308897.824 7  -2526579.96307        46.000 7      1548.871 7
 12 12 12 12 13 15.0000000  0 12G01G03G06G11G14G17G19G20G22G23G28G32
  20682640.009 7  -2823360.80907        47.000 7      2007.703 7
  23507045.158 7   2882560.86407        46.000 7     -2408.678 7
  24740450.123 4   2697205.78934        28.000 4     -2215.615 4
  20211012.869 7  -1852242.60107        44.000 7      1164.287 7
  23631492.625 7   -599722.52407        44.000 7        54.071 7
  25874622.715 5   -917832.25305        32.000 5      4710.683 5
  21660387.069 8    991154.34908        48.000 8     -1074.614 8
  21383595.240 7  -4931299.00207        45.000 7      3545.620 7
  25190274.507 7   2569701.01807        45.000 7     -2050.208 7
  25298803.152 6  -2678794.31106        36.000 6      4614.112 6
  23407598.653 7  -3124562.05407        46.000 7      2034.402 7
  20308603.613 7  -2528127.71007        46.000 7      1547.573 7
 12 12 12 12 13 16.0000000  0 12G01G03G06G11G14G17G19G20G22G23G28G32
  20682258.093 7  -2825368.66507        47.000 7      2008.613 7
  23507503.959 7   2884968.94407        46.000 7     -2406.947 7
  24740872.261 4   2699421.15424        28.000 4     -2216.023 4
  20210791.059 7  -1853406.50807        44.000 7      1164.924 7
  23631481.910 7   -599776.48707        44.000 7        54.161 7
  25873726.576 5   -922543.73705        32.000 5      4711.617 5
  21660591.620 8    992228.94908        48.000 8     -1073.704 8
  21382920.248 7  -4934844.62107        45.000 7      3546.424 7
  25190664.065 7   2571750.94807        45.000 7     -2049.149 7
  25297925.232 6  -2683409.00106        36.000 6      4616.174 6
  23407211.904 7  -3126596.40707        46.000 7      2035.193 7
  20308308.984 7  -2529674.99807        46.000 7      1548.014 7
 12 12 12 12 13 17.0000000  0 12G01G03G06G11G14G17G19G20G22G23G28G32
  20681875.707 7  -2827376.34107        47.000 7      2007.152 7
  23507961.504 7   2887377.12407        46.000 7     -2408.699 7
  24741293.667 4   2701636.57134        29.000 4     -2216.246 4
  20210569.703 7  -1854570.08107        44.000 7      1163.247 7
  23631472.138 7   -599829.92707        44.000 7        52.937 7
  25872830.298 5   -927255.32405        32.000 5      4710.944 5
  21660796.451 8    993303.88808        48.000 8     -1075.292 8
  21382245.588 7  -4938389.87907        45.000 7      3544.462 7
  25191053.485 7   2573800.84607        45.000 7     -2050.136 7
  25297047.014 6  -2688023.87006        36.000 6      4614.974 6
  23406824.736 7  -3128630.24807        46.000 7      2033.183 7
  20308014.703 7  -2531221.75207        46.000 7      1546.176 7
 12 12 12 12 13 18.0000000  0 12G01G03G06G11G14G17G19G20G22G23G28G32
  20681493.529 7  -2829383.45107        47.000 7      2007.210 7
  23508419.869 7   2889785.79307        46.000 7     -2408.047 7
  24741714.775 4   2703852.39434        29.000 4     -2215.844 4
  20210348.714 7  -1855732.95107        44.000 7      1163.307 7
  23631462.366 7   -599882.47207        44.000 7        52.845 7
  25871934.230 5   -931966.59705        32.000 5      4711.936 5
  21661001.543 8    994379.54808        48.000 8     -1075.665 8
  21381570.910 7  -4941934.38907        45.000 7      3545.052 7
  25191443.584 7   2575851.06707        45.000 7     -2049.999 7
  25296169.618 6  -2692638.54506        37.000 6      4615.380 6
  23406437.899 7  -3130663.19807        46.000 7      2032.941 7
  20307720.283 7  -2532767.60307        46.000 7      1546.336 7
 12 12 12 12 13 19.0000000  0 12G01G03G06G11G14G17G19G20G22G23G28G32
  20681111.806 7  -2831390.21807        47.000 7      2006.789 7
  23508878.408 7   2892194.73807        46.000 7     -2409.111 7
  24742136.425 4   2706068.50534        29.000 4     -2217.671 4
  20210127.602 7  -1856895.36107        44.000 7      1162.464 7
  23631452.402 7   -599934.36807        44.000 7        51.448 7
  25871038.388 5   -936677.83905        32.000 5      4710.067 5
  21661205.781 8    995455.69208        48.000 8     -1076.473 8
  21380896.459 7  -4945478.41907        45.000 7      3543.579 7
  25191834.469 7   2577901.35407        45.000 7     -2050.539 7
  25295291.453 6  -2697253.27606        37.000 6      4615.187 6
  23406051.203 7  -3132695.49307        46.000 7      2032.370 7
  20307426.666 7  -2534312.76607        46.000 7      1544.731 7
 12 12 12 12 13 20.0000000  0 12G01G03G06G11G14G17G19G20G22G23G28G32
  20680730.449 7  -2833397.11407        46.000 7      2006.995 7
  23509336.912 7   2894603.47707        46.000 7     -2408.402 7
  24742557.848 4   2708284.21524        29.000 4     -2214.010 4
  20209906.019 7  -1858057.73307        44.000 7      1163.135 7
  23631442.420 7   -599986.02707        44.000 7        51.788 7
  25870141.743 5   -941389.45805        33.000 5      4712.475 5
  21661410.506 8    996531.89008        48.000 8     -1075.764 8
  21380221.397 7  -4949022.39207        45.000 7      3544.437 7
  25192223.818 7   2579951.29807        45.000 7     -2049.880 7
  25294412.974 6  -2701868.48706        37.000 6      4616.875 6
  23405664.872 7  -3134727.57207        46.000 7      2032.484 7
  20307132.542 7  -2535857.70407        46.000 7      1545.225 7
 12 12 12 12 13 21.0000000  0 12G01G03G06G11G14G17G19G20G22G23G28G32
  20680348.673 7  -2835403.97307        47.000 7      2007.150 7
  23509795.434 7   2897012.17907        46.000 7     -2408.682 7
  24742979.462 4   2710499.85424        29.000 4     -2214.929 4
  20209684.750 7  -1859219.95807        44.000 7      1161.991 7
  23631433.085 7   -600037.34807        44.000 7        50.985 7
  25869245.517 5   -946101.30605        33.000 5      4714.563 5
  21661614.796 8    997608.29008        48.000 8     -1075.837 8
  21379547.016 7  -4952566.16407        45.000 7      3544.215 7
  25192613.743 7   2582001.05307        45.000 7     -2049.010 7
  25293534.582 6  -2706484.04806        38.000 6      4616.144 6
  23405278.158 7  -3136759.29607        46.000 7      2031.856 7
  20306838.558 7  -2537402.25307        46.000 7      1544.672 7
 12 12 12 12 13 22.0000000  0 12G01G03G06G11G14G17G19G20G22G23G28G32
  20679966.914 7  -2837409.92407        47.000 7      2006.593 7
  23510254.201 7   2899421.73607        46.000 7     -2408.524 7
  24743401.269 4   2712716.32034        29.000 4     -2215.432 4
  20209463.918 7  -1860381.10507        44.000 7      1161.575 7
  23631423.609 7   -600087.40307        44.000 7        49.932 7
  25868349.519 5   -950812.60005        33.000 5      4711.742 5
  21661820.063 8    998685.74408        48.000 8     -1077.202 8
  21378873.089 7  -4956108.85407        45.000 7      3543.257 7
  25193004.907 7   2584051.44607        45.000 7     -2049.645 7
  25292656.679 6  -2711099.06906        38.000 6      4616.032 6
  23404891.897 7  -3138789.77507        46.000 7      2030.871 7
  20306544.941 7  -2538945.55507        46.000 7      1542.975 7
 12 12 12 12 13 23.0000000  0 12G01G03G06G11G14G17G19G20G22G23G28G32
  20679585.208 7  -2839415.14107        47.000 7      2005.952 7
  23510712.565 7   2901831.95907        46.000 7     -2409.645 7
  24743823.302 4   2714933.38334        29.000 4     -2216.089 4
  20209243.434 7  -1861541.37607        44.000 7      1160.981 7
  23631414.151 7   -600136.37507        44.000 7        49.116 7
  25867454.165 5   -955523.41905        33.000 5      4710.590 5
  21662024.946 8    999764.11208        48.000 8     -1077.807 8
  21378199.772 7  -4959650.62507        45.000 7      3542.280 7
  25193395.408 7   2586102.33807        45.000 7     -2049.422 7
  25291778.445 6  -2715713.71606        38.000 6      4615.835 6
  23404505.515 7  -3140819.17707        46.000 7      2030.155 7
  20306251.376 7  -2540487.74807        46.000 7      1543.083 7
 12 12 12 12 13 24.0000000  0 12G01G03G06G11G14G17G19G20G22G23G28G32
  20679203.921 7  -2841419.93207        47.000 7      2004.589 7
  23511171.489 7   2904242.52607        46.000 7     -2411.209 7
  24744245.336 4   2717150.69124        29.000 4     -2217.107 4
  20209022.619 7  -1862701.10007        44.000 7      1159.377 7
  23631404.623 7   -600184.60907        44.000 7        48.025 7
  25866558.306 5   -960234.11505        34.000 5      4711.688 5
  21662230.475 8   1000843.06608        48.000 8     -1079.366 8
  21377525.792 7  -4963191.82407        45.000 7      3540.472 7
  25193784.967 7   2588153.42007        45.000 7     -2051.009 7
  25290900.681 6  -2720328.32206        38.000 6      4614.146 6
  23404119.638 7  -3142847.82007        46.000 7      2028.157 7
  20305958.195 7  -2542029.17707        46.000 7      1540.815 7
 12 12 12 12 13 25.0000000  0 12G01G03G06G11G14G17G19G20G22G23G28G32
  20678822.721 7  -2843424.71707        47.000 7      2005.098 7
  23511629.993 7   2906653.04907        46.000 7     -2409.696 7
  24744667.980 4   2719367.93224        29.000 4     -2214.860 4
  20208801.979 7  -1863860.65507        44.000 7      1159.941 7
  23631395.898 7   -600232.50007        44.000 7        48.032 7
  25865662.028 5   -964945.06505        34.000 5      4711.863 5
  21662435.166 8   1001922.18708        48.000 8     -1078.750 8
  21376852.127 7  -4966732.81207        45.000 7      3541.539 7
  25194174.840 7   2590204.29107        45.000 7     -2050.172 7
  25290022.534 6  -2724943.25306        39.000 6      4615.631 6
  23403733.360 7  -3144876.11307        46.000 7      2028.781 7
  20305665.468 7  -2543570.22707        47.000 7      1541.344 7
 12 12 12 12 13 26.0000000  0 12G01G03G06G11G14G17G19G20G22G23G28G32
  20678441.696 7  -2845429.50907        47.000 7      2003.412 7
  23512088.934 7   2909063.47807        46.000 7     -2411.704 7
  24745090.049 4   2721584.96824        29.000 4     -2216.735 4
  20208581.356 7  -1865020.07507        44.000 7      1158.078 7
  23631387.400 7   -600280.05807        45.000 7        45.988 7
  25864765.855 5   -969656.31705        35.000 5      4710.783 5
  21662640.694 8   1003001.45108        48.000 8     -1079.994 8
  21376178.426 7  -4970273.66207        45.000 7      3540.256 7
  25194566.091 7   2592254.86907        46.000 7     -2051.277 7
  25289143.950 6  -2729558.59606        39.000 6      4614.482 6
  23403346.855 7  -3146904.11607        46.000 7      2026.103 7
  20305371.990 7  -2545110.96907        47.000 7      1539.381 7
 12 12 12 12 13 27.0000000  0 12G01G03G06G11G14G17G19G20G22G23G28G32
  20678060.548 7  -2847433.78107        47.000 7      2002.996 7
  23512547.683 7   2911474.36507        46.000 7     -2411.816 7
  24745512.658 4   2723802.42424        29.000 4     -2219.476 4
  20208360.994 7  -1866178.82807        44.000 7      1157.935 7
  23631378.099 7   -600326.75607        45.000 7        45.335 7
  25863869.664 5   -974367.30305        35.000 5      4710.133 5
  21662846.572 8   1004081.42808        48.000 8     -1080.782 8
  21375504.307 7  -4973813.79807        45.000 7      3538.844 7
  25194956.138 7   2594305.75007        45.000 7     -2051.698 7
  25288265.559 6  -2734173.79106        39.000 6      4614.850 6
  23402961.083 7  -3148931.23907        45.000 7      2025.859 7
  20305078.826 7  -2546650.81507        47.000 7      1538.860 7
 12 12 12 12 13 28.0000000  0 12G01G03G06G11G14G17G19G20G22G23G28G32
  20677679.208 7  -2849437.46407        47.000 7      2003.173 7
  23513006.240 7   2913885.76507        46.000 7     -2411.448 7
  24745935.180 5   2726020.26135        30.000 5     -2217.332 5
  20208140.197 7  -1867336.85607        44.000 7      1157.306 7
  23631369.775 7   -600372.55307        45.000 7        44.497 7
  25862973.072 5   -979078.00005        35.000 5      4711.330 5
  21663052.188 8   1005162.12108        48.000 8     -1081.654 8
  21374830.903 7  -4977353.19707        44.000 7      3538.980 7
  25195345.907 7   2596356.97907        45.000 7     -2051.440 7
  25287386.958 6  -2738788.77406        39.000 6      4614.210 6
  23402575.224 7  -3150957.45607        45.000 7      2025.722 7
  20304785.314 7  -2548189.76107        46.000 7      1538.142 7
 12 12 12 12 13 29.0000000  0 12G01G03G06G11G14G17G19G20G22G23G28G32
  20677297.886 7  -2851440.52107        47.000 7      2003.863 7
  23513465.372 7   2916297.71907        46.000 7     -2411.238 7
  24746357.475 5   2728238.57725        30.000 5     -2216.489 5
  20207919.678 7  -1868494.12207        44.000 7      1157.513 7
  23631361.486 7   -600417.37407        45.000 7        44.955 7
  25862076.985 6   -983788.36306        36.000 6      4712.180 6
  21663258.275 8   1006243.61208        48.000 8     -1080.921 8
  21374156.365 7  -4980891.78307        44.000 7      3539.496 7
  25195736.617 7   2598408.58707        45.000 7     -2050.097 7
  25286509.351 6  -2743403.50206        39.000 6      4615.382 6
  23402189.661 7  -3152982.70607        45.000 7      2025.942 7
  20304492.935 7  -2549727.72707        46.000 7      1538.704 7
 12 12 12 12 13 30.0000000  0 12G01G03G06G11G14G17G19G20G22G23G28G32
  20676916.651 7  -2853444.16007        47.000 7      2003.425 7
  23513924.400 7   2918709.01907        46.000 7     -2411.272 7
  24746779.771 4   2730456.26234        29.000 4     -2217.454 4
  20207699.614 7  -1869651.81707        44.000 7      1157.446 7
  23631352.971 7   -600462.42407        45.000 7        45.082 7
  25861180.655 6   -988499.58206        36.000 6      4711.436 6
  21663464.362 8   1007324.69208        48.000 8     -1080.855 8
  21373482.629 7  -4984430.77107        44.000 7      3539.235 7
  25196127.781 7   2600459.36307        46.000 7     -2050.588 7
  25285631.169 6  -2748019.18906        39.000 6      4615.642 6
  23401804.430 7  -3155008.20807        45.000 7      2025.527 7
  20304199.946 7  -2551265.90507        46.000 7      1537.794 7
 12 12 12 12 13 31.0000000  0 12G01G03G06G11G14G17G19G20G22G23G28G32
  20676535.172 7  -2855447.75607        47.000 7      2002.663 7
  23514383.323 7   2921120.28307        46.000 7     -2412.301 7
  24747202.136 4   2732673.83734        28.000 4     -2216.885 4
  20207479.322 7  -1870809.32107        44.000 7      1156.843 7
  23631344.141 7   -600507.13307        45.000 7        43.816 7
  25860284.377 6   -993211.05306        36.000 6      4710.646 6
  21663669.420 8   1008405.95608        48.000 8     -1082.478 8
  21372809.435 7  -4987969.55807        44.000 7      3537.397 7
  25196517.689 7   2602509.93607        46.000 7     -2051.692 7
  25284752.533 6  -2752635.19706        39.000 6      4615.432 6
  23401418.850 7  -3157033.34107        45.000 7      2024.071 7
  20303906.922 7  -2552803.70407        46.000 7      1536.715 7
 12 12 12 12 13 32.0000000  0 12G01G03G06G11G14G17G19G20G22G23G28G32
  20676154.583 7  -2857451.11907        47.000 7      2002.878 7
  23514842.002 7   2923531.72207        46.000 7     -2411.603 7
  24747624.309 4   2734891.51734        29.000 4     -2218.969 4
  20207259.048 7  -1871966.46507        44.000 7      1157.312 7
  23631335.573 7   -600551.25307        44.000 7        43.540 7
  25859387.837 6   -997922.53706        36.000 6      4711.713 6
  21663875.175 8   1009487.63608        48.000 8     -1082.303 8
  21372135.699 7  -4991507.93507        44.000 7      3538.280 7
  25196908.190 7   2604560.51007        46.000 7     -2050.805 7
  25283874.508 6  -2757251.35306        39.000 6      4615.844 6
  23401033.951 7  -3159057.91807        46.000 7      2023.229 7
  20303614.596 7  -2554340.90607        46.000 7      1536.550 7
 12 12 12 12 13 33.0000000  0 12G01G03G06G11G14G17G19G20G22G23G28G32
  20675772.912 7  -2859453.95107        47.000 7      2001.964 7
  23515301.013 7   2925943.61007        46.000 7     -2412.613 7
  24748046.081 4   2737109.48534        28.000 4     -2220.390 4
  20207038.791 7  -1873122.93907        44.000 7      1155.533 7
  23631327.179 7   -600594.52807        44.000 7        42.149 7
  25858491.576 6  -1002633.81206        36.000 6      4710.446 6
  21664081.297 8   1010569.99708        48.000 8     -1083.515 8
  21371462.016 7  -4995045.63207        44.000 7      3537.346 7
  25197298.499 7   2606611.36907        46.000 7     -2051.661 7
  25282995.942 6  -2761867.34706        39.000 6      4614.863 6
  23400649.208 7  -3161081.62607        46.000 7      2022.493 7
  20303321.851 7  -2555877.25707        46.000 7      1535.243 7
 12 12 12 12 13 34.0000000  0 12G01G03G06G11G14G17G19G20G22G23G28G32
  20675391.904 7  -2861456.44107        47.000 7      2001.887 7
  23515760.442 7   2928355.77307        46.000 7     -2412.970 7
  24748468.097 4   2739327.74734        29.000 4     -2218.223 4
  20206819.058 7  -1874278.91907        44.000 7      1155.568 7
  23631319.082 7   -600637.10807        44.000 7        42.182 7
  25857595.124 6  -1007345.02006        36.000 6      4710.660 6
  21664287.280 8   1011652.86408        48.000 8     -1083.254 8
  21370788.891 7  -4998582.80007        44.000 7      3536.302 7
  25197688.424 7   2608662.31007        45.000 7     -2051.409 7
  25282117.742 6  -2766483.34606        39.000 6      4615.950 6
  23400264.955 7  -3163104.66307        46.000 7      2022.480 7
  20303029.595 7  -2557412.89907        46.000 7      1534.891 7
 12 12 12 12 13 35.0000000  0 12G01G03G06G11G14G17G19G20G22G23G28G32
  20675010.669 7  -2863459.02307        47.000 7      2002.258 7
  23516220.081 7   2930767.77007        46.000 7     -2412.429 7
  24748890.724 4   2741545.74334        28.000 4     -2217.219 4
  20206599.046 7  -1875434.83207        44.000 7      1155.586 7
  23631310.793 7   -600679.45307        44.000 7        42.218 7
  25856699.055 6  -1012056.57706        36.000 6      4710.642 6
  21664492.913 8   1012735.80508        48.000 8     -1083.772 8
  21370115.994 7  -5002119.89507        44.000 7      3536.424 7
  25198078.558 7   2610712.94307        45.000 7     -2050.922 7
  25281239.264 6  -2771099.80706        39.000 6      4616.256 6
  23399880.020 7  -3165127.42807        46.000 7      2022.104 7
  20302737.269 7  -2558948.27907        46.000 7      1534.724 7
 12 12 12 12 13 36.0000000  0 12G01G03G06G11G14G17G19G20G22G23G28G32
  20674629.486 7  -2865461.21707        47.000 7      2002.294 7
  23516678.725 7   2933180.08607        46.000 7     -2412.776 7
  24749312.827 4   2743763.98134        27.000 4     -2218.056 4
  20206379.103 7  -1876590.23107        44.000 7      1155.717 7
  23631302.766 7   -600721.06907        45.000 7        40.852 7
  25855802.201 5  -1016768.01405        35.000 5      4712.445 5
  21664699.122 8   1013819.28708        48.000 8     -1083.624 8
  21369443.096 7  -5005656.41107        44.000 7      3536.986 7
  25198468.501 7   2612763.72807        45.000 7     -2050.505 7
  25280360.645 6  -2775716.28706        39.000 6      4616.128 6
  23399495.330 7  -3167149.49707        46.000 7      2022.298 7
  20302445.536 7  -2560482.93007        46.000 7      1534.364 7
 12 12 12 12 13 37.0000000  0 12G01G03G06G11G14G17G19G20G22G23G28G32
  20674248.897 7  -2867462.65707        47.000 7      2001.662 7
  23517138.137 7   2935593.10007        46.000 7     -2413.063 7
  24749734.860 4   2745982.80734        27.000 4     -2219.145 4
  20206159.614 7  -1877744.73807        44.000 7      1153.333 7
  23631295.524 7   -600761.61907        45.000 7        39.183 7
  25854906.045 5  -1021479.00605        35.000 5      4710.043 5
  21664905.331 8   1014903.68408        48.000 8     -1085.350 8
  21368770.913 7  -5009192.01407        44.000 7      3535.246 7
  25198859.264 7   2614815.03807        45.000 7     -2051.188 7
  25279482.393 6  -2780332.34606        39.000 6      4615.861 6
  23399110.815 7  -3169170.46807        46.000 7      2021.420 7
  20302153.629 7  -2562016.46107        46.000 7      1532.983 7
 12 12 12 12 13 38.0000000  0 12G01G03G06G11G14G17G19G20G22G23G28G32
  20673868.395 7  -2869463.62507        47.000 7      2001.094 7
  23517597.305 7   2938006.49807        46.000 7     -2413.225 7
  24750156.981 4   2748202.09534        27.000 4     -2219.023 4
  20205939.759 7  -1878898.62107        44.000 7      1153.729 7
  23631288.387 7   -600801.34907        45.000 7        38.952 7
  25854010.256 5  -1026189.83405        34.000 5      4710.896 5
  21665111.680 8   1015988.72708        48.000 8     -1085.020 8
  21368098.260 7  -5012726.97807        44.000 7      3534.629 7
  25199249.538 7   2616866.52707        45.000 7     -2050.958 7
  25278603.792 6  -2784948.33006        40.000 6      4615.239 6
  23398726.177 7  -3171190.66207        46.000 7      2020.134 7
  20301861.966 7  -2563549.19307        46.000 7      1532.364 7
 12 12 12 12 13 39.0000000  0 12G01G03G06G11G14G17G19G20G22G23G28G32
  20673488.050 7  -2871464.39807        47.000 7      1999.910 7
  23518056.176 7   2940420.03207        46.000 7     -2414.383 7
  24750579.067 4   2750421.28234        27.000 4     -2219.669 4
  20205720.340 7  -1880052.14807        44.000 7      1153.260 7
  23631281.425 7   -600840.52707        45.000 7        38.834 7
  25853113.227 5  -1030900.75105        33.000 5      4707.763 5
  21665318.273 8   1017074.12508        48.000 8     -1086.031 8
  21367426.060 7  -5016261.56107        44.000 7      3533.627 7
  25199639.672 7   2618918.00407        45.000 7     -2051.642 7
  25277725.139 6  -2789564.46906        40.000 6      4615.522 6
  23398341.993 7  -3173210.30307        46.000 7      2019.147 7
  20301570.722 7  -2565081.35907        46.000 7      1531.499 7
 12 12 12 12 13 40.0000000  0 12G01G03G06G11G14G17G19G20G22G23G28G32
  20673107.129 7  -2873464.80007        47.000 7      2000.242 7
  23518515.535 7   2942833.85907        46.000 7     -2414.256 7
  24751001.240 4   2752640.78634        26.000 4     -2221.192 4
  20205500.886 7  -1881205.18007        44.000 7      1152.486 7
  23631274.008 7   -600879.02507        45.000 7        37.955 7
  25852217.071 5  -1035611.52705        33.000 5      4710.736 5
  21665524.919 8   1018160.05208        48.000 8     -1086.148 8
  21366753.913 7  -5019795.61007        44.000 7      3534.115 7
  25200029.946 7   2620969.58107        45.000 7     -2051.839 7
  25276846.381 6  -2794180.63006        40.000 6      4616.129 6
  23397957.861 7  -3175229.25307        46.000 7      2018.554 7
  20301279.181 7  -2566612.82907        46.000 7      1531.074 7
 12 12 12 12 13 41.0000000  0 12G01G03G06G11G14G17G19G20G22G23G28G32
  20672726.941 7  -2875464.57107        47.000 7      1999.033 7
  23518974.825 7   2945248.26507        46.000 7     -2414.841 7
  24751423.797 4   2754860.54634        26.000 4     -2219.836 4
  20205281.694 7  -1882357.42607        44.000 7      1151.655 7
  23631267.063 7   -600916.53007        45.000 7        37.131 7
  25851320.619 5  -1040322.01605        32.000 5      4709.220 5
  21665732.018 8   1019246.77908        48.000 8     -1087.153 8
  21366081.503 7  -5023328.83807        44.000 7      3532.855 7
  25200420.482 7   2623021.58007        45.000 7     -2052.430 7
  25275968.286 6  -2798796.50506        40.000 6      4615.379 6
  23397573.730 7  -3177247.22007        46.000 7      2017.587 7
  20300987.658 7  -2568143.30407        46.000 7      1529.722 7
 12 12 12 12 13 42.0000000  0 12G01G03G06G11G14G17G19G20G22G23G28G32
  20672346.439 7  -2877464.17207        47.000 7      1999.749 7
  23519434.254 7   2947662.74007        46.000 7     -2414.125 7
  24751845.098 4   2757080.66934        26.000 4     -2219.117 4
  20205062.554 7  -1883509.36407        44.000 7      1152.292 7
  23631259.629 7   -600953.56407        45.000 7        37.097 7
  25850423.590 5  -1045032.56305        32.000 5      4711.111 5
  21665938.629 8   1020333.81708        48.000 8     -1086.968 8
  21365409.356 7  -5026861.74707        44.000 7      3533.221 7
  25200811.018 7   2625073.48207        45.000 7     -2051.178 7
  25275089.946 6  -2803412.58506        40.000 6      4617.125 6
  23397190.034 7  -3179264.70207        46.000 7      2017.843 7
  20300696.885 7  -2569673.27207        46.000 7      1529.855 7
 12 12 12 12 13 43.0000000  0 12G01G03G06G11G14G17G19G20G22G23G28G32
  20671966.304 7  -2879464.06807        47.000 7      2000.263 7
  23519893.631 7   2950076.85407        46.000 7     -2414.441 7
  24752269.574 4   2759300.19834        25.000 4     -2219.146 4
  20204843.222 7  -1884661.47107        44.000 7      1151.373 7
  23631253.051 7   -600990.55907        45.000 7        36.531 7
  25849526.824 5  -1049743.70405        33.000 5      4709.492 5
  21666145.222 8   1021420.72208        48.000 8     -1086.900 8
  21364737.418 7  -5030394.75207        44.000 7      3533.227 7
  25201200.769 7   2627124.86107        45.000 7     -2051.021 7
  25274211.363 6  -2808029.37306        40.000 6      4617.225 6
  23396805.798 7  -3181282.15007        46.000 7      2017.098 7
  20300405.815 7  -2571203.17407        46.000 7      1529.832 7
 12 12 12 12 13 44.0000000  0 12G01G03G06G11G14G17G19G20G22G23G28G32
  20671585.784 7  -2881463.29107        47.000 7      1998.584 7
  23520352.816 7   2952491.57007        46.000 7     -2415.413 7
  24752691.416 4   2761520.32134        26.000 4     -2219.475 4
  20204624.170 7  -1885812.72807        44.000 7      1150.688 7
  23631247.048 7   -601026.54307        45.000 7        35.331 7
  25848630.336 5  -1054454.48905        33.000 5      4710.504 5
  21666352.478 8   1022508.47208        48.000 8     -1088.088 8
  21364064.851 7  -5033926.93807        44.000 7      3531.479 7
  25201591.514 7   2629176.65307        45.000 7     -2052.597 7
  25273332.640 6  -2812645.82506        40.000 6      4616.811 6
  23396421.719 7  -3183298.58607        46.000 7      2015.601 7
  20300115.112 7  -2572732.05707        46.000 7      1528.105 7
 12 12 12 12 13 45.0000000  0 12G01G03G06G11G14G17G19G20G22G23G28G32
  20671205.195 7  -2883462.26607        47.000 7      1999.242 7
  23520812.717 7   2954906.46107        46.000 7     -2414.973 7
  24753114.322 4   2763740.51334        26.000 4     -2219.827 4
  20204405.274 7  -1886963.62507        44.000 7      1150.758 7
  23631240.940 7   -601061.96107        45.000 7        35.071 7
  25847733.570 5  -1059165.28305        34.000 5      4710.281 5
  21666559.403 8   1023596.62508        48.000 8     -1088.122 8
  21363392.774 7  -5037458.71307        44.000 7      3531.553 7
  25201981.369 7   2631228.46807        45.000 7     -2051.739 7
  25272453.986 6  -2817262.40006        40.000 6      4616.551 6
  23396037.936 7  -3185314.45607        46.000 7      2015.518 7
  20299824.356 7  -2574260.35507        46.000 7      1528.485 7
 12 12 12 12 13 46.0000000  0 12G01G03G06G11G14G17G19G20G22G23G28G32
  20670825.356 7  -2885460.91307        47.000 7      1999.256 7
  23521271.954 7   2957321.61507        46.000 7     -2414.540 7
  24753537.856 4   2765960.99334        26.000 4     -2219.655 4
  20204186.431 7  -1888114.02107        44.000 7      1151.034 7
  23631234.152 7   -601096.69707        45.000 7        35.588 7
  25846836.681 5  -1063875.99905        34.000 5      4710.593 5
  21666766.956 8   1024685.27108        48.000 8     -1087.832 8
  21362720.923 7  -5040989.97407        44.000 7      3531.851 7
  25202372.306 7   2633280.37407        45.000 7     -2050.604 7
  25271575.612 6  -2821879.01206        40.000 6      4618.923 6
  23395654.799 7  -3187329.65807        46.000 7      2015.481 7
  20299533.636 7  -2575787.96807        46.000 7      1528.196 7
 12 12 12 12 13 47.0000000  0 12G01G03G06G11G14G17G19G20G22G23G28G32
  20670445.273 8  -2887459.27808        48.000 8      1997.940 8
  23521731.889 7   2959736.96907        46.000 7     -2415.377 7
  24753961.949 4   2768181.49434        26.000 4     -2220.502 4
  20203967.012 7  -1889264.01107        44.000 7      1149.689 7
  23631227.329 7   -601130.82507        45.000 7        33.612 7
  25845940.071 5  -1068586.73105        34.000 5      4710.581 5
  21666974.037 8   1025774.35508        48.000 8     -1089.315 8
  21362048.758 7  -5044520.77807        44.000 7      3530.333 7
  25202763.122 7   2635332.30907        45.000 7     -2052.266 7
  25270696.749 6  -2826495.74706        40.000 6      4617.266 6
  23395270.964 7  -3189344.23007        46.000 7      2014.353 7
  20299243.543 7  -2577314.95907        46.000 7      1526.616 7
 12 12 12 12 13 48.0000000  0 12G01G03G06G11G14G17G19G20G22G23G28G32
  20670065.713 8  -2889458.18708        48.000 8      1998.505 8
  23522191.284 7   2962151.68907        46.000 7     -2415.623 7
  24754384.698 4   2770401.32734        26.000 4     -2219.760 4
  20203748.291 7  -1890414.40607        44.000 7      1149.615 7
  23631221.064 7   -601165.17407        45.000 7        33.023 7
  25845042.938 5  -1073298.28805        34.000 5      4711.026 5
  21667180.805 8   1026863.05308        48.000 8     -1089.835 8
  21361376.593 7  -5048051.97507        44.000 7      3530.397 7
  25203154.024 7   2637383.45907        45.000 7     -2051.441 7
  25269818.393 6  -2831113.37206        40.000 6      4617.126 6
  23394887.304 7  -3191359.04607        46.000 7      2013.603 7
  20298953.224 7  -2578842.15007        46.000 7      1525.951 7
 12 12 12 12 13 49.0000000  0 12G01G03G06G11G14G17G19G20G22G23G28G32
  20669685.141 8  -2891456.46608        48.000 8      1997.835 8
  23522651.184 7   2964567.00507        46.000 7     -2415.503 7
  24754806.784 4   2772621.61634        26.000 4     -2220.650 4
  20203529.710 7  -1891564.00607        44.000 7      1149.591 7
  23631214.870 7   -601198.53607        45.000 7        32.847 7
  25844145.857 5  -1078009.51605        34.000 5      4712.062 5
  21667388.375 8   1027952.55608        48.000 8     -1090.188 8
  21360704.376 7  -5051582.33407        44.000 7      3529.876 7
  25203544.350 7   2639435.00507        45.000 7     -2051.611 7
  25268940.001 6  -2835730.70106        40.000 6      4617.241 6
  23394503.451 7  -3193372.87507        46.000 7      2013.262 7
  20298662.364 7  -2580368.34107        46.000 7      1525.434 7
 12 12 12 12 13 50.0000000  0 12G01G03G06G11G14G17G19G20G22G23G28G32
  20669304.954 8  -2893454.47408        48.000 8      1998.093 8
  23523110.683 7   2966982.49707        46.000 7     -2415.413 7
  24755230.545 4   2774842.13934        26.000 4     -2219.569 4
  20203311.285 7  -1892713.20907        44.000 7      1149.485 7
  23631209.111 7   -601231.30207        45.000 7        33.108 7
  25843249.021 5  -1082720.71405        34.000 5      4712.158 5
  21667595.509 7   1029042.48107        47.000 7     -1089.838 7
  21360032.141 7  -5055112.27507        44.000 7      3530.046 7
  25203934.747 7   2641486.56107        45.000 7     -2051.271 7
  25268061.487 6  -2840348.17806        40.000 6      4617.490 6
  23394120.750 7  -3195386.11707        45.000 7      2012.975 7
  20298372.149 7  -2581893.91607        46.000 7      1525.545 7
 12 12 12 12 13 51.0000000  0 12G01G03G06G11G14G17G19G20G22G23G28G32
  20668924.783 8  -2895451.14508        48.000 8      1996.511 8
  23523570.793 7   2969399.24907        46.000 7     -2416.702 7
  24755654.271 4   2777063.83934        26.000 4     -2221.621 4
  20203092.634 7  -1893860.93307        44.000 7      1147.677 7
  23631202.881 7   -601262.40307        45.000 7        31.461 7
  25842351.888 5  -1087430.87805        33.000 5      4710.366 5
  21667803.045 7   1030133.91707        47.000 7     -1091.116 7
  21359360.517 7  -5058640.70607        44.000 7      3528.701 7
  25204324.986 7   2643539.22307        45.000 7     -2052.048 7
  25267182.659 6  -2844964.66806        40.000 6      4617.201 6
  23393737.666 7  -3197397.66107        45.000 7      2011.941 7
  20298082.493 7  -2583417.79507        46.000 7      1524.032 7
 12 12 12 12 13 52.0000000  0 12G01G03G06G11G14G17G19G20G22G23G28G32
  20668545.136 8  -2897447.41208        48.000 8      1996.291 8
  23524031.095 7   2971816.35707        46.000 7     -2416.553 7
  24756077.753 4   2779285.75734        26.000 4     -2221.906 4
  20202874.541 7  -1895008.09107        44.000 7      1147.188 7
  23631196.372 7   -601292.76007        45.000 7        30.769 7
  25841455.365 5  -1092140.94205        33.000 5      4709.170 5
  21668010.720 7   1031225.90707        47.000 7     -1092.220 7
  21358689.015 7  -5062168.56007        44.000 7      3527.829 7
  25204714.545 7   2645592.04007        45.000 7     -2052.802 7
  25266304.425 6  -2849581.13606        40.000 6      4616.652 6
  23393355.436 7  -3199408.48007        45.000 7      2010.763 7
  20297792.715 7  -2584940.94107        46.000 7      1522.986 7
 12 12 12 12 13 53.0000000  0 12G01G03G06G11G14G17G19G20G22G23G28G32
  20668165.018 8  -2899443.89408        48.000 8      1996.888 8
  23524490.455 7   2974233.14607        46.000 7     -2416.527 7
  24756499.210 4   2781507.29734        26.000 4     -2220.933 4
  20202656.047 7  -1896155.34807        44.000 7      1147.188 7
  23631190.718 7   -601323.01307        45.000 7        30.292 7
  25840559.314 5  -1096851.51305        33.000 5      4710.636 5
  21668218.151 7   1032317.83207        47.000 7     -1091.867 7
  21358017.740 7  -5065696.45407        44.000 7      3527.565 7
  25205104.923 7   2647644.40607        45.000 7     -2052.012 7
  25265425.964 6  -2854198.17006        41.000 6      4618.009 6
  23392972.195 7  -3201419.21007        45.000 7      2010.847 7
  20297502.814 7  -2586463.95607        46.000 7      1523.186 7
 12 12 12 12 13 54.0000000  0 12G01G03G06G11G14G17G19G20G22G23G28G32
  20667785.005 8  -2901440.20908        48.000 8      1997.040 8
  23524950.128 7   2976650.04007        46.000 7     -2416.232 7
  24756922.483 4   2783728.95734        27.000 4     -2221.600 4
  20202437.954 7  -1897302.27007        44.000 7      1148.134 7
  23631184.646 7   -601352.74807        45.000 7        30.839 7
  25839662.983 5  -1101562.15005        33.000 5      4711.480 5
  21668426.279 7   1033410.09907        47.000 7     -1091.428 7
  21357345.907 7  -5069224.01007        44.000 7      3528.036 7
  25205495.389 7   2649696.69107        45.000 7     -2051.267 7
  25264546.822 6  -2858815.41306        41.000 6      4618.239 6
  23392589.546 7  -3203429.42007        45.000 7      2010.521 7
  20297213.263 7  -2587986.44907        46.000 7      1523.422 7
 12 12 12 12 13 55.0000000  0 12G01G03G06G11G14G17G19G20G22G23G28G32
  20667404.799 7  -2903435.99407        47.000 7      1995.741 7
  23525410.308 7   2979067.40307        46.000 7     -2417.886 7
  24757345.249 4   2785950.89434        26.000 4     -2222.589 4
  20202219.687 7  -1898448.54307        44.000 7      1145.985 7
  23631179.097 7   -601381.63007        45.000 7        28.570 7
  25838766.461 5  -1106272.57905        33.000 5      4709.470 5
  21668634.129 7   1034503.03807        47.000 7     -1093.470 7
  21356674.771 7  -5072750.86807        44.000 7      3526.207 7
  25205886.571 7   2651749.26007        45.000 7     -2052.966 7
  25263668.046 6  -2863432.52506        41.000 6      4617.326 6
  23392207.334 7  -3205438.79807        45.000 7      2008.186 7
  20296923.484 7  -2589508.08207        46.000 7      1521.259 7
 12 12 12 12 13 56.0000000  0 12G01G03G06G11G14G17G19G20G22G23G28G32
  20667024.926 7  -2905431.81807        47.000 7      1996.012 7
  23525869.720 7   2981484.64907        46.000 7     -2417.348 7
  24757767.667 4   2788172.66634        27.000 4     -2222.173 4
  20202001.961 7  -1899594.69107        44.000 7      1145.818 7
  23631173.914 7   -601410.21507        45.000 7        28.497 7
  25837869.607 5  -1110983.28905        33.000 5      4711.258 5
  21668842.223 7   1035596.11007        47.000 7     -1092.911 7
  21356003.531 7  -5076277.59907        44.000 7      3526.397 7
  25206276.165 7   2653801.55707        44.000 7     -2052.440 7
  25262789.550 6  -2868050.00906        41.000 6      4618.070 6
  23391825.157 7  -3207447.84107        45.000 7      2008.707 7
  20296633.828 7  -2591029.38607        46.000 7      1521.046 7
 12 12 12 12 13 57.0000000  0 12G01G03G06G11G14G17G19G20G22G23G28G32
  20666645.069 7  -2907426.61507        47.000 7      1994.443 7
  23526330.144 7   2983902.85107        46.000 7     -2418.225 7
  24758189.718 4   2790395.39134        26.000 4     -2222.384 4
  20201784.025 7  -1900739.66207        44.000 7      1144.940 7
  23631168.539 7   -601437.42407        45.000 7        26.900 7
  25836972.910 5  -1115693.28605        33.000 5      4709.724 5
  21669050.456 8   1036690.37708        48.000 8     -1094.516 8
  21355332.797 7  -5079803.11907        44.000 7      3525.148 7
  25206667.049 7   2655854.65307        44.000 7     -2053.534 7
  25261910.652 6  -2872666.84506        41.000 6      4616.702 6
  23391442.561 7  -3209455.54507        45.000 7      2007.393 7
  20296344.975 7  -2592549.31407        46.000 7      1519.584 7
 12 12 12 12 13 58.0000000  0 12G01G03G06G11G14G17G19G20G22G23G28G32
  20666264.916 7  -2909421.32407        47.000 7      1995.584 7
  23526790.306 7   2986321.04607        46.000 7     -2417.306 7
  24758612.310 4   2792618.05034        27.000 4     -2223.528 4
  20201566.072 7  -1901884.42007        44.000 7      1145.894 7
  23631162.728 7   -601464.22607        45.000 7        27.594 7
  25836076.772 5  -1120403.47105        33.000 5      4710.247 5
  21669258.969 8   1037784.87608        48.000 8     -1093.576 8
  21354662.151 7  -5083328.35407        44.000 7      3526.361 7
  25207058.824 7   2657907.55807        45.000 7     -2051.996 7
  25261031.597 6  -2877283.97106        41.000 6      4618.101 6
  23391060.244 7  -3211462.82407        45.000 7      2007.834 7
  20296055.668 7  -2594068.83207        46.000 7      1520.155 7
 12 12 12 12 13 59.0000000  0 12G01G03G06G11G14G17G19G20G22G23G28G32
  20665884.885 7  -2911416.11207        47.000 7      1994.445 7
  23527250.381 7   2988739.12207        46.000 7     -2417.724 7
  24759034.727 4   2794840.41934        27.000 4     -2222.619 4
  20201348.642 7  -1903029.11707        44.000 7      1144.792 7
  23631157.266 7   -601490.77307        45.000 7        26.126 7
  25835180.337 5  -1125114.00205        33.000 5      4709.542 5
  21669466.836 8   1038879.45608        48.000 8     -1094.512 8
  21353991.591 7  -5086853.50907        44.000 7      3525.281 7
  25207449.570 7   2659960.15807        45.000 7     -2052.615 7
  25260153.241 6  -2881901.55106        41.000 6      4617.788 6
  23390678.363 7  -3213469.86207        45.000 7      2007.209 7
  20295766.430 7  -2595588.06907        47.000 7      1518.944 7
 12 12 12 12 14  0.0000000  0 12G01G03G06G11G14G17G19G20G22G23G28G32
  20665505.500 7  -2913410.72407        47.000 7      1992.775 7
  23527710.386 7   2991157.27207        46.000 7     -2419.906 7
  24759458.279 4   2797062.84534        27.000 4     -2223.678 4
  20201130.933 7  -1904173.49307        44.000 7      1142.695 7
  23631152.223 7   -601516.82407        45.000 7        23.944 7
  25834284.285 5  -1129824.61905        33.000 5      4710.719 5
  21669675.471 8   1039974.37508        48.000 8     -1096.541 8
  21353321.171 7  -5090378.30507        44.000 7      3523.374 7
  25207839.460 7   2662012.69107        44.000 7     -2053.840 7
  25259274.360 6  -2886519.31406        41.000 6      4616.781 6
  23390296.186 7  -3215476.38407        45.000 7      2004.661 7
  20295477.420 7  -2597106.77507        47.000 7      1516.542 7
 12 12 12 12 14  1.0000000  0 12G01G03G06G11G14G17G19G20G22G23G28G32
  20665125.853 7  -2915405.02807        47.000 7      1994.656 7
  23528170.409 7   2993575.66607        46.000 7     -2418.016 7
  24759881.255 4   2799285.57134        27.000 4     -2222.402 4
  20200913.119 7  -1905317.42107        44.000 7      1144.527 7
  23631147.320 7   -601542.22907        45.000 7        25.441 7
  25833387.519 5  -1134535.24305        33.000 5      4711.450 5
  21669883.809 8   1041069.76108        48.000 8     -1095.351 8
  21352650.891 7  -5093902.63407        44.000 7      3524.709 7
  25208230.781 7   2664065.26507        45.000 7     -2052.005 7
  25258395.498 6  -2891137.13906        41.000 6      4618.731 6
  23389914.707 7  -3217482.26107        45.000 7      2006.282 7
  20295188.863 7  -2598624.81907        47.000 7      1518.104 7
 12 12 12 12 14  2.0000000  0 12G01G03G06G11G14G17G19G20G22G23G28G32
  20664746.294 7  -2917398.78107        47.000 7      1993.709 7
  23528631.095 7   2995994.54907        46.000 7     -2418.496 7
  24760303.428 4   2801508.59934        26.000 4     -2222.759 4
  20200696.091 7  -1906460.65207        44.000 7      1143.400 7
  23631142.521 7   -601566.74007        45.000 7        24.480 7
  25832491.206 5  -1139245.55705        33.000 5      4710.724 5
  21670091.955 8   1042165.86508        48.000 8     -1095.764 8
  21351979.581 7  -5097426.23807        44.000 7      3523.485 7
  25208621.264 7   2666118.16307        45.000 7     -2053.167 7
  25257517.054 6  -2895754.78506        41.000 6      4618.188 6
  23389532.896 7  -3219487.25807        45.000 7      2005.047 7
  20294900.289 7  -2600141.96907        47.000 7      1517.103 7
 12 12 12 12 14  3.0000000  0 12G01G03G06G11G14G17G19G20G22G23G28G32
  20664366.873 7  -2919392.49807        47.000 7      1993.827 7
  23529091.170 7   2998413.39307        46.000 7     -2418.467 7
  24760724.484 4   2803731.53334        26.000 4     -2222.128 4
  20200478.574 7  -1907603.70507        44.000 7      1143.041 7
  23631138.473 7   -601590.88507        45.000 7        24.421 7
  25831594.701 5  -1143956.11205        34.000 5      4709.990 5
  21670300.817 7   1043262.17807        47.000 7     -1095.704 7
  21351308.672 7  -5100949.61007        43.000 7      3523.617 7
  25209011.538 7   2668170.86007        44.000 7     -2052.081 7
  25256637.999 6  -2900372.72506        41.000 6      4618.988 6
  23389151.365 7  -3221491.87007        45.000 7      2004.406 7
  20294611.662 7  -2601658.72307        47.000 7      1517.156 7
 12 12 12 12 14  4.0000000  0 12G01G03G06G11G14G17G19G20G22G23G28G32
  20663987.279 7  -2921386.41507        47.000 7      1993.792 7
  23529551.489 7   3000831.95107        46.000 7     -2418.343 7
  24761149.589 4   2805954.10934        26.000 4     -2222.035 4
  20200260.865 7  -1908746.81707        44.000 7      1143.305 7
  23631134.529 7   -601614.91607        45.000 7        23.805 7
  25830698.335 5  -1148667.22505        34.000 5      4710.380 5
  21670509.259 7   1044358.42507        47.000 7     -1095.931 7
  21350637.712 7  -5104473.04907        44.000 7      3524.130 7
  25209402.092 7   2670223.11907        44.000 7     -2051.374 7
  25255759.049 6  -2904991.27206        40.000 6      4619.601 6
  23388770.112 7  -3223496.37707        45.000 7      2004.519 7
  20294322.582 7  -2603175.34507        47.000 7      1516.709 7
 12 12 12 12 14  5.0000000  0 12G01G03G06G11G14G17G19G20G22G23G28G32
  20663607.702 7  -2923379.68607        47.000 7      1992.909 7
  23530012.087 7   3003251.07807        46.000 7     -2419.843 7
  24761571.832 4   2808177.12534        26.000 4     -2223.689 4
  20200043.802 7  -1909889.13707        44.000 7      1141.935 7
  23631130.253 7   -601637.95307        45.000 7        22.715 7
  25829802.040 5  -1153377.84905        34.000 5      4711.201 5
  21670717.772 7   1045455.48407        47.000 7     -1097.652 7
  21349967.955 7  -5107995.66807        43.000 7      3521.716 7
  25209793.116 7   2672275.76007        45.000 7     -2052.730 7
  25254879.977 6  -2909609.54306        40.000 6      4618.440 6
  23388388.773 7  -3225499.89407        45.000 7      2002.933 7
  20294034.444 7  -2604690.97107        47.000 7      1515.102 7
 12 12 12 12 14  6.0000000  0 12G01G03G06G11G14G17G19G20G22G23G28G32
  20663228.578 7  -2925372.16207        47.000 7      1992.553 7
  23530472.599 7   3005670.93307        46.000 7     -2419.254 7
  24761994.930 4   2810400.89234        26.000 4     -2222.808 4
  20199826.267 7  -1911030.52007        44.000 7      1141.507 7
  23631125.559 7   -601659.88907        45.000 7        21.728 7
  25828905.901 5  -1158088.04005        34.000 5      4709.821 5
  21670926.930 7   1046553.49607        47.000 7     -1097.942 7
  21349297.203 7  -5111517.28707        43.000 7      3522.072 7
  25210183.739 7   2674328.96107        45.000 7     -2052.817 7
  25254000.817 6  -2914227.37506        40.000 6      4618.579 6
  23388008.131 7  -3227502.27907        45.000 7      2002.841 7
  20293746.690 7  -2606205.46007        47.000 7      1514.585 7
 12 12 12 12 14  7.0000000  0 12G01G03G06G11G14G17G19G20G22G23G28G32
  20662849.176 7  -2927364.56207        47.000 7      1991.979 7
  23530932.761 7   3008090.79007        46.000 7     -2421.104 7
  24762417.696 4   2812624.55034        26.000 4     -2223.108 4
  20199608.489 7  -1912171.68707        44.000 7      1140.191 7
  23631121.476 7   -601681.41107        45.000 7        19.763 7
  25828010.286 5  -1162798.44405        34.000 5      4709.547 5
  21671135.478 7   1047651.73307        47.000 7     -1099.302 7
  21348627.377 7  -5115038.70207        43.000 7      3520.045 7
  25210574.537 7   2676381.98007        45.000 7     -2054.523 7
  25253122.321 6  -2918845.50306        40.000 6      4617.251 6
  23387627.350 7  -3229504.29107        45.000 7      2000.656 7
  20293458.342 7  -2607719.52207        47.000 7      1512.751 7
 12 12 12 12 14  8.0000000  0 12G01G03G06G11G14G17G19G20G22G23G28G32
  20662469.948 7  -2929356.98607        47.000 7      1992.080 7
  23531393.517 7   3010510.54807        46.000 7     -2420.135 7
  24762839.468 4   2814848.04134        26.000 4     -2224.649 4
  20199391.373 7  -1913312.71807        44.000 7      1140.438 7
  23631117.777 7   -601702.59507        45.000 7        20.675 7
  25827114.200 5  -1167509.07405        34.000 5      4710.498 5
  21671344.654 7   1048750.12007        47.000 7     -1098.891 7
  21347957.253 7  -5118559.96407        43.000 7      3520.879 7
  25210965.457 7   2678434.74907        45.000 7     -2052.675 7
  25252243.476 6  -2923464.02706        40.000 6      4618.530 6
  23387246.621 7  -3231505.94707        45.000 7      2000.849 7
  20293170.187 7  -2609233.24007        47.000 7      1513.132 7
 12 12 12 12 14  9.0000000  0 12G01G03G06G11G14G17G19G20G22G23G28G32
  20662090.911 7  -2931348.45007        47.000 7      1990.490 7
  23531854.132 7   3012931.19207        46.000 7     -2421.092 7
  24763262.583 4   2817072.35734        26.000 4     -2225.780 4
  20199174.903 7  -1914452.66007        44.000 7      1139.260 7
  23631113.780 7   -601722.51407        45.000 7        19.289 7
  25826218.201 5  -1172219.09405        34.000 5      4709.657 5
  21671553.986 7   1049849.62907        47.000 7     -1100.108 7
  21347287.479 7  -5122080.07207        44.000 7      3519.140 7
  25211356.028 7   2680488.24107        45.000 7     -2053.567 7
  25251364.857 6  -2928081.95406        41.000 6      4617.502 6
  23386865.700 7  -3233506.33707        45.000 7      1999.593 7
  20292882.345 7  -2610745.66707        47.000 7      1511.520 7
 12 12 12 12 14 10.0000000  0 12G01G03G06G11G14G17G19G20G22G23G28G32
  20661712.538 7  -2933339.56407        47.000 7      1991.590 7
  23532314.836 7   3015352.12407        46.000 7     -2420.404 7
  24763686.100 4   2819296.94434        26.000 4     -2224.158 4
  20198957.648 7  -1915592.11507        44.000 7      1139.888 7
  23631110.430 7   -601741.74807        45.000 7        19.608 7
  25825322.482 5  -1176929.02505        34.000 5      4710.764 5
  21671762.778 7   1050949.62607        47.000 7     -1099.446 7
  21346618.281 7  -5125599.68107        44.000 7      3519.833 7
  25211746.651 7   2682541.81807        45.000 7     -2053.340 7
  25250485.977 6  -2932699.90606        41.000 6      4618.752 6
  23386484.902 7  -3235506.04307        45.000 7      1999.635 7
  20292594.120 7  -2612257.40707        46.000 7      1512.067 7
 12 12 12 12 14 11.0000000  0 12G01G03G06G11G14G17G19G20G22G23G28G32
  20661333.328 7  -2935331.15807        47.000 7      1991.840 7
  23532775.085 7   3017772.47907        46.000 7     -2420.018 7
  24764104.801 4   2821520.83134        25.000 4     -2224.046 4
  20198741.126 7  -1916731.88607        44.000 7      1139.549 7
  23631106.486 7   -601761.12007        45.000 7        19.667 7
  25824426.116 5  -1181639.68605        34.000 5      4711.738 5
  21671972.565 7   1052049.31807        47.000 7     -1099.707 7
  21345948.402 7  -5129119.58707        44.000 7      3520.015 7
  25212137.605 7   2684594.67607        45.000 7     -2052.803 7
  25249606.835 6  -2937318.71506        41.000 6      4618.312 6
  23386104.557 7  -3237505.87707        45.000 7      1999.894 7
  20292306.052 7  -2613769.25907        46.000 7      1511.782 7
 12 12 12 12 14 12.0000000  0 12G01G03G06G11G14G17G19G20G22G23G28G32
  20660954.291 7  -2937322.73807        47.000 7      1991.257 7
  23533236.015 7   3020192.78407        46.000 7     -2420.928 7
  24764526.974 4   2823744.59634        25.000 4     -2223.715 4
  20198524.621 7  -1917871.51307        44.000 7      1139.028 7
  23631102.996 7   -601780.15207        45.000 7        18.624 7
  25823530.013 5  -1186350.66505        35.000 5      4710.859 5
  21672181.741 7   1053149.17507        47.000 7     -1100.810 7
  21345279.169 7  -5132639.32107        44.000 7      3518.864 7
  25212528.438 7   2686647.31407        45.000 7     -2052.992 7
  25248727.693 6  -2941937.86106        41.000 6      4618.415 6
  23385723.863 7  -3239505.38607        45.000 7      1998.339 7
  20292018.333 7  -2615280.76607        46.000 7      1510.669 7
 12 12 12 12 14 13.0000000  0 12G01G03G06G11G14G17G19G20G22G23G28G32
  20660575.447 7  -2939314.04507        47.000 7      1990.165 7
  23533696.910 7   3022613.29707        46.000 7     -2421.241 7
  24764948.536 4   2825968.54334        24.000 4     -2222.639 4
  20198307.523 7  -1919010.72307        44.000 7      1138.291 7
  23631099.367 7   -601798.57907        45.000 7        17.205 7
  25822633.874 5  -1191061.62805        35.000 5      4710.066 5
  21672391.143 7   1054249.46907        47.000 7     -1100.938 7
  21344609.935 7  -5136158.59607        44.000 7      3518.504 7
  25212918.066 7   2688699.96107        45.000 7     -2053.160 7
  25247848.638 6  -2946557.10706        41.000 6      4619.320 6
  23385343.221 7  -3241504.29407        45.000 7      1997.838 7
  20291730.928 7  -2616791.64607        46.000 7      1510.047 7
 12 12 12 12 14 14.0000000  0 11G01G03G11G14G17G19G20G22G23G28G32
  20660196.760 7  -2941305.17807        47.000 7      1991.306 7
  23534157.282 7   3025033.88107        46.000 7     -2420.973 7
  20198090.948 7  -1920149.61907        44.000 7      1138.575 7
  23631096.208 7   -601816.51707        45.000 7        17.164 7
  25821737.736 5  -1195772.72505        35.000 5      4711.209 5
  21672600.371 7   1055350.08307        47.000 7     -1100.922 7
  21343940.684 7  -5139677.54407        44.000 7      3518.951 7
  25213308.602 7   2690752.53707        44.000 7     -2052.710 7
  25246969.758 6  -2951176.57506        41.000 6      4619.323 6
  23384962.475 7  -3243502.69807        45.000 7      1997.880 7
  20291443.052 7  -2618302.00807        46.000 7      1510.052 7
 12 12 12 12 14 15.0000000  0 11G01G03G11G14G17G19G20G22G23G28G32
  20659817.951 7  -2943295.55507        47.000 7      1990.083 7
  23534617.915 7   3027455.16807        46.000 7     -2421.623 7
  20197874.059 7  -1921287.62007        44.000 7      1137.337 7
  23631092.526 7   -601833.33107        45.000 7        15.737 7
  25820841.632 5  -1200483.31005        35.000 5      4710.812 5
  21672809.338 7   1056451.63407        47.000 7     -1101.765 7
  21343271.940 7  -5143195.53807        45.000 7      3517.948 7
  25213699.557 7   2692805.64007        44.000 7     -2053.587 7
  25246090.529 6  -2955795.62306        41.000 6      4618.619 6
  23384582.252 7  -3245500.01307        45.000 7      1996.667 7
  20291155.908 7  -2619811.26307        46.000 7      1508.290 7
 12 12 12 12 14 16.0000000  0 11G01G03G11G14G17G19G20G22G23G28G32
  20659439.054 7  -2945285.33207        47.000 7      1988.686 7
  23535079.055 7   3029876.97407        46.000 7     -2422.661 7
  20197657.397 7  -1922424.85307        44.000 7      1136.688 7
  23631088.984 7   -601849.22507        45.000 7        15.321 7
  25819945.581 5  -1205193.57505        35.000 5      4709.248 5
  21673019.473 7   1057553.94007        47.000 7     -1103.045 7
  21342602.567 7  -5146712.76707        45.000 7      3516.308 7
  25214089.552 7   2694859.10807        44.000 7     -2054.070 7
  25245211.509 6  -2960414.46806        41.000 6      4618.251 6
  23384202.256 7  -3247496.38907        45.000 7      1995.800 7
  20290869.219 7  -2621319.57107        46.000 7      1507.473 7
 12 12 12 12 14 17.0000000  0 11G01G03G11G14G17G19G20G22G23G28G32
  20659060.541 7  -2947274.95207        47.000 7      1989.210 7
  23535539.723 7   3032298.86507        46.000 7     -2422.324 7
  20197440.980 7  -1923561.80207        44.000 7      1136.396 7
  23631085.843 7   -601864.63907        45.000 7        14.851 7
  25819049.216 5  -1209903.95105        35.000 5      4709.992 5
  21673228.771 7   1058656.55607        47.000 7     -1103.236 7
  21341933.299 7  -5150229.68107        45.000 7      3516.309 7
  25214480.629 7   2696912.47307        44.000 7     -2053.443 7
  25244332.524 6  -2965033.50706        41.000 6      4618.589 6
  23383822.382 7  -3249492.28807        45.000 7      1995.226 7
  20290582.285 7  -2622827.37107        46.000 7      1507.234 7
 12 12 12 12 14 18.0000000  0 12G01G03G06G11G14G17G19G20G22G23G28G32
  20658682.221 7  -2949263.69007        47.000 7      1988.461 7
  23536000.496 7   3034721.56807        46.000 7     -2423.206 7
  24767063.851 4   2837094.22234        24.000 4     -2226.396 4
  20197224.998 7  -1924697.72007        44.000 7      1135.324 7
  23631082.894 7   -601878.82607        45.000 7        13.436 7
  25818153.339 5  -1214613.74105        35.000 5      4708.654 5
  21673438.854 7   1059760.22007        47.000 7     -1104.045 7
  21341264.833 7  -5153745.52207        45.000 7      3515.193 7
  25214871.706 7   2698966.47507        44.000 7     -2054.403 7
  25243453.504 6  -2969652.00706        41.000 6      4618.765 6
  23383442.578 7  -3251486.94707        45.000 7      1994.390 7
  20290295.438 7  -2624333.94707        46.000 7      1505.889 7
 12 12 12 12 14 19.0000000  0 12G01G03G06G11G14G17G19G20G22G23G28G32
  20658304.144 7  -2951252.19007        47.000 7      1989.013 7
  23536461.199 7   3037144.44007        46.000 7     -2422.010 7
  24767487.002 4   2839321.33234        24.000 4     -2229.028 4
  20197009.034 7  -1925833.26407        44.000 7      1136.270 7
  23631080.800 7   -601892.46207        45.000 7        13.922 7
  25817257.340 5  -1219323.53805        35.000 5      4711.213 5
  21673648.833 7   1060864.28107        47.000 7     -1103.578 7
  21340596.141 7  -5157260.96007        45.000 7      3515.498 7
  25215261.875 7   2701020.47707        44.000 7     -2053.257 7
  25242574.345 6  -2974270.66406        41.000 6      4619.330 6
  23383063.403 7  -3253481.06507        45.000 7      1994.989 7
  20290009.185 7  -2625839.92307        46.000 7      1506.626 7
 12 12 12 12 14 20.0000000  0 11G01G03G11G14G17G19G20G22G23G28G32
  20657925.614 7  -2953241.20007        47.000 7      1989.217 7
  23536922.653 7   3039566.70807        46.000 7     -2421.804 7
  20196793.001 7  -1926969.18907        44.000 7      1135.734 7
  23631078.496 7   -601906.27507        45.000 7        13.923 7
  25816360.975 5  -1224034.16805        35.000 5      4710.694 5
  21673859.090 7   1061967.97507        47.000 7     -1103.931 7
  21339926.576 7  -5160776.76207        45.000 7      3515.786 7
  25215653.493 7   2703073.69007        45.000 7     -2053.400 7
  25241694.906 6  -2978890.21006        41.000 6      4619.096 6
  23382683.791 7  -3255475.36907        45.000 7      1993.715 7
  20289722.966 7  -2627346.08707        46.000 7      1506.039 7
 12 12 12 12 14 21.0000000  0 11G01G03G11G14G17G19G20G22G23G28G32
  20657546.508 7  -2955229.78807        47.000 7      1987.811 7
  23537383.740 7   3041989.33007        46.000 7     -2423.740 7
  20196576.426 7  -1928104.52307        44.000 7      1134.617 7
  23631076.280 7   -601919.34107        45.000 7        12.128 7
  25815465.063 5  -1228744.65905        35.000 5      4709.687 5
  21674069.400 7   1063072.25907        47.000 7     -1105.540 7
  21339257.482 7  -5164291.96007        45.000 7      3513.729 7
  25216044.465 7   2705127.11407        45.000 7     -2053.261 7
  25240815.660 6  -2983509.67806        41.000 6      4618.302 6
  23382304.144 7  -3257468.89707        45.000 7      1992.256 7
  20289436.608 7  -2628851.46707        46.000 7      1504.923 7
 12 12 12 12 14 22.0000000  0 12G01G03G06G11G14G17G19G20G22G23G28G32
  20657168.135 7  -2957217.72507        47.000 7      1988.019 7
  23537844.548 7   3044412.54207        46.000 7     -2422.912 7
  24768755.912 4   2845999.29334        24.000 4     -2224.774 4
  20196360.881 7  -1929239.06907        44.000 7      1134.418 7
  23631073.924 7   -601931.40807        45.000 7        12.104 7
  25814568.855 5  -1233454.76405        35.000 5      4709.261 5
  21674279.815 7   1064177.36507        47.000 7     -1105.109 7
  21338589.034 7  -5167806.31907        45.000 7      3514.106 7
  25216435.454 7   2707180.92607        45.000 7     -2053.620 7
  25239936.518 6  -2988128.86706        41.000 6      4619.219 6
  23381925.090 7  -3259461.44907        45.000 7      1992.461 7
  20289150.320 7  -2630355.84307        46.000 7      1504.591 7
 12 12 12 12 14 23.0000000  0 12G01G03G06G11G14G17G19G20G22G23G28G32
  20656790.094 7  -2959205.27107        47.000 7      1987.089 7
  23538305.426 7   3046836.05507        46.000 7     -2424.196 7
  24769180.859 4   2848225.10234        25.000 4     -2225.162 4
  20196145.092 7  -1930373.09007        44.000 7      1133.277 7
  23631071.184 7   -601942.75907        45.000 7        10.915 7
  25813672.437 5  -1238164.73705        35.000 5      4710.064 5
  21674489.724 7   1065283.00307        47.000 7     -1106.149 7
  21337920.307 7  -5171320.11807        45.000 7      3513.484 7
  25216826.043 7   2709234.88907        45.000 7     -2053.909 7
  25239058.161 6  -2992748.03406        41.000 6      4618.625 6
  23381546.211 7  -3261453.28107        45.000 7      1991.138 7
  20288864.258 7  -2631859.51907        46.000 7      1502.842 7
 12 12 12 12 14 24.0000000  0 12G01G03G06G11G14G17G19G20G22G23G28G32
  20656411.738 7  -2961192.90407        47.000 7      1988.542 7
  23538766.495 7   3049259.41407        46.000 7     -2422.573 7
  24769602.771 4   2850451.35834        25.000 4     -2228.365 4
  20195929.320 7  -1931507.04707        44.000 7      1134.657 7
  23631069.300 7   -601953.87307        45.000 7        11.968 7
  25812776.648 5  -1242875.11605        35.000 5      4711.101 5
  21674699.964 7   1066388.71607        47.000 7     -1104.700 7
  21337251.824 7  -5174833.84907        45.000 7      3514.317 7
  25217217.050 7   2711288.50507        45.000 7     -2051.801 7
  25238179.036 6  -2997367.67106        41.000 6      4620.664 6
  23381167.018 7  -3263444.87607        45.000 7      1991.868 7
  20288578.057 7  -2633362.88807        46.000 7      1504.187 7
 12 12 12 12 14 25.0000000  0 12G01G03G06G11G14G17G19G20G22G23G28G32
  20656033.766 7  -2963180.34907        47.000 7      1987.733 7
  23539227.303 7   3051682.89807        46.000 7     -2423.667 7
  24770026.357 4   2852679.26834        25.000 4     -2232.317 4
  20195713.373 7  -1932640.67807        44.000 7      1132.881 7
  23631068.096 7   -601964.46407        46.000 7         9.808 7
  25811880.911 6  -1247585.58206        36.000 6      4710.528 6
  21674910.379 7   1067494.78507        47.000 7     -1106.383 7
  21336583.393 7  -5178347.19207        45.000 7      3512.976 7
  25217608.074 7   2713342.08007        45.000 7     -2053.128 7
  25237299.528 6  -3001987.45606        41.000 6      4620.193 6
  23380788.156 7  -3265435.93407        45.000 7      1990.713 7
  20288292.659 7  -2634865.73107        46.000 7      1502.278 7
 12 12 12 12 14 26.0000000  0 12G01G03G06G11G14G17G19G20G22G23G28G32
  20655656.144 7  -2965166.64407        47.000 7      1986.518 7
  23539688.582 7   3054107.43707        46.000 7     -2423.937 7
  24770450.066 4   2854908.04934        25.000 4     -2224.967 4
  20195497.758 7  -1933773.00307        44.000 7      1133.020 7
  23631067.380 7   -601973.57407        46.000 7         9.594 7
  25810985.383 6  -1252295.14206        36.000 6      4709.447 6
  21675120.916 7   1068602.15607        47.000 7     -1106.878 7
  21335914.788 7  -5181859.21707        45.000 7      3512.197 7
  25217998.261 7   2715396.54907        44.000 7     -2053.905 7
  25236420.526 6  -3006606.47806        41.000 6      4619.358 6
  23380409.713 7  -3267425.51007        45.000 7      1989.930 7
  20288007.365 7  -2636367.07607        47.000 7      1501.344 7
 12 12 12 12 14 27.0000000  0 12G01G03G06G11G14G17G19G20G22G23G28G32
  20655278.469 7  -2967153.14207        47.000 7      1985.991 7
  23540149.879 7   3056531.70307        46.000 7     -2424.880 7
  24770873.723 4   2857134.60434        24.000 4     -2227.532 4
  20195282.475 7  -1934905.38707        44.000 7      1131.808 7
  23631065.880 7   -601982.54107        46.000 7         8.423 7
  25810089.175 6  -1257005.23606        36.000 6      4709.326 6
  21675331.470 7   1069709.50007        47.000 7     -1107.840 7
  21335247.021 7  -5185371.27307        45.000 7      3511.759 7
  25218388.884 7   2717450.59107        44.000 7     -2054.228 7
  25235541.105 6  -3011226.04806        41.000 6      4619.205 6
  23380030.991 7  -3269414.94707        45.000 7      1988.273 7
  20287721.688 7  -2637868.28507        47.000 7      1500.430 7
 12 12 12 12 14 28.0000000  0 12G01G03G06G11G14G17G19G20G22G23G28G32
  20654900.863 7  -2969139.71907        47.000 7      1986.154 7
  23540611.681 7   3058955.82107        46.000 7     -2424.833 7
  24771300.398 4   2859362.67134        25.000 4     -2226.479 4
  20195067.017 7  -1936037.70707        44.000 7      1131.815 7
  23631064.117 7   -601991.26507        45.000 7         7.905 7
  25809192.652 6  -1261715.66806        36.000 6      4710.517 6
  21675542.478 7   1070816.90707        47.000 7     -1108.034 7
  21334578.171 7  -5188883.23207        45.000 7      3511.230 7
  25218780.170 7   2719504.30507        44.000 7     -2053.646 7
  25234661.963 6  -3015846.08306        41.000 6      4619.681 6
  23379652.304 7  -3271404.15207        44.000 7      1988.186 7
  20287435.836 7  -2639369.22307        47.000 7      1500.548 7
 12 12 12 12 14 29.0000000  0 12G01G03G06G11G14G17G19G20G22G23G28G32
  20654523.031 7  -2971125.83907        47.000 7      1985.993 7
  23541072.786 7   3061380.30107        46.000 7     -2424.839 7
  24771724.438 4   2861588.24834        26.000 4     -2224.953 4
  20194851.455 7  -1937169.44807        44.000 7      1131.778 7
  23631062.843 7   -601999.20107        46.000 7         7.486 7
  25808296.287 6  -1266425.92706        36.000 6      4709.761 6
  21675753.416 7   1071924.91807        47.000 7     -1108.672 7
  21333909.811 7  -5192394.57807        45.000 7      3510.926 7
  25219170.270 7   2721558.20407        44.000 7     -2053.850 7
  25233783.222 6  -3020466.03306        41.000 6      4619.710 6
  23379273.739 7  -3273392.57307        45.000 7      1987.878 7
  20287150.455 7  -2640869.38207        47.000 7      1499.556 7
 12 12 12 12 14 30.0000000  0 12G01G03G06G11G14G17G19G20G22G23G28G32
  20654145.164 7  -2973111.32507        47.000 7      1986.466 7
  23541534.309 7   3063805.35807        46.000 7     -2423.695 7
  24772149.752 4   2863816.31934        26.000 4     -2226.738 4
  20194636.224 7  -1938300.41307        44.000 7      1131.979 7
  23631061.604 7   -602006.16707        46.000 7         8.080 7
  25807399.904 6  -1271135.81706        36.000 6      4711.276 6
  21675964.075 7   1073033.73607        47.000 7     -1107.885 7
  21333241.502 7  -5195905.13007        45.000 7      3511.440 7
  25219560.928 7   2723612.52007        44.000 7     -2053.098 7
  25232904.080 6  -3025085.69806        41.000 6      4620.872 6
  23378895.593 7  -3275380.01507        45.000 7      1988.509 7
  20286865.388 7  -2642368.53307        47.000 7      1499.968 7
 12 12 12 12 14 31.0000000  0 12G01G03G06G11G14G17G19G20G22G23G28G32
  20653766.913 7  -2975096.85907        47.000 7      1985.522 7
  23541996.059 7   3066230.27307        46.000 7     -2424.678 7
  24772572.763 4   2866043.43434        26.000 4     -2225.648 4
  20194421.411 7  -1939431.26407        44.000 7      1130.805 7
  23631060.016 7   -602012.86307        46.000 7         6.951 7
  25806503.626 6  -1275846.05006        36.000 6      4710.099 6
  21676174.996 7   1074142.66707        47.000 7     -1109.052 7
  21332573.700 7  -5199415.52907        45.000 7      3510.255 7
  25219952.284 7   2725666.53607        44.000 7     -2053.460 7
  25232025.200 6  -3029705.78806        41.000 6      4621.335 6
  23378517.516 7  -3277367.17307        45.000 7      1987.065 7
  20286579.938 7  -2643867.40507        46.000 7      1499.060 7
 12 12 12 12 14 32.0000000  0 12G01G03G06G11G14G17G19G20G22G23G28G32
  20653389.046 7  -2977082.42007        47.000 7      1985.159 7
  23542457.216 7   3068655.10207        46.000 7     -2424.526 7
  24772997.222 4   2868270.27634        26.000 4     -2227.711 4
  20194205.482 7  -1940562.01307        44.000 7      1131.087 7
  23631058.812 7   -602019.25407        46.000 7         5.840 7
  25805606.912 6  -1280556.58806        36.000 6      4710.214 6
  21676386.056 7   1075251.72907        47.000 7     -1109.100 7
  21331905.845 7  -5202925.78507        45.000 7      3509.905 7
  25220343.553 7   2727720.25507        44.000 7     -2053.180 7
  25231146.162 6  -3034326.29106        41.000 6      4619.541 6
  23378140.016 7  -3279354.02607        45.000 7      1986.925 7
  20286294.365 7  -2645365.95807        46.000 7      1498.233 7
 12 12 12 12 14 33.0000000  0 12G01G03G06G11G14G17G19G20G22G23G28G32
  20653011.424 7  -2979067.54407        47.000 7      1984.837 7
  23542918.670 7   3071080.26007        46.000 7     -2425.204 7
  24773420.826 4   2870497.52834        26.000 4     -2227.313 4
  20193990.443 7  -1941692.18107        44.000 7      1129.742 7
  23631057.730 7   -602024.86907        46.000 7         5.379 7
  25804710.634 6  -1285266.98606        36.000 6      4709.330 6
  21676596.942 7   1076361.37907        47.000 7     -1109.880 7
  21331238.270 7  -5206435.43307        46.000 7      3509.505 7
  25220734.787 7   2729774.19207        44.000 7     -2053.986 7
  25230266.986 6  -3038946.70306        41.000 6      4620.250 6
  23377762.149 7  -3281340.11707        45.000 7      1985.826 7
  20286009.106 7  -2646863.72507        46.000 7      1497.529 7
 12 12 12 12 14 34.0000000  0 12G01G03G06G11G14G17G19G20G22G23G28G32
  20652633.661 7  -2981052.31907        47.000 7      1984.934 7
  23543380.420 7   3073505.70907        46.000 7     -2425.483 7
  24773843.366 4   2872724.97334        26.000 4     -2227.212 4
  20193775.439 7  -1942821.85807        44.000 7      1130.341 7
  23631056.579 7   -602029.81207        45.000 7         5.305 7
  25803814.495 6  -1289977.31806        36.000 6      4711.483 6
  21676808.614 7   1077471.54507        47.000 7     -1110.162 7
  21330570.938 7  -5209944.56307        46.000 7      3509.291 7
  25221125.427 7   2731828.21307        44.000 7     -2053.751 7
  25229388.140 6  -3043567.14306        41.000 6      4620.592 6
  23377384.543 7  -3283325.52607        45.000 7      1985.732 7
  20285723.708 7  -2648360.79907        46.000 7      1496.734 7
 12 12 12 12 14 35.0000000  0 12G01G03G06G11G14G17G19G20G22G23G28G32
  20652256.667 7  -2983036.74607        47.000 7      1984.035 7
  23543841.839 7   3075931.43407        46.000 7     -2425.947 7
  24774267.720 4   2874952.60734        27.000 4     -2226.769 4
  20193560.243 7  -1943951.04307        44.000 7      1128.973 7
  23631055.427 7   -602034.07607        46.000 7         3.842 7
  25802917.187 5  -1294687.55205        35.000 5      4710.458 5
  21677019.831 7   1078582.21307        47.000 7     -1111.046 7
  21329903.066 7  -5213453.17407        46.000 7      3508.614 7
  25221517.324 7   2733882.33407        45.000 7     -2054.109 7
  25228508.998 6  -3048187.60006        41.000 6      4620.359 6
  23377007.025 7  -3285310.24707        45.000 7      1984.516 7
  20285438.920 7  -2649857.15707        46.000 7      1495.721 7
 12 12 12 12 14 36.0000000  0 12G01G03G06G11G14G17G19G20G22G23G28G32
  20651878.939 7  -2985021.16907        47.000 7      1984.088 7
  23544303.362 7   3078357.08307        46.000 7     -2425.903 7
  24774692.319 4   2877180.11134        27.000 4     -2227.540 4
  20193345.344 7  -1945080.10007        44.000 7      1128.762 7
  23631054.240 7   -602038.01307        45.000 7         3.496 7
  25802020.142 5  -1299398.07005        35.000 5      4711.253 5
  21677231.258 7   1079693.04007        47.000 7     -1110.913 7
  21329235.351 7  -5216961.60607        46.000 7      3508.636 7
  25221907.982 7   2735936.21207        45.000 7     -2053.784 7
  25227629.821 6  -3052808.41506        41.000 6      4620.768 6
  23376629.612 7  -3287294.63607        45.000 7      1984.459 7
  20285154.080 7  -2651353.16607        46.000 7      1495.705 7
 12 12 12 12 14 37.0000000  0 12G01G03G06G11G14G17G19G20G22G23G28G32
  20651501.631 7  -2987005.08007        47.000 7      1983.456 7
  23544764.711 7   3080783.15107        46.000 7     -2427.194 7
  24775116.708 4   2879407.91734        27.000 4     -2228.090 4
  20193130.357 7  -1946208.48907        43.000 7      1127.805 7
  23631053.595 7   -602041.10007        45.000 7         3.099 7
  25801123.026 5  -1304108.39905        35.000 5      4708.608 5
  21677443.156 8   1080804.51808        48.000 8     -1112.041 8
  21328567.985 7  -5220469.37407        46.000 7      3507.406 7
  25222298.204 7   2737990.36107        44.000 7     -2054.483 7
  25226750.069 6  -3057429.08906        41.000 6      4620.129 6
  23376253.001 7  -3289278.22007        45.000 7      1982.851 7
  20284869.188 7  -2652848.32207        46.000 7      1494.508 7
 12 12 12 12 14 38.0000000  0 12G01G03G06G11G14G17G19G20G22G23G28G32
  20651123.956 7  -2988988.48607        47.000 7      1982.479 7
  23545226.793 7   3083209.67407        45.000 7     -2427.769 7
  24775543.191 4   2881636.04934        27.000 4     -2229.495 4
  20192915.510 7  -1947336.21407        43.000 7      1126.408 7
  23631053.158 7   -602043.34207        45.000 7         0.908 7
  25800227.010 5  -1308818.47605        35.000 5      4708.490 5
  21677655.281 8   1081916.68708        48.000 8     -1113.263 8
  21327900.514 7  -5223976.44407        46.000 7      3505.953 7
  25222689.037 7   2740044.76807        44.000 7     -2056.212 7
  25225870.787 6  -3062049.61806        41.000 6      4618.950 6
  23375875.082 7  -3291260.92807        45.000 7      1981.646 7
  20284584.680 7  -2654342.61907        46.000 7      1492.709 7
 12 12 12 12 14 39.0000000  0 12G01G03G06G11G14G17G19G20G22G23G28G32
  20650747.136 7  -2990971.29307        47.000 7      1982.506 7
  23545688.700 7   3085636.71507        45.000 7     -2427.275 7
  24775967.493 4   2883864.78634        28.000 4     -2229.466 4
  20192700.942 7  -1948463.19307        43.000 7      1126.527 7
  23631053.089 7   -602044.63707        45.000 7         0.437 7
  25799329.667 5  -1313528.20505        35.000 5      4709.990 5
  21677866.969 8   1083029.61008        48.000 8     -1113.705 8
  21327233.497 7  -5227482.73207        46.000 7      3506.015 7
  25223080.218 7   2742099.53807        44.000 7     -2055.324 7
  25224991.540 6  -3066669.92006        41.000 6      4619.970 6
  23375498.122 7  -3293242.70407        45.000 7      1980.913 7
  20284300.276 7  -2655835.97507        46.000 7      1492.183 7
 12 12 12 12 14 40.0000000  0 12G01G03G06G11G14G17G19G20G22G23G28G32
  20650370.001 8  -2992954.10008        48.000 8      1983.619 8
  23546150.468 7   3088063.67807        45.000 7     -2425.790 7
  24776390.504 4   2886093.40734        28.000 4     -2227.875 4
  20192486.427 7  -1949590.02207        43.000 7      1127.473 7
  23631052.722 7   -602045.61307        45.000 7         1.786 7
  25798432.918 5  -1318238.23905        34.000 5      4710.237 5
  21678079.059 8   1084142.70208        48.000 8     -1112.242 8
  21326565.991 7  -5230988.85907        46.000 7      3506.610 7
  25223470.422 7   2744154.07907        44.000 7     -2054.148 7
  25224112.695 6  -3071290.57806        41.000 6      4621.437 6
  23375121.267 7  -3295224.12507        45.000 7      1982.345 7
  20284016.256 7  -2657328.96307        46.000 7      1493.417 7
 12 12 12 12 14 41.0000000  0 12G01G03G06G11G14G17G19G20G22G23G28G32
  20649992.798 8  -2994936.92008        48.000 8      1983.780 8
  23546612.096 7   3090490.53407        45.000 7     -2425.945 7
  24776816.237 4   2888321.76434        28.000 4     -2227.976 4
  20192272.051 7  -1950716.73907        43.000 7      1127.534 7
  23631052.146 7   -602046.27407        45.000 7         1.171 7
  25797535.959 5  -1322948.56905        34.000 5      4711.239 5
  21678290.503 8   1085255.91508        48.000 8     -1112.689 8
  21325899.061 7  -5234494.82507        46.000 7      3506.735 7
  25223861.412 7   2746208.34007        44.000 7     -2053.611 7
  25223233.553 6  -3075911.61406        41.000 6      4621.868 6
  23374744.308 7  -3297205.25707        45.000 7      1981.869 7
  20283732.795 7  -2658821.65007        46.000 7      1492.842 7
 12 12 12 12 14 42.0000000  0 12G01G03G06G11G14G17G19G20G22G23G28G32
  20649615.402 8  -2996919.89408        48.000 8      1983.643 8
  23547073.776 7   3092917.17807        45.000 7     -2425.516 7
  24777240.626 4   2890549.84234        28.000 4     -2227.755 4
  20192057.762 7  -1951843.45507        43.000 7      1127.893 7
  23631052.478 7   -602046.75807        45.000 7         1.488 7
  25796638.948 5  -1327659.32405        34.000 5      4711.827 5
  21678502.716 8   1086369.15408        48.000 8     -1112.723 8
  21325231.381 7  -5238000.77007        46.000 7      3506.211 7
  25224252.925 7   2748262.21607        44.000 7     -2053.476 7
  25222353.923 6  -3080533.18706        41.000 6      4622.417 6
  23374367.819 7  -3299186.19807        45.000 7      1981.321 7
  20283448.618 7  -2660314.12107        46.000 7      1493.438 7
 12 12 12 12 14 43.0000000  0 12G01G03G06G11G14G17G19G20G22G23G28G32
  20649238.337 8  -2998902.06808        48.000 8      1981.884 8
  23547535.963 7   3095344.54007        45.000 7     -2427.718 7
  24777665.138 4   2892778.51434        28.000 4     -2228.904 4
  20191843.246 7  -1952969.23407        43.000 7      1125.675 7
  23631052.774 7   -602046.12007        45.000 7        -0.771 7
  25795742.391 5  -1332369.54205        35.000 5      4711.283 5
  21678714.648 8   1087483.33708        48.000 8     -1114.630 8
  21324564.922 7  -5241505.73907        46.000 7      3504.749 7
  25224643.723 7   2750316.63707        44.000 7     -2054.323 7
  25221474.711 6  -3085154.32106        41.000 6      4621.014 6
  23373991.348 7  -3301166.01407        45.000 7      1979.726 7
  20283164.790 7  -2661805.47107        46.000 7      1491.151 7
 12 12 12 12 14 44.0000000  0 12G01G03G06G11G14G17G19G20G22G23G28G32
  20648861.186 8  -3000884.13908        48.000 8      1981.029 8
  23547997.626 7   3097771.93007        45.000 7     -2428.503 7
  24778089.580 4   2895007.20934        28.000 4     -2229.266 4
  20191629.324 7  -1954094.76407        43.000 7      1124.700 7
  23631053.001 7   -602045.04807        45.000 7        -2.744 7
  25794845.223 5  -1337079.97005        35.000 5      4709.196 5
  21678926.634 8   1088597.78608        48.000 8     -1115.592 8
  21323898.045 7  -5245010.43907        46.000 7      3503.473 7
  25225035.044 7   2752370.91807        44.000 7     -2055.199 7
  25220595.220 6  -3089775.72506        41.000 6      4620.198 6
  23373614.633 7  -3303145.40407        45.000 7      1977.401 7
  20282881.416 7  -2663296.37007        46.000 7      1489.990 7
 12 12 12 12 14 45.0000000  0 12G01G03G06G11G14G17G19G20G22G23G28G32
  20648484.383 8  -3002865.82108        48.000 8      1981.166 8
  23548459.760 7   3100199.63907        45.000 7     -2428.094 7
  24778514.161 4   2897236.12434        28.000 4     -2229.492 4
  20191415.350 7  -1955219.77307        43.000 7      1124.745 7
  23631053.490 7   -602043.24007        45.000 7        -2.560 7
  25793948.823 5  -1341790.25805        35.000 5      4709.942 5
  21679138.846 8   1089712.78708        48.000 8     -1115.315 8
  21323231.429 7  -5248514.57007        46.000 7      3504.105 7
  25225426.889 7   2754425.33007        45.000 7     -2054.190 7
  25219715.764 6  -3094397.09106        41.000 6      4620.972 6
  23373238.476 7  -3305124.05707        45.000 7      1977.541 7
  20282598.112 7  -2664786.51207        46.000 7      1489.507 7
 12 12 12 12 14 46.0000000  0 12G01G03G06G11G14G17G19G20G22G23G28G32
  20648107.371 8  -3004847.25808        48.000 8      1981.156 8
  23548922.016 7   3102627.50507        45.000 7     -2428.219 7
  24778937.922 4   2899465.17734        28.000 4     -2229.304 4
  20191201.393 7  -1956344.37307        43.000 7      1124.048 7
  23631053.699 7   -602040.86707        45.000 7        -2.839 7
  25793052.178 5  -1346500.58505        35.000 5      4710.422 5
  21679351.250 8   1090828.18108        48.000 8     -1115.602 8
  21322564.569 7  -5252018.29007        46.000 7      3502.997 7
  25225817.721 7   2756479.74207        45.000 7     -2054.568 7
  25218835.767 6  -3099018.59206        41.000 6      4621.264 6
  23372862.284 7  -3307102.14707        45.000 7      1977.845 7
  20282314.476 7  -2666276.08507        46.000 7      1488.998 7
 12 12 12 12 14 47.0000000  0 12G01G03G06G11G14G17G19G20G22G23G28G32
  20647730.237 8  -3006828.16608        48.000 8      1981.265 8
  23549383.714 7   3105055.81907        45.000 7     -2428.179 7
  24779362.241 4   2901694.54134        28.000 4     -2230.399 4
  20190987.366 7  -1957468.31407        43.000 7      1124.155 7
  23631055.043 7   -602037.63707        45.000 7        -2.981 7
  25792155.586 5  -1351210.67405        35.000 5      4709.547 5
  21679563.479 8   1091944.25208        48.000 8     -1115.995 8
  21321897.814 7  -5255521.30807        46.000 7      3503.426 7
  25226208.484 7   2758534.44407        45.000 7     -2054.502 7
  25217957.061 6  -3103639.92406        41.000 6      4621.556 6
  23372486.005 7  -3309079.38307        45.000 7      1977.292 7
  20282030.683 7  -2667764.76907        46.000 7      1488.958 7
 12 12 12 12 14 48.0000000  0 12G01G03G06G11G14G17G19G20G22G23G28G32
  20647353.714 8  -3008808.64508        48.000 8      1980.266 8
  23549845.778 7   3107484.47707        45.000 7     -2429.068 7
  24779784.746 4   2903924.22534        28.000 4     -2230.118 4
  20190773.670 7  -1958591.68207        43.000 7      1123.255 7
  23631056.003 7   -602033.66607        45.000 7        -4.677 7
  25791259.238 5  -1355920.60905        35.000 5      4710.148 5
  21679776.355 8   1093060.92108        48.000 8     -1117.359 8
  21321231.477 7  -5259023.72207        46.000 7      3502.020 7
  25226599.281 7   2760589.31707        45.000 7     -2054.617 7
  25217076.994 6  -3108261.20406        41.000 6      4621.046 6
  23372109.465 7  -3311055.85807        45.000 7      1975.716 7
  20281747.641 7  -2669252.69607        46.000 7      1487.010 7
 12 12 12 12 14 49.0000000  0 12G01G03G06G11G14G17G19G20G22G23G28G32
  20646976.789 8  -3010788.96708        48.000 8      1980.717 8
  23550308.174 7   3109913.21607        45.000 7     -2428.570 7
  24780207.251 4   2906154.00034        28.000 4     -2230.561 4
  20190559.975 7  -1959714.77807        43.000 7      1123.121 7
  23631057.032 7   -602029.21607        45.000 7        -4.569 7
  25790362.942 5  -1360630.68805        35.000 5      4710.470 5
  21679988.863 8   1094177.87808        48.000 8     -1117.288 8
  21320564.879 7  -5262525.82007        46.000 7      3502.472 7
  25226990.620 7   2762644.07607        45.000 7     -2054.705 7
  25216198.062 6  -3112882.68106        41.000 6      4622.260 6
  23371733.081 7  -3313031.86007        45.000 7      1976.631 7
  20281464.511 7  -2670740.11307        46.000 7      1487.890 7
 12 12 12 12 14 50.0000000  0 12G01G03G06G11G14G17G19G20G22G23G28G32
  20646600.039 8  -3012769.42308        48.000 8      1980.027 8
  23550770.326 7   3112341.74507        45.000 7     -2428.662 7
  24780630.802 4   2908383.45934        27.000 4     -2229.303 4
  20190346.280 7  -1960837.83307        43.000 7      1122.634 7
  23631057.521 7   -602024.55907        45.000 7        -5.137 7
  25789465.966 5  -1365341.15405        35.000 5      4710.621 5
  21680201.704 8   1095294.89308        48.000 8     -1117.469 8
  21319898.298 7  -5266027.86907        46.000 7      3501.352 7
  25227381.278 7   2764698.47607        45.000 7     -2055.207 7
  25215318.763 6  -3117504.67206        41.000 6      4622.131 6
  23371357.186 7  -3315007.64107        45.000 7      1975.621 7
  20281181.870 7  -2672227.32107        46.000 7      1486.659 7
 12 12 12 12 14 51.0000000  0 12G01G03G06G11G14G17G19G20G22G23G28G32
  20646223.062 8  -3014749.20008        48.000 8      1979.672 8
  23551232.791 7   3114770.88907        45.000 7     -2429.078 7
  24781054.441 4   2910613.37034        27.000 4     -2230.148 4
  20190132.828 7  -1961960.06007        43.000 7      1122.056 7
  23631058.428 7   -602018.87207        45.000 7        -5.992 7
  25788570.107 5  -1370051.20705        35.000 5      4709.508 5
  21680414.614 8   1096412.74608        48.000 8     -1118.070 8
  21319231.926 7  -5269529.05107        45.000 7      3501.038 7
  25227772.145 7   2766753.32507        45.000 7     -2055.014 7
  25214439.184 7  -3122126.33807        42.000 7      4621.383 7
  23370981.483 7  -3316982.39207        45.000 7      1974.983 7
  20280899.141 7  -2673713.49407        46.000 7      1485.881 7
 12 12 12 12 14 52.0000000  0 12G01G03G06G11G14G17G19G20G22G23G28G32
  20645846.853 8  -3016728.44308        48.000 8      1978.062 8
  23551695.082 7   3117200.48707        45.000 7     -2430.488 7
  24781478.045 4   2912843.75034        27.000 4     -2229.999 4
  20189919.342 7  -1963081.61007        43.000 7      1120.515 7
  23631059.598 7   -602012.33607        45.000 7        -7.717 7
  25787673.777 5  -1374761.02605        35.000 5      4708.133 5
  21680627.105 8   1097531.28508        48.000 8     -1119.362 8
  21318565.363 7  -5273029.53707        45.000 7      3499.773 7
  25228163.187 7   2768808.45207        45.000 7     -2055.975 7
  25213559.868 7  -3126747.83407        42.000 7      4620.203 7
  23370605.710 7  -3318956.29307        45.000 7      1972.707 7
  20280616.413 7  -2675198.78807        46.000 7      1484.021 7
 12 12 12 12 14 53.0000000  0 12G01G03G06G11G14G17G19G20G22G23G28G32
  20645470.312 8  -3018707.68308        48.000 8      1978.643 8
  23552156.693 7   3119630.01707        45.000 7     -2429.614 7
  24781903.988 4   2915073.94534        27.000 4     -2231.199 4
  20189706.066 7  -1964203.01607        43.000 7      1121.067 7
  23631060.296 7   -602005.45907        45.000 7        -7.204 7
  25786777.638 5  -1379471.10905        35.000 5      4709.089 5
  21680840.068 8   1098649.97608        48.000 8     -1119.260 8
  21317899.218 7  -5276529.83107        45.000 7      3499.656 7
  25228554.386 7   2770863.34507        45.000 7     -2055.214 7
  25212680.447 7  -3131369.70107        42.000 7      4622.073 7
  23370230.635 7  -3320929.84407        45.000 7      1972.728 7
  20280334.034 7  -2676683.73507        46.000 7      1484.565 7
 12 12 12 12 14 54.0000000  0 12G01G03G06G11G14G17G19G20G22G23G28G32
  20645093.806 8  -3020687.32808        48.000 8      1980.403 8
  23552619.665 7   3122059.03107        45.000 7     -2428.176 7
  24782329.337 4   2917303.68734        27.000 4     -2229.475 4
  20189492.248 7  -1965324.70707        43.000 7      1122.144 7
  23631061.290 7   -601998.67207        45.000 7        -6.349 7
  25785881.884 6  -1384181.86306        36.000 6      4712.016 6
  21681052.664 8   1099768.42008        48.000 8     -1118.004 8
  21317232.777 7  -5280030.39407        45.000 7      3500.515 7
  25228945.777 7   2772917.54307        45.000 7     -2054.013 7
  25211800.746 7  -3135992.35407        42.000 7      4623.088 7
  23369854.931 7  -3322903.49607        45.000 7      1973.706 7
  20280051.253 7  -2678168.75807        46.000 7      1485.401 7
 12 12 12 12 14 55.0000000  0 12G01G03G06G11G14G17G19G20G22G23G28G32
  20644717.003 8  -3022667.36308        48.000 8      1978.468 8
  23553081.537 7   3124487.60407        45.000 7     -2430.592 7
  24782752.330 4   2919532.76134        27.000 4     -2229.740 4
  20189278.937 7  -1966446.61107        43.000 7      1120.651 7
  23631062.058 7   -601991.94907        45.000 7        -9.186 7
  25784985.222 6  -1388893.29406        36.000 6      4710.739 6
  21681265.521 8   1100886.63508        48.000 8     -1120.270 8
  21316566.580 7  -5283531.14607        45.000 7      3498.291 7
  25229336.697 7   2774971.13207        45.000 7     -2055.076 7
  25210921.133 7  -3140615.72707        42.000 7      4621.758 7
  23369479.630 7  -3324877.18207        45.000 7      1971.844 7
  20279768.175 7  -2679653.80807        46.000 7      1483.034 7
 12 12 12 12 14 56.0000000  0 12G01G03G06G11G14G17G19G20G22G23G28G32
  20644340.498 8  -3024646.62808        48.000 8      1979.658 8
  23553543.724 7   3126916.85707        45.000 7     -2429.301 7
  24783174.346 4   2921762.54634        26.000 4     -2230.518 4
  20189065.591 7  -1967567.64507        43.000 7      1120.447 7
  23631063.960 7   -601984.09007        45.000 7        -7.854 7
  25784089.083 6  -1393604.24106        36.000 6      4710.484 6
  21681478.536 8   1102005.77608        48.000 8     -1119.392 8
  21315900.052 7  -5287030.94607        45.000 7      3499.984 7
  25229727.652 7   2777025.24607        45.000 7     -2053.956 7
  25210040.909 7  -3145238.72507        42.000 7      4623.225 7
  23369104.485 7  -3326849.77507        45.000 7      1971.966 7
  20279485.534 7  -2681137.75407        46.000 7      1483.576 7
 12 12 12 12 14 57.0000000  0 12G01G03G06G11G14G17G19G20G22G23G28G32
  20643964.201 8  -3026624.97408        48.000 8      1978.605 8
  23554005.875 7   3129346.96007        45.000 7     -2429.835 7
  24783599.800 4   2923993.03134        26.000 4     -2231.659 4
  20188852.471 7  -1968687.57407        43.000 7      1120.282 7
  23631065.339 7   -601974.99407        45.000 7        -8.979 7
  25783193.067 6  -1398314.53206        36.000 6      4711.064 6
  21681691.603 7   1103126.00407        47.000 7     -1119.968 7
  21315234.221 7  -5290529.66807        45.000 7      3498.431 7
  25230118.519 7   2779080.03407        46.000 7     -2054.400 7
  25209161.663 7  -3149861.14207        42.000 7      4622.944 7
  23368728.991 7  -3328821.11107        45.000 7      1971.457 7
  20279203.312 7  -2682620.41807        46.000 7      1482.791 7
 12 12 12 12 14 58.0000000  0 12G01G03G06G11G14G17G19G20G22G23G28G32
  20643587.957 8  -3028602.89208        48.000 8      1977.885 8
  23554468.585 7   3131777.41107        45.000 7     -2430.580 7
  24784023.770 4   2926223.85634        26.000 4     -2231.430 4
  20188639.439 7  -1969806.94507        43.000 7      1119.147 7
  23631067.014 7   -601965.15307        45.000 7       -10.013 7
  25782297.277 6  -1403024.67906        36.000 6      4709.125 6
  21681904.583 7   1104246.80107        47.000 7     -1121.308 7
  21314568.792 7  -5294027.78607        45.000 7      3497.897 7
  25230510.311 7   2781134.99507        46.000 7     -2054.903 7
  25208281.927 7  -3154483.51607        42.000 7      4622.305 7
  23368353.916 7  -3330791.69307        46.000 7      1970.160 7
  20278921.246 7  -2684102.31807        46.000 7      1481.520 7
 12 12 12 12 14 59.0000000  0 12G01G03G06G11G14G17G19G20G22G23G28G32
  20643211.695 8  -3030580.85008        48.000 8      1978.385 8
  23554931.138 7   3134207.74107        45.000 7     -2429.887 7
  24784448.910 4   2928454.58234        27.000 4     -2230.088 4
  20188426.459 7  -1970926.21807        43.000 7      1119.643 7
  23631068.794 7   -601955.00907        45.000 7       -10.532 7
  25781401.348 6  -1407735.15806        36.000 6      4710.958 6
  21682117.598 7   1105367.72707        47.000 7     -1121.102 7
  21313902.752 7  -5297525.77107        45.000 7      3498.096 7
  25230901.249 7   2783189.65207        45.000 7     -2053.862 7
  25207402.471 7  -3159106.29807        42.000 7      4623.020 7
  23367979.365 7  -3332761.98407        46.000 7      1969.991 7
  20278639.687 7  -2685583.89307        46.000 7      1481.839 7
 12 12 12 12 15  0.0000000  0 12G01G03G06G11G14G17G19G20G22G23G28G32
  20642835.434 8  -3032559.36008        48.000 8      1979.175 8
  23555393.429 7   3136637.43307        45.000 7     -2428.673 7
  24784876.248 4   2930684.53534        27.000 4     -2228.681 4
  20188213.828 7  -1972045.90907        43.000 7      1120.195 7
  23631070.364 7   -601945.09907        45.000 7        -9.255 7
  25780505.437 6  -1412446.46206        36.000 6      4711.915 6
  21682330.421 7   1106488.25807        47.000 7     -1119.344 7
  21313236.799 7  -5301024.13107        45.000 7      3499.334 7
  25231291.156 7   2785243.52307        45.000 7     -2052.924 7
  25206521.986 7  -3163729.98807        42.000 7      4624.772 7
  23367604.586 7  -3334732.48907        45.000 7      1971.211 7
  20278357.761 7  -2687065.71607        46.000 7      1481.959 7
 12 12 12 12 15  1.0000000  0 12G01G03G06G11G14G17G19G20G22G23G28G32
  20642458.561 8  -3034537.16308        48.000 8      1978.059 8
  23555856.052 7   3139067.75907        45.000 7     -2430.145 7
  24785302.121 4   2932914.92934        27.000 4     -2230.679 4
  20188000.691 7  -1973164.73707        43.000 7      1118.662 7
  23631072.580 7   -601934.13407        45.000 7       -10.620 7
  25779609.787 6  -1417157.34506        36.000 6      4711.630 6
  21682543.540 7   1107609.64307        47.000 7     -1121.345 7
  21312571.109 7  -5304521.63607        45.000 7      3497.345 7
  25231683.088 7   2787297.85807        45.000 7     -2053.991 7
  25205642.303 7  -3168353.34907        42.000 7      4623.484 7
  23367229.564 7  -3336701.94007        45.000 7      1969.556 7
  20278075.836 7  -2688546.45307        46.000 7      1480.652 7
 12 12 12 12 15  2.0000000  0 12G01G03G06G11G14G17G19G20G22G23G28G32
  20642082.404 8  -3036514.66308        48.000 8      1978.631 8
  23556318.465 7   3141498.31507        45.000 7     -2429.051 7
  24785727.645 4   2935145.59634        27.000 4     -2230.403 4
  20187787.764 7  -1974283.10007        43.000 7      1119.808 7
  23631075.477 7   -601922.54007        45.000 7        -9.827 7
  25778713.753 6  -1421868.18406        37.000 6      4712.107 6
  21682757.131 7   1108731.50007        47.000 7     -1120.837 7
  21311905.819 7  -5308018.64007        45.000 7      3497.951 7
  25232074.008 7   2789352.25407        45.000 7     -2053.020 7
  25204762.428 7  -3172976.75107        42.000 7      4624.678 7
  23366854.454 7  -3338670.77607        45.000 7      1969.976 7
  20277794.329 7  -2690026.53107        46.000 7      1481.368 7
 12 12 12 12 15  3.0000000  0 12G01G03G06G11G14G17G19G20G22G23G28G32
  20641705.776 8  -3038491.98908        48.000 8      1976.878 8
  23556780.809 7   3143928.95307        45.000 7     -2430.933 7
  24786153.203 4   2937376.22634        27.000 4     -2230.814 4
  20187575.150 7  -1975401.16207        43.000 7      1117.489 7
  23631078.165 7   -601910.45707        45.000 7       -12.951 7
  25777817.632 6  -1426579.10606        37.000 6      4710.170 6
  21682970.425 7   1109853.68807        47.000 7     -1122.867 7
  21311240.634 7  -5311515.29407        45.000 7      3495.923 7
  25232464.771 7   2791406.56307        45.000 7     -2055.068 7
  25203882.658 7  -3177600.35807        42.000 7      4623.154 7
  23366480.024 7  -3340639.09607        45.000 7      1967.819 7
  20277512.647 7  -2691506.10207        46.000 7      1479.056 7
 12 12 12 12 15  4.0000000  0 12G01G03G06G11G14G17G19G20G22G23G28G32
  20641329.724 8  -3040468.97308        48.000 8      1977.151 8
  23557243.885 7   3146359.87507        45.000 7     -2430.640 7
  24786576.406 4   2939607.10634        27.000 4     -2230.956 4
  20187362.571 7  -1976518.73807        44.000 7      1118.208 7
  23631080.991 7   -601897.69107        46.000 7       -12.559 7
  25776921.197 6  -1431289.97906        37.000 6      4713.021 6
  21683183.981 7   1110976.37707        47.000 7     -1121.895 7
  21310575.257 7  -5315011.44107        45.000 7      3496.892 7
  25232854.748 7   2793460.99407        45.000 7     -2054.158 7
  25203002.870 7  -3182223.97107        42.000 7      4624.235 7
  23366106.014 7  -3342606.74307        45.000 7      1967.687 7
  20277231.437 7  -2692984.99307        46.000 7      1478.883 7
 12 12 12 12 15  5.0000000  0 12G01G03G06G11G14G17G19G20G22G23G28G32
  20640953.445 8  -3042445.69408        48.000 8      1976.150 8
  23557706.386 7   3148790.95507        45.000 7     -2431.904 7
  24787002.051 4   2941838.04334        27.000 4     -2230.593 4
  20187149.592 7  -1977635.91107        44.000 7      1116.464 7
  23631084.359 7   -601884.36007        46.000 7       -14.252 7
  25776025.058 6  -1436000.88906        37.000 6      4709.860 6
  21683397.781 7   1112099.46307        47.000 7     -1124.121 7
  21309910.020 7  -5318507.16707        45.000 7      3495.058 7
  25233245.685 7   2795515.39607        45.000 7     -2055.553 7
  25202122.768 7  -3186847.69007        42.000 7      4623.545 7
  23365731.532 7  -3344573.79907        45.000 7      1966.281 7
  20276950.052 7  -2694463.27707        46.000 7      1477.535 7
 12 12 12 12 15  6.0000000  0 12G01G03G06G11G14G17G19G20G22G23G28G32
  20640577.550 8  -3044422.00108        48.000 8      1975.982 8
  23558169.113 7   3151222.38807        45.000 7     -2431.281 7
  24787428.762 4   2944069.33934        27.000 4     -2231.764 4
  20186937.537 7  -1978752.51407        44.000 7      1116.450 7
  23631087.378 7   -601870.26807        46.000 7       -14.039 7
  25775128.588 6  -1440711.63406        36.000 6      4710.460 6
  21683612.261 7   1113223.12907        47.000 7     -1123.923 7
  21309244.748 7  -5322002.28307        45.000 7      3494.990 7
  25233637.024 7   2797569.99407        45.000 7     -2054.141 7
  25201242.894 7  -3191471.37307        42.000 7      4623.612 7
  23365356.893 7  -3346540.11407        45.000 7      1965.575 7
  20276669.086 7  -2695940.79907        46.000 7      1477.005 7
 12 12 12 12 15  7.0000000  0 12G01G03G06G11G14G17G19G20G22G23G28G32
  20640200.922 8  -3046398.16908        48.000 8      1976.160 8
  23558631.631 7   3153653.86407        45.000 7     -2431.510 7
  24787852.383 4   2946300.52834        27.000 4     -2232.124 4
  20186724.958 7  -1979868.85907        44.000 7      1116.168 7
  23631090.676 7   -601855.72607        46.000 7       -14.416 7
  25774232.694 6  -1445422.51506        36.000 6      4712.016 6
  21683825.381 7   1114347.09107        47.000 7     -1123.999 7
  21308579.319 7  -5325497.10207        45.000 7      3494.848 7
  25234028.380 7   2799624.45607        46.000 7     -2054.462 7
  25200362.739 7  -3196095.26407        42.000 7      4624.207 7
  23364982.953 7  -3348505.96307        45.000 7      1965.105 7
  20276388.016 7  -2697417.82707        46.000 7      1477.145 7
 12 12 12 12 15  8.0000000  0 12G01G03G06G11G14G17G19G20G22G23G28G32
  20639825.201 8  -3048373.88808        48.000 8      1974.921 8
  23559094.568 7   3156085.72707        45.000 7     -2432.197 7
  24788278.273 4   2948532.07534        26.000 4     -2231.623 4
  20186513.322 7  -1980984.59207        44.000 7      1114.991 7
  23631093.468 7   -601840.39207        46.000 7       -16.133 7
  25773336.276 6  -1450133.26206        36.000 6      4711.014 6
  21684039.024 7   1115471.65807        47.000 7     -1125.616 7
  21307914.501 7  -5328991.29307        45.000 7      3493.487 7
  25234418.811 7   2801679.14507        45.000 7     -2055.366 7
  25199482.411 7  -3200719.08007        42.000 7      4623.454 7
  23364609.623 7  -3350471.01707        45.000 7      1964.194 7
  20276107.504 7  -2698894.07107        46.000 7      1475.263 7
 12 12 12 12 15  9.0000000  0 12G01G03G06G11G14G17G19G20G22G23G28G32
  20639449.202 8  -3050348.92708        48.000 8      1974.405 8
  23559557.644 7   3158518.17107        45.000 7     -2433.069 7
  24788703.517 4   2950764.16734        26.000 4     -2232.950 4
  20186300.830 7  -1982099.51007        44.000 7      1113.916 7
  23631096.400 7   -601824.03307        46.000 7       -17.336 7
  25772440.260 6  -1454843.54406        36.000 6      4711.003 6
  21684253.644 7   1116597.06107        47.000 7     -1125.913 7
  21307249.612 7  -5332484.62207        45.000 7      3492.577 7
  25234810.255 7   2803734.24807        45.000 7     -2055.598 7
  25198603.112 7  -3205342.57907        42.000 7      4622.828 7
  23364235.717 7  -3352435.04607        45.000 7      1963.444 7
  20275827.009 7  -2700369.27407        46.000 7      1474.513 7
 12 12 12 12 15 10.0000000  0 12G01G03G06G11G14G17G19G20G22G23G28G32
  20639073.202 8  -3052323.85608        48.000 8      1975.354 8
  23560020.564 7   3160950.67107        45.000 7     -2432.157 7
  24789126.615 4   2952996.24334        26.000 4     -2232.044 4
  20186088.880 7  -1983214.16707        44.000 7      1114.553 7
  23631100.134 7   -601807.24307        46.000 7       -16.616 7
  25771544.244 6  -1459554.03706        36.000 6      4711.098 6
  21684467.706 7   1117722.74707        47.000 7     -1125.644 7
  21306585.195 7  -5335977.68307        45.000 7      3493.375 7
  25235201.541 7   2805789.21807        45.000 7     -2054.645 7
  25197723.516 7  -3209966.32407        42.000 7      4624.161 7
  23363862.108 7  -3354398.64507        45.000 7      1963.928 7
  20275546.165 7  -2701844.03407        46.000 7      1474.860 7
 12 12 12 12 15 11.0000000  0 12G01G03G06G11G14G17G19G20G22G23G28G32
  20638697.603 8  -3054298.52208        48.000 8      1974.622 8
  23560483.204 7   3163383.33007        45.000 7     -2432.793 7
  24789551.773 4   2955228.38634        26.000 4     -2232.440 4
  20185876.982 7  -1984328.41507        44.000 7      1113.971 7
  23631103.572 7   -601789.87007        46.000 7       -17.405 7
  25770648.280 6  -1464264.54106        37.000 6      4709.755 6
  21684682.099 7   1118848.82707        47.000 7     -1126.159 7
  21305920.639 7  -5339470.29207        45.000 7      3492.451 7
  25235592.618 7   2807844.18707        45.000 7     -2055.077 7
  25196843.031 7  -3214590.18907        42.000 7      4624.146 7
  23363488.115 7  -3356361.65607        45.000 7      1962.331 7
  20275265.722 7  -2703318.18607        46.000 7      1474.057 7
 12 12 12 12 15 12.0000000  0 12G01G03G06G11G14G17G19G20G22G23G28G32
  20638322.022 8  -3056273.54708        48.000 8      1975.289 8
  23560946.211 7   3165815.56307        45.000 7     -2431.924 7
  24789975.097 4   2957460.07234        26.000 4     -2230.234 4
  20185665.276 7  -1985442.88207        44.000 7      1114.804 7
  23631106.382 7   -601772.51507        46.000 7       -17.700 7
  25769752.071 6  -1468975.64306        37.000 6      4712.091 6
  21684896.458 7   1119974.70807        47.000 7     -1126.075 7
  21305255.925 7  -5342963.08907        45.000 7      3492.455 7
  25235983.206 7   2809898.56107        45.000 7     -2053.996 7
  25195963.295 7  -3219214.76307        43.000 7      4624.532 7
  23363114.261 7  -3358324.67807        45.000 7      1963.236 7
  20274985.315 7  -2704792.34607        46.000 7      1474.147 7
 12 12 12 12 15 13.0000000  0 12G01G03G06G11G14G17G19G20G22G23G28G32
  20637946.179 8  -3058247.87808        48.000 8      1974.528 8
  23561409.357 7   3168248.40307        45.000 7     -2432.267 7
  24790399.015 4   2959692.15334        25.000 4     -2231.885 4
  20185453.064 7  -1986556.52107        44.000 7      1113.637 7
  23631109.104 7   -601754.13507        45.000 7       -18.711 7
  25768855.392 6  -1473686.35106        37.000 6      4711.915 6
  21685111.026 7   1121101.43107        47.000 7     -1127.057 7
  21304591.316 7  -5346455.01607        45.000 7      3491.727 7
  25236373.864 7   2811953.40207        45.000 7     -2054.337 7
  25195083.630 7  -3223839.00707        43.000 7      4624.379 7
  23362740.687 7  -3360286.69607        45.000 7      1962.025 7
  20274704.890 7  -2706265.47307        46.000 7      1473.056 7
 12 12 12 12 15 14.0000000  0 11G01G03G11G14G17G19G20G22G23G28G32
  20637570.145 8  -3060221.91108        48.000 8      1974.148 8
  23561872.172 7   3170681.46707        45.000 7     -2432.626 7
  20185241.794 7  -1987669.72307        44.000 7      1113.590 7
  23631112.594 7   -601735.14007        45.000 7       -19.159 7
  25767959.794 6  -1478397.07006        37.000 6      4711.516 6
  21685325.873 7   1122228.62607        47.000 7     -1126.940 7
  21303926.690 7  -5349946.47907        45.000 7      3491.176 7
  25236764.330 7   2814008.26007        44.000 7     -2054.248 7
  25194203.371 7  -3228463.33807        42.000 7      4624.230 7
  23362366.903 7  -3362248.07707        45.000 7      1961.503 7
  20274424.447 7  -2707737.95307        46.000 7      1472.701 7
 12 12 12 12 15 15.0000000  0 11G01G03G11G14G17G19G20G22G23G28G32
  20637194.616 8  -3062195.58008        48.000 8      1973.503 8
  23562335.841 7   3173114.81307        45.000 7     -2433.444 7
  20185030.298 7  -1988782.40107        44.000 7      1112.399 7
  23631115.962 7   -601715.43007        45.000 7       -20.175 7
  25767063.935 6  -1483107.66506        37.000 6      4710.458 6
  21685540.633 7   1123356.33707        47.000 7     -1127.869 7
  21303262.098 7  -5353437.39607        45.000 7      3490.756 7
  25237155.319 7   2816063.25407        44.000 7     -2055.322 7
  25193323.095 7  -3233087.65307        42.000 7      4623.933 7
  23361993.626 7  -3364208.73707        44.000 7      1960.342 7
  20274144.337 7  -2709209.73607        46.000 7      1471.438 7
 12 12 12 12 15 16.0000000  0 11G01G03G11G14G17G19G20G22G23G28G32
  20636819.262 8  -3064168.58208        48.000 8      1973.368 8
  23562798.848 7   3175548.75807        45.000 7     -2433.823 7
  20184818.993 7  -1989894.27607        44.000 7      1111.506 7
  23631119.696 7   -601694.73707        45.000 7       -20.902 7
  25766167.430 6  -1487817.85606        37.000 6      4709.905 6
  21685755.113 7   1124484.88107        47.000 7     -1128.694 7
  21302597.803 7  -5356927.47807        45.000 7      3490.028 7
  25237546.135 7   2818118.67407        44.000 7     -2055.381 7
  25192443.639 7  -3237711.65807        42.000 7      4623.732 7
  23361620.505 7  -3366168.41607        44.000 7      1959.555 7
  20273864.400 7  -2710680.50807        46.000 7      1470.791 7
 12 12 12 12 15 17.0000000  0 11G01G03G11G14G17G19G20G22G23G28G32
  20636444.117 8  -3066141.52208        48.000 8      1973.603 8
  23563262.012 7   3177982.67107        45.000 7     -2433.158 7
  20184607.392 7  -1991005.93607        44.000 7      1112.102 7
  23631123.169 7   -601673.66807        45.000 7       -20.767 7
  25765270.925 6  -1492528.30206        37.000 6      4710.679 6
  21685970.048 7   1125613.62507        47.000 7     -1128.370 7
  21301933.246 7  -5360417.33607        44.000 7      3490.471 7
  25237937.491 7   2820173.86807        44.000 7     -2054.641 7
  25191563.729 7  -3242335.96307        42.000 7      4625.694 7
  23361247.245 7  -3368127.70007        44.000 7      1959.873 7
  20273584.638 7  -2712150.87207        46.000 7      1470.941 7
 12 12 12 12 15 18.0000000  0 11G01G03G11G14G17G19G20G22G23G28G32
  20636068.606 8  -3068113.92608        48.000 8      1969.873 8
  23563725.140 7   3180417.05307        45.000 7     -2436.774 7
  20184396.331 7  -1992116.91207        44.000 7      1108.382 7
  23631127.496 7   -601651.68107        45.000 7       -24.362 7
  25764374.036 6  -1497238.45306        36.000 6      4708.079 6
  21686185.575 7   1126743.09107        47.000 7     -1131.520 7
  21301269.126 7  -5363906.46407        44.000 7      3486.540 7
  25238328.812 7   2822229.39607        44.000 7     -2057.266 7
  25190683.453 7  -3246960.09907        42.000 7      4622.462 7
  23360874.264 7  -3370086.09907        44.000 7      1955.831 7
  20273305.016 7  -2713620.32607        46.000 7      1467.394 7
 12 12 12 12 15 19.0000000  0 11G01G03G11G14G17G19G20G22G23G28G32
  20635693.164 8  -3070085.58508        48.000 8      1971.523 8
  23564188.479 7   3182852.08407        45.000 7     -2435.021 7
  20184185.114 7  -1993227.03007        44.000 7      1109.689 7
  23631131.772 7   -601628.67807        45.000 7       -23.340 7
  25763478.090 6  -1501948.15806        36.000 6      4709.933 6
  21686400.649 7   1127873.41107        47.000 7     -1130.483 7
  21300604.884 7  -5367394.70507        44.000 7      3487.678 7
  25238721.005 7   2824285.37107        45.000 7     -2055.417 7
  25189803.892 7  -3251583.84907        42.000 7      4623.956 7
  23360501.527 7  -3372043.46707        44.000 7      1956.885 7
  20273025.533 7  -2715088.73207        46.000 7      1467.983 7
 12 12 12 12 15 20.0000000  0 11G01G03G11G14G17G19G20G22G23G28G32
  20635317.985 8  -3072057.14808        48.000 8      1971.853 8
  23564651.607 7   3185287.13607        45.000 7     -2434.468 7
  20183974.210 7  -1994336.86307        44.000 7      1110.207 7
  23631136.012 7   -601605.21507        45.000 7       -23.322 7
  25762581.393 6  -1506658.02906        36.000 6      4710.298 6
  21686615.549 7   1129004.01807        47.000 7     -1130.231 7
  21299940.990 7  -5370882.64307        44.000 7      3487.971 7
  25239112.187 7   2826341.24007        45.000 7     -2054.959 7
  25188923.563 7  -3256207.85807        42.000 7      4625.153 7
  23360129.297 7  -3374000.35707        44.000 7      1956.873 7
  20272746.330 7  -2716556.65407        46.000 7      1468.325 7
 12 12 12 12 15 21.0000000  0 11G01G03G11G14G17G19G20G22G23G28G32
  20634942.962 8  -3074028.24208        48.000 8      1971.548 8
  23565115.050 7   3187722.57907        45.000 7     -2435.308 7
  20183763.150 7  -1995446.11007        44.000 7      1109.528 7
  23631141.090 7   -601580.97007        45.000 7       -24.160 7
  25761684.731 6  -1511367.72806        36.000 6      4710.334 6
  21686831.059 8   1130135.23808        48.000 8     -1130.901 8
  21299276.992 7  -5374369.95807        44.000 7      3486.888 7
  25239504.258 7   2828397.28307        45.000 7     -2055.415 7
  25188043.078 7  -3260831.78007        42.000 7      4624.708 7
  23359756.979 7  -3375956.46807        44.000 7      1956.297 7
  20272467.231 7  -2718023.79307        46.000 7      1467.031 7
 12 12 12 12 15 22.0000000  0 11G01G03G11G14G17G19G20G22G23G28G32
  20634567.974 8  -3075999.35508        48.000 8      1970.026 8
  23565578.493 7   3190157.91907        45.000 7     -2436.006 7
  20183552.159 7  -1996555.22107        44.000 7      1108.132 7
  23631145.435 7   -601556.42307        45.000 7       -25.539 7
  25760788.505 6  -1516077.69606        36.000 6      4708.446 6
  21687046.325 8   1131266.59108        48.000 8     -1132.399 8
  21298613.692 7  -5377857.11607        44.000 7      3486.053 7
  25239895.091 7   2830453.07007        45.000 7     -2055.864 7
  25187163.552 7  -3265456.08207        42.000 7      4623.749 7
  23359384.923 7  -3377912.26407        44.000 7      1955.302 7
  20272188.080 7  -2719490.60607        46.000 7      1465.543 7
 12 12 12 12 15 23.0000000  0 11G01G03G11G14G17G19G20G22G23G28G32
  20634192.899 8  -3077969.65908        48.000 8      1970.011 8
  23566042.215 7   3192593.99107        45.000 7     -2436.532 7
  20183341.413 7  -1997663.36807        44.000 7      1107.738 7
  23631150.077 7   -601530.72907        45.000 7       -26.577 7
  25759892.192 5  -1520787.12505        35.000 5      4710.880 5
  21687262.201 8   1132398.91108        48.000 8     -1133.114 8
  21297950.007 7  -5381343.28007        44.000 7      3485.925 7
  25240285.208 7   2832509.43207        44.000 7     -2056.817 7
  25186283.380 7  -3270079.92307        42.000 7      4623.647 7
  23359012.483 7  -3379866.91307        44.000 7      1953.932 7
  20271909.068 7  -2720956.23807        46.000 7      1465.208 7
 12 12 12 12 15 24.0000000  0 11G01G03G11G14G17G19G20G22G23G28G32
  20633817.877 8  -3079939.78608        48.000 8      1970.717 8
  23566505.449 7   3195030.16307        45.000 7     -2435.839 7
  20183130.510 7  -1998771.22507        44.000 7      1108.086 7
  23631155.190 7   -601504.54007        45.000 7       -26.346 7
  25758995.914 5  -1525496.73205        35.000 5      4709.173 5
  21687477.991 8   1133531.57308        48.000 8     -1132.787 8
  21297286.794 7  -5384829.10607        44.000 7      3485.659 7
  25240676.599 7   2834565.73007        44.000 7     -2055.734 7
  25185403.470 7  -3274703.97107        42.000 7      4624.318 7
  23358640.374 7  -3381821.04307        44.000 7      1954.294 7
  20271630.685 7  -2722421.36207        46.000 7      1465.409 7
 12 12 12 12 15 25.0000000  0 11G01G03G11G14G17G19G20G22G23G28G32
  20633442.784 8  -3081909.34008        48.000 8      1969.202 8
  23566969.275 7   3197466.81807        45.000 7     -2436.685 7
  20182919.868 7  -1999878.35207        44.000 7      1107.380 7
  23631159.971 7   -601477.45207        45.000 7       -27.196 7
  25758099.113 5  -1530205.98405        35.000 5      4708.816 5
  21687693.955 8   1134664.95708        48.000 8     -1133.545 8
  21296624.210 7  -5388314.17907        44.000 7      3485.122 7
  25241068.635 7   2836622.31207        45.000 7     -2056.651 7
  25184523.770 7  -3279327.79207        42.000 7      4624.303 7
  23358268.598 7  -3383774.29507        44.000 7      1953.103 7
  20271352.145 7  -2723885.58107        46.000 7      1464.146 7
 12 12 12 12 15 26.0000000  0 11G01G03G11G14G17G19G20G22G23G28G32
  20633067.884 8  -3083878.66608        48.000 8      1969.326 8
  23567433.120 7   3199903.63407        45.000 7     -2436.733 7
  20182709.070 7  -2000985.10307        44.000 7      1106.505 7
  23631165.922 7   -601449.79307        45.000 7       -28.085 7
  25757202.625 5  -1534915.30405        34.000 5      4709.081 5
  21687909.535 8   1135798.73908        48.000 8     -1133.852 8
  21295960.613 7  -5391798.84307        44.000 7      3484.671 7
  25241459.730 7   2838678.91007        45.000 7     -2056.895 7
  25183643.721 7  -3283951.74707        42.000 7      4624.085 7
  23357897.274 7  -3385726.94607        44.000 7      1952.631 7
  20271073.343 7  -2725349.21507        46.000 7      1463.266 7
 12 12 12 12 15 27.0000000  0 11G01G03G11G14G17G19G20G22G23G28G32
  20632693.454 8  -3085847.71508        48.000 8      1968.442 8
  23567897.016 7   3202340.61307        45.000 7     -2437.546 7
  20182498.463 7  -2002091.45707        44.000 7      1105.520 7
  23631170.878 7   -601421.56707        45.000 7       -28.624 7
  25756306.050 5  -1539624.60305        34.000 5      4709.170 5
  21688125.150 8   1136932.93408        48.000 8     -1134.252 8
  21295297.400 7  -5395283.08707        44.000 7      3483.662 7
  25241851.016 7   2840735.50307        45.000 7     -2057.782 7
  25182763.706 7  -3288575.81607        43.000 7      4624.243 7
  23357525.445 7  -3387679.02807        44.000 7      1951.280 7
  20270795.238 7  -2726812.26207        46.000 7      1462.156 7
 12 12 12 12 15 28.0000000  0 11G01G03G11G14G17G19G20G22G23G28G32
  20632318.502 8  -3087816.87508        48.000 8      1969.800 8
  23568360.477 7   3204777.42707        45.000 7     -2435.695 7
  20182287.594 7  -2003197.73907        44.000 7      1107.057 7
  23631176.479 7   -601393.07907        45.000 7       -27.129 7
  25755409.301 5  -1544334.31205        33.000 5      4709.963 5
  21688341.462 8   1138067.20508        48.000 8     -1133.579 8
  21294634.780 7  -5398767.22607        44.000 7      3485.038 7
  25242242.878 7   2842791.78007        45.000 7     -2055.541 7
  25181884.041 7  -3293200.31807        43.000 7      4625.814 7
  23357153.790 7  -3389630.84607        44.000 7      1952.916 7
  20270516.506 7  -2728275.02707        46.000 7      1463.152 7
 12 12 12 12 15 29.0000000  0 11G01G03G11G14G17G19G20G22G23G28G32
  20631943.950 8  -3089785.84608        48.000 8      1967.772 8
  23568824.129 7   3207214.33207        45.000 7     -2438.176 7
  20182076.848 7  -2004303.71307        44.000 7      1104.776 7
  23631181.627 7   -601364.09707        45.000 7       -30.284 7
  25754512.343 5  -1549044.07305        33.000 5      4708.998 5
  21688557.671 8   1139201.78808        48.000 8     -1135.660 8
  21293971.689 7  -5402251.04907        44.000 7      3482.557 7
  25242635.299 7   2844847.95107        45.000 7     -2057.308 7
  25181003.834 7  -3297825.02307        43.000 7      4623.652 7
  23356782.485 7  -3391582.19107        44.000 7      1950.599 7
  20270237.983 7  -2729737.29407        46.000 7      1461.308 7
 12 12 12 12 15 30.0000000  0 11G01G03G11G14G17G19G20G22G23G28G32
  20631569.521 8  -3091753.52708        48.000 8      1968.150 8
  23569288.060 7   3209652.44907        45.000 7     -2437.889 7
  20181866.346 7  -2005408.25107        44.000 7      1104.560 7
  23631186.879 7   -601333.49207        45.000 7       -30.604 7
  25753615.942 5  -1553752.86405        34.000 5      4709.287 5
  21688773.617 8   1140337.82708        48.000 8     -1136.003 8
  21293309.070 7  -5405733.37607        44.000 7      3482.160 7
  25243026.515 7   2846905.18107        45.000 7     -2056.465 7
  25180123.925 7  -3302448.79607        43.000 7      4624.201 7
  23356411.842 7  -3393531.89807        44.000 7      1949.768 7
  20269960.368 7  -2731197.91407        46.000 7      1460.530 7
 12 12 12 12 15 31.0000000  0 11G01G03G11G14G17G19G20G22G23G28G32
  20631195.074 8  -3093721.73308        49.000 8      1968.165 8
  23569751.852 7   3212089.93807        45.000 7     -2437.624 7
  20181655.774 7  -2006513.18707        44.000 7      1105.243 7
  23631192.481 7   -601303.09107        45.000 7       -30.628 7
  25752719.053 5  -1558462.45305        34.000 5      4709.695 5
  21688989.686 8   1141473.47908        48.000 8     -1135.739 8
  21292646.572 7  -5409216.08307        44.000 7      3482.700 7
  25243417.749 7   2848961.59607        45.000 7     -2056.684 7
  25179243.613 7  -3307073.47407        43.000 7      4624.631 7
  23356041.112 7  -3395481.80307        44.000 7      1950.229 7
  20269682.613 7  -2732658.72207        46.000 7      1460.687 7
 12 12 12 12 15 32.0000000  0 11G01G03G11G14G17G19G20G22G23G28G32
  20630821.360 8  -3095689.30208        49.000 8      1966.442 8
  23570216.325 7   3214528.01907        45.000 7     -2439.174 7
  20181445.656 7  -2007617.33607        44.000 7      1103.060 7
  23631198.501 7   -601271.70707        45.000 7       -32.580 7
  25751822.392 5  -1563171.64305        33.000 5      4708.985 5
  21689206.208 8   1142609.93408        48.000 8     -1137.447 8
  21291984.144 7  -5412697.96307        44.000 7      3480.454 7
  25243808.285 7   2851018.45607        44.000 7     -2057.555 7
  25178363.930 7  -3311697.84507        43.000 7      4623.793 7
  23355670.749 7  -3397430.73407        44.000 7      1947.859 7
  20269404.404 7  -2734118.54507        46.000 7      1458.608 7
 12 12 12 12 15 33.0000000  0 11G01G03G11G14G17G19G20G22G23G28G32
  20630446.704 8  -3097656.25508        49.000 8      1967.833 8
  23570679.942 7   3216966.61707        45.000 7     -2437.373 7
  20181235.468 7  -2008720.70807        44.000 7      1104.368 7
  23631204.609 7   -601239.40007        45.000 7       -31.225 7
  25750925.677 5  -1567880.55905        33.000 5      4708.868 5
  21689422.800 8   1143747.15508        48.000 8     -1136.647 8
  21291322.694 7  -5416179.04807        44.000 7      3481.849 7
  25244199.693 7   2853075.65807        44.000 7     -2056.390 7
  25177483.689 7  -3316321.98507        43.000 7      4625.255 7
  23355299.914 7  -3399378.72007        44.000 7      1949.083 7
  20269127.050 7  -2735577.41207        46.000 7      1459.642 7
 12 12 12 12 15 34.0000000  0 11G01G03G11G14G17G19G20G22G23G28G32
  20630072.065 8  -3099623.21508        49.000 8      1966.497 8
  23571143.874 7   3219405.15107        45.000 7     -2438.561 7
  20181025.665 7  -2009823.94307        44.000 7      1102.565 7
  23631211.188 7   -601206.74207        45.000 7       -33.098 7
  25750029.085 5  -1572589.66005        33.000 5      4709.368 5
  21689638.973 8   1144884.54308        48.000 8     -1137.948 8
  21290660.127 7  -5419659.95007        44.000 7      3480.552 7
  25244591.608 7   2855132.62307        45.000 7     -2057.615 7
  25176604.111 7  -3320946.47407        43.000 7      4624.023 7
  23354929.411 7  -3401326.37007        44.000 7      1946.998 7
  20268849.347 7  -2737035.92307        46.000 7      1457.814 7
 12 12 12 12 15 35.0000000  0 11G01G03G11G14G17G19G20G22G23G28G32
  20629697.898 8  -3101589.73808        49.000 8      1966.454 8
  23571608.241 7   3221844.01307        45.000 7     -2439.020 7
  20180815.791 7  -2010926.60707        44.000 7      1102.533 7
  23631217.819 7   -601173.34307        44.000 7       -33.137 7
  25749132.423 5  -1577298.66905        33.000 5      4708.886 5
  21689855.757 8   1146022.50408        48.000 8     -1137.848 8
  21289997.908 7  -5423140.26507        44.000 7      3480.483 7
  25244982.388 7   2857189.75007        44.000 7     -2057.028 7
  25175723.608 7  -3325570.92407        43.000 7      4624.421 7
  23354558.769 7  -3403273.26907        44.000 7      1946.214 7
  20268571.697 7  -2738493.67607        46.000 7      1457.760 7
 12 12 12 12 15 36.0000000  0 11G01G03G11G14G17G19G20G22G23G28G32
  20629323.608 8  -3103556.61208        49.000 8      1966.069 8
  23572072.225 7   3224282.45507        45.000 7     -2438.887 7
  20180605.795 7  -2012029.46307        44.000 7      1102.302 7
  23631223.525 7   -601139.95307        45.000 7       -34.102 7
  25748235.691 5  -1582008.30705        33.000 5      4708.340 5
  21690072.088 8   1147160.28708        48.000 8     -1138.610 8
  21289336.074 7  -5426620.74307        45.000 7      3479.836 7
  25245373.796 7   2859246.30807        45.000 7     -2056.367 7
  25174843.593 7  -3330196.05307        43.000 7      4624.831 7
  23354188.370 7  -3405220.16507        44.000 7      1946.294 7
  20268294.430 7  -2739951.41507        46.000 7      1457.241 7
 12 12 12 12 15 37.0000000  0 11G01G03G11G14G17G19G20G22G23G28G32
  20628949.702 8  -3105522.97708        49.000 8      1966.627 8
  23572536.488 7   3226721.32207        45.000 7     -2438.296 7
  20180395.537 7  -2013131.69907        44.000 7      1101.789 7
  23631229.615 7   -601105.75607        45.000 7       -34.685 7
  25747339.326 5  -1586717.67505        33.000 5      4710.330 5
  21690288.680 8   1148298.71408        48.000 8     -1138.328 8
  21288673.751 7  -5430100.54107        45.000 7      3479.926 7
  25245765.170 7   2861303.08507        45.000 7     -2056.921 7
  25173963.684 7  -3334821.04907        43.000 7      4625.460 7
  23353817.885 7  -3407166.25407        44.000 7      1945.858 7
  20268017.338 7  -2741408.32707        46.000 7      1456.788 7
 12 12 12 12 15 38.0000000  0 11G01G03G11G14G17G19G20G22G23G28G32
  20628575.500 8  -3107488.64008        49.000 8      1965.910 8
  23573001.153 7   3229160.78607        45.000 7     -2439.464 7
  20180186.135 7  -2014233.06907        44.000 7      1101.032 7
  23631236.281 7   -601070.50507        45.000 7       -35.616 7
  25746443.187 5  -1591426.63305        33.000 5      4708.738 5
  21690505.586 8   1149437.99908        48.000 8     -1139.642 8
  21288011.672 7  -5433579.49307        44.000 7      3478.729 7
  25246156.561 7   2863360.32707        45.000 7     -2057.862 7
  25173083.669 7  -3339445.70007        43.000 7      4624.730 7
  23353447.835 7  -3409111.29207        44.000 7      1944.917 7
  20267740.316 7  -2742864.17807        46.000 7      1455.474 7
 12 12 12 12 15 39.0000000  0 11G01G03G11G14G17G19G20G22G23G28G32
  20628201.454 8  -3109454.70608        49.000 8      1966.530 8
  23573465.049 7   3231599.79807        45.000 7     -2438.427 7
  20179976.208 7  -2015334.68207        44.000 7      1102.219 7
  23631243.034 7   -601035.32807        45.000 7       -35.313 7
  25745546.909 5  -1596136.24905        33.000 5      4710.315 5
  21690722.004 8   1150577.05908        48.000 8     -1138.758 8
  21287349.995 7  -5437058.64107        44.000 7      3479.521 7
  25246548.807 7   2865416.93007        45.000 7     -2056.492 7
  25172203.637 7  -3344071.13107        43.000 7      4625.421 7
  23353077.507 7  -3411056.39607        44.000 7      1945.249 7
  20267463.067 7  -2744320.07507        46.000 7      1455.879 7
 12 12 12 12 15 40.0000000  0 11G01G03G11G14G17G19G20G22G23G28G32
  20627827.444 8  -3111420.83608        49.000 8      1965.395 8
  23573929.399 7   3234038.65607        45.000 7     -2439.804 7
  20179766.684 7  -2016436.22507        44.000 7      1100.612 7
  23631250.398 7   -600999.90507        45.000 7       -36.260 7
  25744650.439 5  -1600846.23505        33.000 5      4709.490 5
  21690938.858 8   1151716.19108        48.000 8     -1139.745 8
  21286687.567 7  -5440537.69907        44.000 7      3478.037 7
  25246940.232 7   2867473.19907        44.000 7     -2056.986 7
  25171323.553 7  -3348696.97107        43.000 7      4625.497 7
  23352707.440 7  -3413001.23007        44.000 7      1944.273 7
  20267185.609 7  -2745775.69207        46.000 7      1454.925 7
 12 12 12 12 15 41.0000000  0 11G01G03G11G14G17G19G20G22G23G28G32
  20627453.486 8  -3113386.73708        49.000 8      1964.267 8
  23574393.959 7   3236477.65307        45.000 7     -2440.572 7
  20179557.438 7  -2017537.39007        44.000 7      1099.398 7
  23631257.570 7   -600963.89607        45.000 7       -37.770 7
  25743754.301 5  -1605556.24705        33.000 5      4709.887 5
  21691156.183 8   1152855.71708        48.000 8     -1141.287 8
  21286025.645 7  -5444016.33007        44.000 7      3477.128 7
  25247331.030 7   2869529.45907        45.000 7     -2057.395 7
  25170443.172 7  -3353322.92607        43.000 7      4624.636 7
  23352337.094 7  -3414945.50507        44.000 7      1942.218 7
  20266908.534 7  -2747230.73807        46.000 7      1453.060 7
 12 12 12 12 15 42.0000000  0 11G01G03G11G14G17G19G20G22G23G28G32
  20627079.440 8  -3115351.30908        49.000 8      1964.164 8
  23574858.240 7   3238917.91207        45.000 7     -2440.659 7
  20179348.070 7  -2018637.06507        44.000 7      1098.915 7
  23631264.585 7   -600926.23707        45.000 7       -38.516 7
  25742858.284 5  -1610265.20205        33.000 5      4707.984 5
  21691373.019 8   1153996.73108        48.000 8     -1141.289 8
  21285364.177 7  -5447493.46907        45.000 7      3476.566 7
  25247722.578 7   2871586.81307        45.000 7     -2057.241 7
  25169562.669 7  -3357947.94507        43.000 7      4624.474 7
  23351968.127 7  -3416888.13007        44.000 7      1941.898 7
  20266631.808 7  -2748684.11607        45.000 7      1452.654 7
 12 12 12 12 15 43.0000000  0 11G01G03G11G14G17G19G20G22G23G28G32
  20626705.517 8  -3117315.96308        49.000 8      1965.312 8
  23575322.311 7   3241357.98007        45.000 7     -2439.905 7
  20179138.493 7  -2019736.73107        44.000 7      1100.042 7
  23631271.705 7   -600888.37507        45.000 7       -38.279 7
  25741962.111 5  -1614974.53905        34.000 5      4708.984 5
  21691590.588 8   1155137.78408        48.000 8     -1140.979 8
  21284702.465 7  -5450970.53007        45.000 7      3477.667 7
  25248114.440 7   2873643.79507        45.000 7     -2056.682 7
  25168682.689 7  -3362573.39607        43.000 7      4626.738 7
  23351598.479 7  -3418830.51307        44.000 7      1942.381 7
  20266355.467 7  -2750137.25607        45.000 7      1453.290 7
 12 12 12 12 15 44.0000000  0 11G01G03G11G14G17G19G20G22G23G28G32
  20626331.821 8  -3119280.38608        49.000 8      1964.559 8
  23575786.940 7   3243798.22007        45.000 7     -2440.485 7
  20178929.440 7  -2020835.98007        44.000 7      1099.400 7
  23631278.894 7   -600849.92007        45.000 7       -38.966 7
  25741065.554 5  -1619683.89405        34.000 5      4709.212 5
  21691807.809 8   1156279.25308        48.000 8     -1141.936 8
  21284041.102 7  -5454447.16307        45.000 7      3476.152 7
  25248506.197 7   2875700.77707        45.000 7     -2056.667 7
  25167802.151 7  -3367198.96307        43.000 7      4625.397 7
  23351229.180 7  -3420772.30807        45.000 7      1942.158 7
  20266078.863 7  -2751589.79007        46.000 7      1452.821 7
 12 12 12 12 15 45.0000000  0 11G01G03G11G14G17G19G20G22G23G28G32
  20625957.984 8  -3121244.84908        49.000 8      1965.391 8
  23576251.168 7   3246238.33007        45.000 7     -2439.207 7
  20178720.142 7  -2021935.14107        44.000 7      1099.915 7
  23631286.346 7   -600811.17607        45.000 7       -38.444 7
  25740169.572 5  -1624393.58705        34.000 5      4709.446 5
  21692025.011 8   1157420.83508        48.000 8     -1141.128 8
  21283379.669 7  -5457923.67007        45.000 7      3477.396 7
  25248896.664 7   2877757.47507        45.000 7     -2055.895 7
  25166921.491 7  -3371824.95007        43.000 7      4627.298 7
  23350860.474 7  -3422713.82207        45.000 7      1942.139 7
  20265803.010 7  -2753042.02307        46.000 7      1452.558 7
 12 12 12 12 15 46.0000000  0 11G01G03G11G14G17G19G20G22G23G28G32
  20625584.166 8  -3123208.53708        49.000 8      1963.415 8
  23576715.920 7   3248679.12007        45.000 7     -2441.250 7
  20178511.472 7  -2023033.38707        44.000 7      1097.636 7
  23631293.954 7   -600771.33207        45.000 7       -40.844 7
  25739272.718 5  -1629102.75705        35.000 5      4710.231 5
  21692241.883 8   1158563.33308        48.000 8     -1143.308 8
  21282718.009 7  -5461399.23607        45.000 7      3475.061 7
  25249288.316 7   2879814.68107        45.000 7     -2057.788 7
  25166041.651 7  -3376450.51607        43.000 7      4624.704 7
  23350491.524 7  -3424654.23707        45.000 7      1939.701 7
  20265527.192 7  -2754493.15207        46.000 7      1450.073 7
 12 12 12 12 15 47.0000000  0 11G01G03G11G14G17G19G20G22G23G28G32
  20625210.836 8  -3125171.01508        49.000 8      1962.157 8
  23577180.340 7   3251121.04407        45.000 7     -2441.806 7
  20178302.907 7  -2024130.29107        44.000 7      1096.544 7
  23631302.662 7   -600729.95407        45.000 7       -41.323 7
  25738377.034 5  -1633810.98405        35.000 5      4708.438 5
  21692459.784 8   1159707.20208        48.000 8     -1143.950 8
  21282057.169 7  -5464873.40907        45.000 7      3474.181 7
  25249680.335 7   2881872.86207        45.000 7     -2058.014 7
  25165161.480 7  -3381075.23107        43.000 7      4624.604 7
  23350122.871 7  -3426593.11507        45.000 7      1938.804 7
  20265251.130 7  -2755942.70907        46.000 7      1449.429 7
 12 12 12 12 15 48.0000000  0 11G01G03G11G14G17G19G20G22G23G28G32
  20624837.454 8  -3127133.45608        49.000 8      1962.547 8
  23577645.371 7   3253562.93807        45.000 7     -2441.391 7
  20178093.888 7  -2025226.98107        44.000 7      1097.261 7
  23631310.375 7   -600688.20007        45.000 7       -42.021 7
  25737481.454 5  -1638519.49505        35.000 5      4707.609 5
  21692677.335 8   1160851.27308        48.000 8     -1143.789 8
  21281396.103 7  -5468347.38007        45.000 7      3474.301 7
  25250072.197 7   2883930.83407        45.000 7     -2057.075 7
  25164281.518 7  -3385700.27407        43.000 7      4625.392 7
  23349754.741 7  -3428531.60007        45.000 7      1938.586 7
  20264975.242 7  -2757391.89107        46.000 7      1449.447 7
 12 12 12 12 15 49.0000000  0 11G01G03G11G14G17G19G20G22G23G28G32
  20624463.932 8  -3129095.69108        48.000 8      1962.575 8
  23578110.175 7   3256004.93807        45.000 7     -2441.597 7
  20177885.603 7  -2026323.36307        44.000 7      1096.498 7
  23631318.768 7   -600645.93007        45.000 7       -42.719 7
  25736585.978 6  -1643228.03706        36.000 6      4709.319 6
  21692894.783 8   1161995.67708        48.000 8     -1144.482 8
  21280734.949 7  -5471820.96207        45.000 7      3473.257 7
  25250463.501 7   2885988.72907        45.000 7     -2057.915 7
  25163401.451 7  -3390325.48007        43.000 7      4625.559 7
  23349386.349 7  -3430469.57207        45.000 7      1938.468 7
  20264699.825 7  -2758840.53807        46.000 7      1448.646 7
 12 12 12 12 15 50.0000000  0 11G01G03G11G14G17G19G20G22G23G28G32
  20624090.916 8  -3131057.56808        49.000 8      1961.705 8
  23578574.508 7   3258447.20107        45.000 7     -2442.854 7
  20177677.020 7  -2027419.23707        44.000 7      1095.529 7
  23631327.197 7   -600602.97807        45.000 7       -43.663 7
  25735690.259 6  -1647936.50206        36.000 6      4709.453 6
  21693113.085 8   1163140.59208        48.000 8     -1145.483 8
  21280073.865 7  -5475294.04207        45.000 7      3472.338 7
  25250854.648 7   2888046.75807        45.000 7     -2058.262 7
  25162521.506 7  -3394950.69807        43.000 7      4625.568 7
  23349018.167 7  -3432406.85607        45.000 7      1937.169 7
  20264423.937 7  -2760288.49707        46.000 7      1447.367 7
 12 12 12 12 15 51.0000000  0 11G01G03G11G14G17G19G20G22G23G28G32
  20623717.656 8  -3133018.85008        48.000 8      1962.219 8
  23579039.277 7   3260889.99507        46.000 7     -2441.659 7
  20177468.473 7  -2028514.35607        44.000 7      1096.359 7
  23631335.485 7   -600559.10807        45.000 7       -42.809 7
  25734794.504 6  -1652644.67306        36.000 6      4708.853 6
  21693331.073 8   1164286.27408        48.000 8     -1144.462 8
  21279413.130 7  -5478766.32007        45.000 7      3472.951 7
  25251246.004 7   2890105.12307        45.000 7     -2057.377 7
  25161641.265 7  -3399575.67107        43.000 7      4625.865 7
  23348650.177 7  -3434343.20007        45.000 7      1937.040 7
  20264148.433 7  -2761735.49907        46.000 7      1448.260 7
 12 12 12 12 15 52.0000000  0 11G01G03G11G14G17G19G20G22G23G28G32
  20623344.029 8  -3134980.25008        48.000 8      1961.264 8
  23579504.203 7   3263332.59307        45.000 7     -2442.835 7
  20177260.309 7  -2029609.44607        44.000 7      1094.953 7
  23631343.879 7   -600514.99207        45.000 7       -44.187 7
  25733898.784 6  -1657353.21106        36.000 6      4708.361 6
  21693549.166 8   1165431.99708        48.000 8     -1146.219 8
  21278752.482 7  -5482238.52407        45.000 7      3471.880 7
  25251638.302 7   2892163.13507        45.000 7     -2058.147 7
  25160761.180 7  -3404201.11507        43.000 7      4625.386 7
  23348281.262 7  -3436279.32607        46.000 7      1935.779 7
  20263873.295 7  -2763182.24107        46.000 7      1446.402 7
 12 12 12 12 15 53.0000000  0 11G01G03G11G14G17G19G20G22G23G28G32
  20622970.786 8  -3136941.40308        48.000 8      1960.982 8
  23579969.339 7   3265775.33107        46.000 7     -2442.943 7
  20177051.866 7  -2030704.15007        44.000 7      1094.105 7
  23631352.150 7   -600470.31607        45.000 7       -44.807 7
  25733002.768 6  -1662061.78306        36.000 6      4708.243 6
  21693767.416 8   1166578.11408        48.000 8     -1146.147 8
  21278091.886 7  -5485710.33507        45.000 7      3471.887 7
  25252030.217 7   2894221.10907        46.000 7     -2058.001 7
  25159881.236 7  -3408826.69007        43.000 7      4626.068 7
  23347913.359 7  -3438214.87207        46.000 7      1935.126 7
  20263597.844 7  -2764628.43407        46.000 7      1445.883 7
 12 12 12 12 15 54.0000000  0 11G01G03G11G14G17G19G20G22G23G28G32
  20622597.718 8  -3138902.23108        48.000 8      1960.790 8
  23580434.300 7   3268218.31307        46.000 7     -2443.175 7
  20176843.964 7  -2031798.39907        44.000 7      1093.879 7
  23631360.945 7   -600425.02307        45.000 7       -45.431 7
  25732106.682 6  -1666770.33106        36.000 6      4707.805 6
  21693985.247 8   1167724.69908        48.000 8     -1146.889 8
  21277431.623 7  -5489181.65207        45.000 7      3471.333 7
  25252422.515 7   2896279.16807        46.000 7     -2057.868 7
  25159000.837 7  -3413452.30307        43.000 7      4625.662 7
  23347545.264 7  -3440149.77207        46.000 7      1934.047 7
  20263323.020 7  -2766073.96007        46.000 7      1445.397 7
 12 12 12 12 15 55.0000000  0 11G01G03G11G14G17G19G20G22G23G28G32
  20622224.441 8  -3140862.96408        49.000 8      1959.987 8
  23580898.912 7   3270661.34707        46.000 7     -2443.367 7
  20176635.521 7  -2032892.37907        44.000 7      1093.291 7
  23631369.775 7   -600379.25407        45.000 7       -46.249 7
  25731210.700 6  -1671478.96806        36.000 6      4708.286 6
  21694203.392 8   1168871.57308        48.000 8     -1147.394 8
  21276771.132 7  -5492652.66207        45.000 7      3470.552 7
  25252813.225 7   2898337.11807        45.000 7     -2057.952 7
  25158120.631 7  -3418078.13907        43.000 7      4625.447 7
  23347177.239 7  -3442084.20807        46.000 7      1933.785 7
  20263048.371 7  -2767519.01707        46.000 7      1444.335 7
 12 12 12 12 15 56.0000000  0 11G01G03G11G14G17G19G20G22G23G28G32
  20621851.582 8  -3142823.45908        49.000 8      1959.919 8
  23581364.065 7   3273104.50507        46.000 7     -2443.900 7
  20176427.794 7  -2033985.99307        44.000 7      1093.451 7
  23631378.308 7   -600332.95907        45.000 7       -46.720 7
  25730314.789 6  -1676187.74506        36.000 6      4707.997 6
  21694421.921 8   1170018.80308        48.000 8     -1147.661 8
  21276110.833 7  -5496123.29107        45.000 7      3470.377 7
  25253204.861 7   2900395.01107        45.000 7     -2057.870 7
  25157240.145 7  -3422704.13507        43.000 7      4625.105 7
  23346808.708 7  -3444018.08507        45.000 7      1933.345 7
  20262773.583 7  -2768963.51707        46.000 7      1443.734 7
 12 12 12 12 15 57.0000000  0 11G01G03G11G14G17G19G20G22G23G28G32
  20621479.212 8  -3144783.95508        49.000 8      1959.829 8
  23581829.061 7   3275547.56807        46.000 7     -2443.609 7
  20176219.962 7  -2035079.47007        44.000 7      1093.154 7
  23631386.370 7   -600286.31307        44.000 7       -47.268 7
  25729418.214 6  -1680896.76006        37.000 6      4708.012 6
  21694640.363 8   1171166.19808        48.000 8     -1147.572 8
  21275450.482 7  -5499593.73907        45.000 7      3470.329 7
  25253596.758 7   2902452.66307        45.000 7     -2058.000 7
  25156359.642 7  -3427330.49607        43.000 7      4625.814 7
  23346440.561 7  -3445951.64907        45.000 7      1932.922 7
  20262498.742 7  -2770407.67207        46.000 7      1443.149 7
 12 12 12 12 15 58.0000000  0 11G01G03G11G14G17G19G20G22G23G28G32
  20621105.951 8  -3146744.17308        49.000 8      1960.313 8
  23582294.231 7   3277990.83107        46.000 7     -2443.013 7
  20176012.077 7  -2036172.54107        44.000 7      1093.014 7
  23631395.444 7   -600239.09007        44.000 7       -47.159 7
  25728522.285 6  -1685605.77706        37.000 6      4708.956 6
  21694858.613 8   1172314.00908        48.000 8     -1147.681 8
  21274790.096 7  -5503063.75207        45.000 7      3469.930 7
  25253988.550 7   2904510.31307        45.000 7     -2056.934 7
  25155479.540 7  -3431956.93107        43.000 7      4626.729 7
  23346072.483 7  -3447884.61007        45.000 7      1932.825 7
  20262223.988 7  -2771851.19607        46.000 7      1444.079 7
 12 12 12 12 15 59.0000000  0 11G01G03G11G14G17G19G20G22G23G28G32
  20620732.848 8  -3148704.15208        49.000 8      1959.922 8
  23582759.140 7   3280434.25607        46.000 7     -2443.815 7
  20175804.158 7  -2037265.21407        44.000 7      1092.530 7
  23631404.868 7   -600191.28507        44.000 7       -48.099 7
  25727625.344 6  -1690314.83306        36.000 6      4708.206 6
  21695076.880 8   1173462.23208        48.000 8     -1148.303 8
  21274129.762 7  -5506533.34107        45.000 7      3469.228 7
  25254379.592 7   2906567.96507        45.000 7     -2058.527 7
  25154599.421 7  -3436583.49107        43.000 7      4626.687 7
  23345704.580 7  -3449816.97907        45.000 7      1932.151 7
  20261949.287 7  -2773294.14607        46.000 7      1442.449 7
 12 12 12 12 16  0.0000000  0 11G01G03G11G14G17G19G20G22G23G28G32
  20620359.972 8  -3150663.46608        48.000 8      1960.446 8
  23583224.241 7   3282878.24407        46.000 7     -2442.866 7
  20175596.186 7  -2038357.09307        44.000 7      1092.879 7
  23631413.959 7   -600142.49707        45.000 7       -47.980 7
  25726729.816 6  -1695023.49206        36.000 6      4709.969 6
  21695295.566 8   1174611.26308        48.000 8     -1147.977 8
  21273469.865 7  -5510002.09207        45.000 7      3469.316 7
  25254771.402 7   2908626.02207        45.000 7     -2056.956 7
  25153718.569 7  -3441209.75707        43.000 7      4627.397 7
  23345337.044 7  -3451748.36807        45.000 7      1932.836 7
  20261675.301 7  -2774736.07807        46.000 7      1442.773 7
 12 12 12 12 16  1.0000000  0 11G01G03G11G14G17G19G20G22G23G28G32
  20619987.305 8  -3152622.62808        48.000 8      1959.149 8
  23583689.638 7   3285322.31807        46.000 7     -2443.926 7
  20175388.651 7  -2039448.67307        44.000 7      1091.775 7
  23631423.487 7   -600093.22807        45.000 7       -48.753 7
  25725833.625 6  -1699732.28006        36.000 6      4708.800 6
  21695514.828 8   1175760.59608        48.000 8     -1149.374 8
  21272809.775 7  -5513470.51507        45.000 7      3468.018 7
  25255163.421 7   2910683.99607        46.000 7     -2058.021 7
  25152838.450 7  -3445836.21407        43.000 7      4626.606 7
  23344968.984 7  -3453679.26207        45.000 7      1930.683 7
  20261401.088 7  -2776177.52307        46.000 7      1441.544 7
 12 12 12 12 16  2.0000000  0 11G01G03G11G14G17G19G20G22G23G28G32
  20619614.516 8  -3154582.09408        48.000 8      1959.383 8
  23584154.843 7   3287765.99607        46.000 7     -2444.021 7
  20175180.976 7  -2040540.38207        44.000 7      1091.725 7
  23631432.910 7   -600043.94407        45.000 7       -50.154 7
  25724937.382 6  -1704441.62806        36.000 6      4709.975 6
  21695733.427 8   1176909.79008        48.000 8     -1149.861 8
  21272149.826 7  -5516939.06907        45.000 7      3467.641 7
  25255554.864 7   2912741.38807        46.000 7     -2057.831 7
  25151957.947 7  -3450463.33607        43.000 7      4626.699 7
  23344601.081 7  -3455610.13707        45.000 7      1930.559 7
  20261126.527 7  -2777618.93307        46.000 7      1441.183 7
 12 12 12 12 16  3.0000000  0 11G01G03G11G14G17G19G20G22G23G28G32
  20619241.413 8  -3156540.81308        48.000 8      1958.559 8
  23584619.857 7   3290210.34307        46.000 7     -2444.800 7
  20174973.493 7  -2041631.24307        44.000 7      1090.742 7
  23631443.241 7   -599993.57207        45.000 7       -50.964 7
  25724041.069 6  -1709150.53906        36.000 6      4709.331 6
  21695951.921 8   1178059.88208        48.000 8     -1150.764 8
  21271490.085 7  -5520406.69507        45.000 7      3466.865 7
  25255945.993 7   2914799.30007        45.000 7     -2058.176 7
  25151077.252 7  -3455090.06507        43.000 7      4626.381 7
  23344233.492 7  -3457539.93507        45.000 7      1929.243 7
  20260852.471 7  -2779059.24707        46.000 7      1439.500 7
 12 12 12 12 16  4.0000000  0 11G01G03G11G14G17G19G20G22G23G28G32
  20618868.572 8  -3158499.35308        48.000 8      1957.794 8
  23585084.748 7   3292654.79307        46.000 7     -2444.933 7
  20174765.940 7  -2042721.75207        44.000 7      1089.805 7
  23631452.786 7   -599942.70507        45.000 7       -51.942 7
  25723144.459 6  -1713859.51206        36.000 6      4708.107 6
  21696170.625 8   1179210.30908        48.000 8     -1151.048 8
  21270830.816 7  -5523873.95807        45.000 7      3466.584 7
  25256337.541 7   2916857.15207        45.000 7     -2058.138 7
  25150196.679 7  -3459716.97707        43.000 7      4626.762 7
  23343865.868 7  -3459469.22407        45.000 7      1928.491 7
  20260578.764 7  -2780499.03007        46.000 7      1438.907 7
 12 12 12 12 16  5.0000000  0 11G01G03G11G14G17G19G20G22G23G28G32
  20618496.010 8  -3160457.35908        48.000 8      1957.579 8
  23585550.075 7   3295099.68307        46.000 7     -2445.655 7
  20174558.614 7  -2043811.60307        44.000 7      1088.948 7
  23631462.261 7   -599890.97507        45.000 7       -53.187 7
  25722248.530 6  -1718568.27606        36.000 6      4706.952 6
  21696390.026 8   1180361.41808        48.000 8     -1151.906 8
  21270171.268 7  -5527340.52907        46.000 7      3465.401 7
  25256729.805 7   2918915.24307        45.000 7     -2058.299 7
  25149316.420 7  -3464343.72507        43.000 7      4626.257 7
  23343499.170 7  -3461397.64507        45.000 7      1927.534 7
  20260305.249 7  -2781937.95407        46.000 7      1437.623 7
 12 12 12 12 16  6.0000000  0 11G01G03G11G14G17G19G20G22G23G28G32
  20618123.692 8  -3162415.28008        48.000 8      1958.034 8
  23586015.159 7   3297544.59007        46.000 7     -2444.216 7
  20174351.689 7  -2044901.19907        44.000 7      1090.036 7
  23631472.190 7   -599838.82307        45.000 7       -52.231 7
  25721352.200 5  -1723277.17505        35.000 5      4709.286 5
  21696609.271 8   1181512.77408        48.000 8     -1150.841 8
  21269511.806 7  -5530806.83207        46.000 7      3466.344 7
  25257121.597 7   2920973.19307        45.000 7     -2057.612 7
  25148436.126 7  -3468970.74507        43.000 7      4627.789 7
  23343132.436 7  -3463325.66007        45.000 7      1928.413 7
  20260031.194 7  -2783376.43807        46.000 7      1438.417 7
 12 12 12 12 16  7.0000000  0 11G01G03G11G14G17G19G20G22G23G28G32
  20617750.676 8  -3164372.88008        48.000 8      1957.906 8
  23586480.469 7   3299989.71307        46.000 7     -2444.760 7
  20174144.032 7  -2045990.35807        44.000 7      1089.389 7
  23631482.416 7   -599786.02807        45.000 7       -52.953 7
  25720455.433 5  -1727986.03705        35.000 5      4709.311 5
  21696828.655 8   1182664.59208        48.000 8     -1151.852 8
  21268852.485 7  -5534272.63607        46.000 7      3465.798 7
  25257512.918 7   2923031.19807        45.000 7     -2058.221 7
  25147555.623 7  -3473597.81607        44.000 7      4627.164 7
  23342765.405 7  -3465253.00807        45.000 7      1927.613 7
  20259757.435 7  -2784814.26507        46.000 7      1437.693 7
 12 12 12 12 16  8.0000000  0 11G01G03G11G14G17G19G20G22G23G28G32
  20617378.445 8  -3166329.74908        48.000 8      1955.827 8
  23586945.936 7   3302435.50107        45.000 7     -2446.946 7
  20173936.932 7  -2047078.62207        44.000 7      1086.591 7
  23631492.468 7   -599732.18507        45.000 7       -55.865 7
  25719559.574 5  -1732694.48605        35.000 5      4705.905 5
  21697047.847 8   1183817.29908        48.000 8     -1154.492 8
  21268193.565 7  -5537737.54107        46.000 7      3462.985 7
  25257905.147 7   2925089.69807        45.000 7     -2060.434 7
  25146674.998 7  -3478224.49407        44.000 7      4624.827 7
  23342399.108 7  -3467179.28907        45.000 7      1924.686 7
  20259484.356 7  -2786251.00207        46.000 7      1435.227 7
 12 12 12 12 16  9.0000000  0 11G01G03G11G14G17G19G20G22G23G28G32
  20617006.599 8  -3168286.05708        48.000 8      1956.349 8
  23587411.316 7   3304881.76207        45.000 7     -2445.851 7
  20173730.025 7  -2048166.17007        44.000 7      1087.839 7
  23631502.153 7   -599677.43307        45.000 7       -54.929 7
  25718663.034 5  -1737402.60105        35.000 5      4708.353 5
  21697267.528 8   1184970.73008        48.000 8     -1153.255 8
  21267533.807 7  -5541201.69707        46.000 7      3464.107 7
  25258296.485 7   2927148.50707        45.000 7     -2058.603 7
  25145794.198 7  -3482850.96107        44.000 7      4626.937 7
  23342032.723 7  -3469104.69007        45.000 7      1924.907 7
  20259210.807 7  -2787686.84907        46.000 7      1435.877 7
 12 12 12 12 16 10.0000000  0 11G01G03G11G14G17G19G20G22G23G28G32
  20616634.281 8  -3170242.14108        48.000 8      1954.929 8
  23587876.800 7   3307328.15007        45.000 7     -2447.766 7
  20173523.275 7  -2049253.37107        44.000 7      1085.419 7
  23631512.762 7   -599622.14907        44.000 7       -56.902 7
  25717767.157 5  -1742110.79005        35.000 5      4706.647 5
  21697486.755 8   1186124.52408        48.000 8     -1155.162 8
  21266874.293 7  -5544665.48507        46.000 7      3462.222 7
  25258688.033 7   2929207.27207        44.000 7     -2059.815 7
  25144913.835 7  -3487477.57907        44.000 7      4624.931 7
  23341666.548 7  -3471029.51507        44.000 7      1923.231 7
  20258937.466 7  -2789122.11707        46.000 7      1433.918 7
 12 12 12 12 16 11.0000000  0 11G01G03G11G14G17G19G20G22G23G28G32
  20616262.242 8  -3172197.39108        48.000 8      1955.769 8
  23588342.040 7   3309775.28407        45.000 7     -2447.277 7
  20173316.560 7  -2050339.59707        44.000 7      1086.201 7
  23631523.006 7   -599565.70507        44.000 7       -56.384 7
  25716870.914 5  -1746818.41505        35.000 5      4708.106 5
  21697706.575 8   1187279.31308        48.000 8     -1154.980 8
  21266215.460 7  -5548128.25107        46.000 7      3462.824 7
  25259080.209 7   2931266.61207        44.000 7     -2059.268 7
  25144033.559 7  -3492103.73307        44.000 7      4626.251 7
  23341300.215 7  -3472953.19307        44.000 7      1923.918 7
  20258664.789 7  -2790556.22807        46.000 7      1434.122 7
 12 12 12 12 16 12.0000000  0 11G01G03G11G14G17G19G20G22G23G28G32
  20615889.767 8  -3174153.02708        48.000 8      1954.766 8
  23588807.839 7   3312221.95707        45.000 7     -2447.164 7
  20173109.652 7  -2051426.05107        44.000 7      1085.458 7
  23631533.545 7   -599509.30107        44.000 7       -56.973 7
  25715974.566 5  -1751526.69005        35.000 5      4707.382 5
  21697926.204 8   1188433.87308        48.000 8     -1155.430 8
  21265556.749 7  -5551591.21307        46.000 7      3462.400 7
  25259472.141 7   2933325.34207        45.000 7     -2058.770 7
  25143153.300 7  -3496730.60707        44.000 7      4626.886 7
  23340933.900 7  -3474876.91407        44.000 7      1922.366 7
  20258391.798 7  -2791990.37407        46.000 7      1433.664 7
 12 12 12 12 16 13.0000000  0 11G01G03G11G14G17G19G20G22G23G28G32
  20615517.362 8  -3176108.33808        48.000 8      1954.740 8
  23589273.219 7   3314668.85807        45.000 7     -2447.421 7
  20172903.251 7  -2052512.06207        44.000 7      1085.810 7
  23631544.591 7   -599452.27007        44.000 7       -57.372 7
  25715078.149 5  -1756234.92105        34.000 5      4709.025 5
  21698146.164 8   1189588.89008        48.000 8     -1155.128 8
  21264898.108 7  -5555053.70107        46.000 7      3462.538 7
  25259863.602 7   2935384.11207        44.000 7     -2058.617 7
  25142272.727 7  -3501357.53507        44.000 7      4626.751 7
  23340568.388 7  -3476799.98907        44.000 7      1922.298 7
  20258119.104 7  -2793423.86807        46.000 7      1433.242 7
 12 12 12 12 16 14.0000000  0 11G01G03G11G14G17G19G20G22G23G28G32
  20615145.219 8  -3178063.59408        48.000 8      1954.947 8
  23589739.279 7   3317115.73507        45.000 7     -2446.794 7
  20172696.152 7  -2053597.85007        44.000 7      1085.226 7
  23631555.341 7   -599394.85107        44.000 7       -56.900 7
  25714181.434 5  -1760943.39805        34.000 5      4708.133 5
  21698366.124 8   1190744.12908        48.000 8     -1155.191 8
  21264239.729 7  -5558515.93307        46.000 7      3462.103 7
  25260255.045 7   2937442.69907        44.000 7     -2058.293 7
  25141392.346 7  -3505984.75807        44.000 7      4627.286 7
  23340202.509 7  -3478722.64407        45.000 7      1922.598 7
  20257846.776 7  -2794856.94707        46.000 7      1433.027 7
 12 12 12 12 16 15.0000000  0 11G01G03G11G14G17G19G20G22G23G28G32
  20614773.424 8  -3180018.58108        48.000 8      1955.231 8
  23590204.903 7   3319562.80407        45.000 7     -2446.837 7
  20172490.222 7  -2054683.23607        44.000 7      1085.513 7
  23631565.567 7   -599336.84207        44.000 7       -57.848 7
  25713285.208 5  -1765651.87005        34.000 5      4708.831 5
  21698586.450 8   1191899.76908        48.000 8     -1155.632 8
  21263581.001 7  -5561977.75107        46.000 7      3461.313 7
  25260647.396 7   2939501.28507        45.000 7     -2058.338 7
  25140511.442 7  -3510612.09007        44.000 7      4627.633 7
  23339836.805 7  -3480644.72207        45.000 7      1921.629 7
  20257574.029 7  -2796289.43007        46.000 7      1432.195 7
 12 12 12 12 16 16.0000000  0 11G01G03G11G14G17G19G20G22G23G28G32
  20614401.682 8  -3181973.14808        48.000 8      1954.866 8
  23590670.859 7   3322010.19607        45.000 7     -2447.448 7
  20172283.734 7  -2055768.04207        44.000 7      1085.168 7
  23631577.293 7   -599278.06907        44.000 7       -58.977 7
  25712388.686 5  -1770360.20505        34.000 5      4708.695 5
  21698806.620 8   1193056.00908        48.000 8     -1155.839 8
  21262922.028 7  -5565438.94307        46.000 7      3461.624 7
  25261038.647 7   2941560.06007        45.000 7     -2057.927 7
  25139630.799 7  -3515239.34407        44.000 7      4627.706 7
  23339471.642 7  -3482566.02507        45.000 7      1921.278 7
  20257301.910 7  -2797721.13507        46.000 7      1432.015 7
 12 12 12 12 16 17.0000000  0 11G01G03G11G14G17G19G20G22G23G28G32
  20614029.469 8  -3183927.53908        48.000 8      1954.780 8
  23591136.553 7   3324457.68007        45.000 7     -2447.006 7
  20172076.896 7  -2056852.54807        44.000 7      1084.673 7
  23631588.688 7   -599218.81007        44.000 7       -59.019 7
  25711492.425 5  -1775068.60905        33.000 5      4708.493 5
  21699026.580 8   1194212.54808        48.000 8     -1156.669 8
  21262262.846 7  -5568899.81607        46.000 7      3460.508 7
  25261430.527 7   2943618.72507        45.000 7     -2058.732 7
  25138750.645 7  -3519866.80407        44.000 7      4627.594 7
  23339106.356 7  -3484486.83107        45.000 7      1921.179 7
  20257029.268 7  -2799152.32107        46.000 7      1431.576 7
 12 12 12 12 16 18.0000000  0 11G01G03G11G14G17G19G20G22G23G28G32
  20613657.483 8  -3185881.44908        48.000 8      1954.050 8
  23591602.456 7   3326905.54907        45.000 7     -2448.103 7
  20171870.478 7  -2057936.43407        44.000 7      1083.611 7
  23631599.909 7   -599158.73507        44.000 7       -60.316 7
  25710596.200 5  -1779776.80205        34.000 5      4707.555 5
  21699247.308 8   1195369.72908        49.000 8     -1157.355 8
  21261603.944 7  -5572360.03107        45.000 7      3460.545 7
  25261822.720 7   2945677.63607        45.000 7     -2058.837 7
  25137870.194 7  -3524494.11807        44.000 7      4627.499 7
  23338741.054 7  -3486406.82807        45.000 7      1920.237 7
  20256757.411 7  -2800582.69907        46.000 7      1430.443 7
 12 12 12 12 16 19.0000000  0 11G01G03G11G14G17G19G20G22G23G28G32
  20613285.706 8  -3187835.11008        48.000 8      1952.904 8
  23592068.308 7   3329353.61507        45.000 7     -2448.751 7
  20171664.391 7  -2059019.90307        44.000 7      1082.471 7
  23631611.251 7   -599098.07407        44.000 7       -61.146 7
  25709700.236 5  -1784485.02705        34.000 5      4707.125 5
  21699467.215 8   1196527.33008        49.000 8     -1158.825 8
  21260945.407 7  -5575819.78507        45.000 7      3459.210 7
  25262213.919 7   2947736.57807        44.000 7     -2059.560 7
  25136989.534 7  -3529121.55307        44.000 7      4626.672 7
  23338375.751 7  -3488326.24407        45.000 7      1918.794 7
  20256485.449 7  -2802012.46707        46.000 7      1428.596 7
 12 12 12 12 16 20.0000000  0 11G01G03G11G14G17G19G20G22G23G28G32
  20612913.737 8  -3189788.30108        48.000 8      1954.191 8
  23592534.071 7   3331802.03707        45.000 7     -2447.291 7
  20171457.605 7  -2060102.76707        44.000 7      1084.345 7
  23631623.222 7   -599036.63307        44.000 7       -60.765 7
  25708804.132 5  -1789193.07105        34.000 5      4708.919 5
  21699687.419 8   1197685.54808        49.000 8     -1157.508 8
  21260286.731 7  -5579278.91607        45.000 7      3460.159 7
  25262605.816 7   2949795.70407        44.000 7     -2058.044 7
  25136108.822 7  -3533748.87307        44.000 7      4628.421 7
  23338011.128 7  -3490244.85607        45.000 7      1918.854 7
  20256213.243 7  -2803441.42507        46.000 7      1429.729 7
 12 12 12 12 16 21.0000000  0 11G01G03G11G14G17G19G20G22G23G28G32
  20612541.943 8  -3191741.34608        48.000 8      1952.420 8
  23593000.062 7   3334250.53707        45.000 7     -2448.683 7
  20171251.414 7  -2061185.34107        44.000 7      1082.468 7
  23631634.879 7   -598974.72607        44.000 7       -62.114 7
  25707908.622 5  -1793901.18705        34.000 5      4708.405 5
  21699907.920 8   1198844.07908        49.000 8     -1159.158 8
  21259628.143 7  -5582737.73007        45.000 7      3458.091 7
  25262997.783 7   2951854.74607        44.000 7     -2059.220 7
  25135228.092 7  -3538376.39607        44.000 7      4627.428 7
  23337646.384 7  -3492162.97607        45.000 7      1917.339 7
  20255941.788 7  -2804869.88007        46.000 7      1427.597 7
 12 12 12 12 16 22.0000000  0 11G01G03G11G14G17G19G20G22G23G28G32
  20612170.149 8  -3193694.67008        48.000 8      1952.589 8
  23593466.087 7   3336698.64007        45.000 7     -2448.813 7
  20171045.658 7  -2062268.06407        44.000 7      1081.935 7
  23631646.762 7   -598912.78107        44.000 7       -63.656 7
  25707012.396 5  -1798609.90905        34.000 5      4706.302 5
  21700128.456 8   1200002.45708        49.000 8     -1159.153 8
  21258970.182 7  -5586196.64807        45.000 7      3458.057 7
  25263388.790 7   2953913.23207        44.000 7     -2059.656 7
  25134347.920 7  -3543004.58807        44.000 7      4627.966 7
  23337281.238 7  -3494081.06007        45.000 7      1917.223 7
  20255670.088 7  -2806298.31007        46.000 7      1427.458 7
 12 12 12 12 16 23.0000000  0 11G01G03G11G14G17G19G20G22G23G28G32
  20611798.232 8  -3195648.05008        48.000 8      1953.016 8
  23593931.589 7   3339146.61807        45.000 7     -2448.569 7
  20170839.205 7  -2063350.68007        43.000 7      1081.623 7
  23631659.222 7   -598850.53907        44.000 7       -62.582 7
  25706116.240 5  -1803318.93905        34.000 5      4707.839 5
  21700348.800 8   1201160.95408        49.000 8     -1159.140 8
  21258312.065 7  -5589655.45607        45.000 7      3458.165 7
  25263780.495 7   2955971.40607        44.000 7     -2059.532 7
  25133467.103 7  -3547633.17807        44.000 7      4628.280 7
  23336916.005 7  -3495998.86007        45.000 7      1917.057 7
  20255397.864 7  -2807726.42207        46.000 7      1427.594 7
 12 12 12 12 16 24.0000000  0 11G01G03G11G14G17G19G20G22G23G28G32
  20611426.961 8  -3197600.67708        48.000 8      1951.804 8
  23594398.104 7   3341595.27007        45.000 7     -2449.176 7
  20170633.571 7  -2064432.38607        43.000 7      1081.347 7
  23631672.100 7   -598787.22207        45.000 7       -63.779 7
  25705220.503 5  -1808027.51205        34.000 5      4706.638 5
  21700569.737 8   1202320.36308        49.000 8     -1159.981 8
  21257654.506 7  -5593113.32007        45.000 7      3457.313 7
  25264171.869 7   2958030.13107        44.000 7     -2058.683 7
  25132586.338 7  -3552261.34507        44.000 7      4627.964 7
  23336551.261 7  -3497915.55407        45.000 7      1915.981 7
  20255126.391 7  -2809153.44307        46.000 7      1426.211 7
 12 12 12 12 16 25.0000000  0 11G01G03G11G14G17G19G20G22G23G28G32
  20611055.499 8  -3199552.68308        48.000 8      1951.949 8
  23594863.972 7   3344044.44207        45.000 7     -2449.540 7
  20170428.008 7  -2065513.38107        43.000 7      1080.313 7
  23631684.403 7   -598722.98007        45.000 7       -64.718 7
  25704324.347 5  -1812735.69705        34.000 5      4707.078 5
  21700790.465 8   1203480.52308        49.000 8     -1160.549 8
  21256996.807 7  -5596570.40307        45.000 7      3456.659 7
  25264564.603 7   2960089.16307        44.000 7     -2059.312 7
  25131705.381 7  -3556889.28907        44.000 7      4627.837 7
  23336186.743 7  -3499831.32507        45.000 7      1915.373 7
  20254854.918 7  -2810579.51507        46.000 7      1425.480 7
 12 12 12 12 16 26.0000000  0 11G01G03G11G14G17G19G20G22G23G28G32
  20610684.437 8  -3201504.16108        48.000 8      1951.488 8
  23595329.649 7   3346494.08507        45.000 7     -2449.753 7
  20170221.781 7  -2066593.67007        43.000 7      1080.358 7
  23631697.333 7   -598657.86507        45.000 7       -65.588 7
  25703428.401 5  -1817443.63905        34.000 5      4707.187 5
  21701011.559 8   1204641.36908        49.000 8     -1161.296 8
  21256339.597 7  -5600026.76507        46.000 7      3456.031 7
  25264956.500 7   2962148.48707        44.000 7     -2058.925 7
  25130824.913 7  -3561517.04107        44.000 7      4627.728 7
  23335822.016 7  -3501746.20507        45.000 7      1914.799 7
  20254584.230 7  -2812004.70307        46.000 7      1424.592 7
 12 12 12 12 16 27.0000000  0 11G01G03G11G14G17G19G20G22G23G28G32
  20610312.835 8  -3203454.86608        48.000 8      1951.459 8
  23595795.918 7   3348944.38607        45.000 7     -2449.994 7
  20170016.427 7  -2067673.06007        43.000 7      1079.755 7
  23631709.670 7   -598591.68607        45.000 7       -65.273 7
  25702532.349 5  -1822151.12405        34.000 5      4707.644 5
  21701232.619 8   1205803.13408        49.000 8     -1161.438 8
  21255682.422 7  -5603482.18907        46.000 7      3455.641 7
  25265348.205 7   2964208.31807        44.000 7     -2059.085 7
  25129944.480 7  -3566144.40107        44.000 7      4628.205 7
  23335457.708 7  -3503660.01607        45.000 7      1913.841 7
  20254313.072 7  -2813428.79207        46.000 7      1424.566 7
 12 12 12 12 16 28.0000000  0 11G01G03G11G14G17G19G20G22G23G28G32
  20609941.494 8  -3205405.25208        48.000 8      1950.820 8
  23596261.787 7   3351394.92107        45.000 7     -2450.214 7
  20169811.701 7  -2068751.97707        43.000 7      1079.265 7
  23631722.444 7   -598524.84607        45.000 7       -66.732 7
  25701636.228 5  -1826858.51405        34.000 5      4707.641 5
  21701453.818 8   1206965.37308        49.000 8     -1162.186 8
  21255025.054 7  -5606937.11607        46.000 7      3455.048 7
  25265740.242 7   2966268.22507        44.000 7     -2059.065 7
  25129063.645 7  -3570771.78407        44.000 7      4628.173 7
  23335093.208 7  -3505573.15407        45.000 7      1913.924 7
  20254042.192 7  -2814852.20007        46.000 7      1424.015 7
 12 12 12 12 16 29.0000000  0 11G01G03G11G14G17G19G20G22G23G28G32
  20609570.171 8  -3207355.88608        48.000 8      1951.122 8
  23596728.283 7   3353845.14107        45.000 7     -2449.232 7
  20169606.155 7  -2069830.98907        43.000 7      1079.742 7
  23631735.793 7   -598457.91507        45.000 7       -66.189 7
  25700739.811 5  -1831566.46705        34.000 5      4709.208 5
  21701674.912 8   1208127.52408        49.000 8     -1161.530 8
  21254367.914 7  -5610392.10407        46.000 7      3455.615 7
  25266132.052 7   2968327.62707        44.000 7     -2058.112 7
  25128183.072 7  -3575399.77007        44.000 7      4629.469 7
  23334729.266 7  -3507486.22007        45.000 7      1913.528 7
  20253771.347 7  -2816275.53007        46.000 7      1423.711 7
 12 12 12 12 16 30.0000000  0 11G01G03G11G14G17G19G20G22G23G28G32
  20609198.918 8  -3209306.48308        48.000 8      1951.602 8
  23597194.396 7   3356295.29307        45.000 7     -2448.971 7
  20169400.609 7  -2070909.85307        43.000 7      1079.581 7
  23631748.270 7   -598390.63107        45.000 7       -65.939 7
  25699843.899 5  -1836274.60205        34.000 5      4710.005 5
  21701895.762 8   1209289.85108        49.000 8     -1161.281 8
  21253710.285 7  -5613846.89707        46.000 7      3455.636 7
  25266524.839 7   2970386.79107        45.000 7     -2058.196 7
  25127302.150 7  -3580028.08307        44.000 7      4629.612 7
  23334365.132 7  -3509398.92107        45.000 7      1913.918 7
  20253500.904 7  -2817698.48207        46.000 7      1424.015 7
 12 12 12 12 16 31.0000000  0 11G01G03G11G14G17G19G20G22G23G28G32
  20608827.577 7  -3211257.10107        47.000 7      1949.717 7
  23597660.212 7   3358745.33307        45.000 7     -2450.859 7
  20169195.359 7  -2071988.58407        43.000 7      1077.749 7
  23631761.236 7   -598323.05507        45.000 7       -68.995 7
  25698947.638 5  -1840983.10505        34.000 5      4706.448 5
  21702117.432 8   1210452.29608        49.000 8     -1163.203 8
  21253052.848 7  -5617301.54307        46.000 7      3454.010 7
  25266916.264 7   2972445.69007        44.000 7     -2059.591 7
  25126421.281 7  -3584656.79107        44.000 7      4628.034 7
  23334001.016 7  -3511311.30507        45.000 7      1911.276 7
  20253229.937 7  -2819121.12907        46.000 7      1421.247 7
 12 12 12 12 16 32.0000000  0 11G01G03G11G14G17G19G20G22G23G28G32
  20608456.097 7  -3213207.25907        47.000 7      1950.608 7
  23598126.587 7   3361195.77207        45.000 7     -2450.004 7
  20168990.529 7  -2073066.68807        43.000 7      1078.371 7
  23631774.289 7   -598254.67007        45.000 7       -68.124 7
  25698051.448 5  -1845691.37305        34.000 5      4709.116 5
  21702338.823 8   1211615.39508        49.000 8     -1162.534 8
  21252395.446 7  -5620755.52507        46.000 7      3454.400 7
  25267307.586 7   2974504.81507        43.000 7     -2059.488 7
  25125540.446 7  -3589285.37207        44.000 7      4629.049 7
  23333636.970 7  -3513222.89007        44.000 7      1911.635 7
  20252959.301 7  -2820542.93207        46.000 7      1422.033 7
 12 12 12 12 16 33.0000000  0 11G01G03G11G14G17G19G20G22G23G28G32
  20608085.140 8  -3215156.94808        48.000 8      1950.043 8
  23598592.839 7   3363646.58907        45.000 7     -2450.062 7
  20168785.454 7  -2074144.18807        43.000 7      1078.008 7
  23631786.888 7   -598185.49307        45.000 7       -68.207 7
  25697155.030 5  -1850399.44605        34.000 5      4707.470 5
  21702560.144 8   1212779.09608        49.000 8     -1163.257 8
  21251738.620 7  -5624208.87407        46.000 7      3453.595 7
  25267698.505 7   2976564.17707        43.000 7     -2058.380 7
  25124659.961 7  -3593913.84907        45.000 7      4629.292 7
  23333273.080 7  -3515133.68307        44.000 7      1910.586 7
  20252689.207 7  -2821963.94607        46.000 7      1421.319 7
 12 12 12 12 16 34.0000000  0 11G01G03G11G14G17G19G20G22G23G28G32
  20607714.026 7  -3217106.78107        47.000 7      1949.779 7
  23599059.161 7   3366097.15807        45.000 7     -2450.521 7
  20168580.518 7  -2075221.70307        43.000 7      1076.929 7
  23631800.063 7   -598116.14807        45.000 7       -69.538 7
  25696258.420 5  -1855107.91605        34.000 5      4708.212 5
  21702781.326 8   1213942.80008        49.000 8     -1163.836 8
  21251081.113 7  -5627662.19907        46.000 7      3453.041 7
  25268090.943 7   2978623.09007        44.000 7     -2058.817 7
  25123779.283 7  -3598542.82207        45.000 7      4629.059 7
  23332909.121 7  -3517044.29007        44.000 7      1910.928 7
  20252418.606 7  -2823384.76007        46.000 7      1421.013 7
 12 12 12 12 16 35.0000000  0 11G01G03G11G14G17G19G20G22G23G28G32
  20607343.314 7  -3219056.08807        47.000 7      1948.313 7
  23599525.710 7   3368548.16607        45.000 7     -2452.178 7
  20168375.845 7  -2076298.54407        44.000 7      1075.527 7
  23631814.302 7   -598045.95507        45.000 7       -71.177 7
  25695361.985 5  -1859816.17505        34.000 5      4706.667 5
  21703002.908 8   1215107.17508        49.000 8     -1165.706 8
  21250424.304 7  -5631114.82407        46.000 7      3451.695 7
  25268482.736 7   2980682.28907        44.000 7     -2060.448 7
  25122898.396 7  -3603171.64707        45.000 7      4628.028 7
  23332545.284 7  -3518954.05207        44.000 7      1908.832 7
  20252148.896 7  -2824804.70307        46.000 7      1418.515 7
 12 12 12 12 16 36.0000000  0 11G01G03G11G14G17G19G20G22G23G28G32
  20606972.409 7  -3221004.54307        47.000 7      1948.982 7
  23599992.748 7   3370999.95407        45.000 7     -2451.015 7
  20168171.346 7  -2077374.38407        44.000 7      1076.517 7
  23631827.791 7   -597974.59907        45.000 7       -70.755 7
  25694465.864 5  -1864523.83205        33.000 5      4709.260 5
  21703224.718 8   1216272.55908        49.000 8     -1165.020 8
  21249767.129 7  -5634566.41707        46.000 7      3452.082 7
  25268874.894 7   2982742.08507        44.000 7     -2058.980 7
  25122017.718 7  -3607799.97107        45.000 7      4629.125 7
  23332181.848 7  -3520862.62807        44.000 7      1908.808 7
  20251878.749 7  -2826223.47007        46.000 7      1419.375 7
 12 12 12 12 16 37.0000000  0 11G01G03G11G14G17G19G20G22G23G28G32
  20606601.435 7  -3222952.93107        47.000 7      1948.454 7
  23600459.105 7   3373451.70507        45.000 7     -2451.558 7
  20167966.846 7  -2078450.02907        44.000 7      1075.934 7
  23631841.350 7   -597902.84107        45.000 7       -72.239 7
  25693569.499 5  -1869231.71005        33.000 5      4708.729 5
  21703446.615 8   1217438.16308        49.000 8     -1165.561 8
  21249110.390 7  -5638017.77207        46.000 7      3451.324 7
  25269265.884 7   2984801.70807        44.000 7     -2059.193 7
  25121137.145 7  -3612428.58407        45.000 7      4628.943 7
  23331818.622 7  -3522770.80307        44.000 7      1907.802 7
  20251608.689 7  -2827641.81807        46.000 7      1418.418 7
 12 12 12 12 16 38.0000000  0 11G01G03G11G14G17G19G20G22G23G28G32
  20606231.211 7  -3224900.76507        47.000 7      1947.746 7
  23600925.741 7   3375903.94307        45.000 7     -2451.655 7
  20167761.824 7  -2079524.96007        44.000 7      1074.664 7
  23631855.834 7   -597830.17407        45.000 7       -72.625 7
  25692673.168 5  -1873939.27505        33.000 5      4707.895 5
  21703668.128 8   1218604.48808        49.000 8     -1166.317 8
  21248453.965 7  -5641468.38007        46.000 7      3450.400 7
  25269658.270 7   2986861.60907        44.000 7     -2059.584 7
  25120256.642 7  -3617056.98507        45.000 7      4628.562 7
  23331455.064 7  -3524678.07107        44.000 7      1906.475 7
  20251339.171 7  -2829059.26907        46.000 7      1417.276 7
 12 12 12 12 16 39.0000000  0 11G01G03G11G14G17G19G20G22G23G28G32
  20605860.761 7  -3226848.61507        47.000 7      1948.458 7
  23601392.465 7   3378356.06107        45.000 7     -2451.714 7
  20167557.796 7  -2080599.75907        44.000 7      1075.265 7
  23631869.567 7   -597757.22507        45.000 7       -72.961 7
  25691777.484 5  -1878647.17505        33.000 5      4708.105 5
  21703890.165 8   1219770.94008        49.000 8     -1166.024 8
  21247797.436 7  -5644918.85207        46.000 7      3450.518 7
  25270050.411 7   2988921.24407        44.000 7     -2059.183 7
  25119375.930 7  -3621685.78707        45.000 7      4629.359 7
  23331092.292 7  -3526585.04207        44.000 7      1907.017 7
  20251069.355 7  -2830476.38407        46.000 7      1417.412 7
 12 12 12 12 16 40.0000000  0 11G01G03G11G14G17G19G20G22G23G28G32
  20605489.978 8  -3228796.46308        48.000 8      1946.889 8
  23601859.555 7   3380808.09907        45.000 7     -2453.020 7
  20167353.489 7  -2081674.41807        44.000 7      1073.561 7
  23631883.161 7   -597683.95607        45.000 7       -74.646 7
  25690882.026 5  -1883355.31205        33.000 5      4706.890 5
  21704111.870 8   1220937.54008        49.000 8     -1167.292 8
  21247140.889 7  -5648369.12607        46.000 7      3449.199 7
  25270442.535 7   2990980.63907        44.000 7     -2060.461 7
  25118495.008 7  -3626314.92107        45.000 7      4628.565 7
  23330729.327 7  -3528491.66507        44.000 7      1905.453 7
  20250799.592 7  -2831893.16407        46.000 7      1415.720 7
 12 12 12 12 16 41.0000000  0 11G01G03G11G14G17G19G20G22G23G28G32
  20605119.475 8  -3230743.39708        48.000 8      1947.200 8
  23602325.947 7   3383260.97407        45.000 7     -2452.496 7
  20167149.147 7  -2082748.01407        44.000 7      1073.481 7
  23631897.714 7   -597609.42407        45.000 7       -74.655 7
  25689985.800 5  -1888062.84205        33.000 5      4706.156 5
  21704334.011 8   1222105.21608        49.000 8     -1167.111 8
  21246484.464 7  -5651818.30207        46.000 7      3449.517 7
  25270834.606 7   2993040.68007        44.000 7     -2059.730 7
  25117614.034 7  -3630943.50207        45.000 7      4629.395 7
  23330367.043 7  -3530397.02407        44.000 7      1905.759 7
  20250530.126 7  -2833308.67207        46.000 7      1415.987 7
 12 12 12 12 16 42.0000000  0 11G01G03G11G14G17G19G20G22G23G28G32
  20604749.095 8  -3232690.09308        48.000 8      1947.413 8
  23602792.862 7   3385713.99207        45.000 7     -2451.961 7
  20166944.840 7  -2083821.23107        44.000 7      1074.077 7
  23631912.268 7   -597534.34007        45.000 7       -74.410 7
  25689090.394 5  -1892770.34305        33.000 5      4708.413 5
  21704556.432 8   1223273.27808        49.000 8     -1167.146 8
  21245828.353 7  -5655267.08607        46.000 7      3449.571 7
  25271225.892 7   2995100.72607        44.000 7     -2059.139 7
  25116733.112 7  -3635572.19407        45.000 7      4629.883 7
  23330005.091 7  -3532301.83307        44.000 7      1905.249 7
  20250260.730 7  -2834723.61207        46.000 7      1415.494 7
 12 12 12 12 16 43.0000000  0 11G01G03G11G14G17G19G20G22G23G28G32
  20604378.557 8  -3234636.41008        48.000 8      1946.783 8
  23603259.446 7   3388167.30407        45.000 7     -2453.117 7
  20166740.829 7  -2084893.92807        44.000 7      1072.695 7
  23631927.379 7   -597458.54807        45.000 7       -75.983 7
  25688194.744 5  -1897477.82005        33.000 5      4705.732 5
  21704779.079 8   1224441.85608        49.000 8     -1168.598 8
  21245171.894 7  -5658715.31007        46.000 7      3448.560 7
  25271617.667 7   2997160.88407        44.000 7     -2059.362 7
  25115852.399 7  -3640200.88307        45.000 7      4629.199 7
  23329643.487 7  -3534205.93907        44.000 7      1904.132 7
  20249991.752 7  -2836137.83107        46.000 7      1414.064 7
 12 12 12 12 16 44.0000000  0 11G01G03G11G14G17G19G20G22G23G28G32
  20604008.368 8  -3236582.21308        48.000 8      1945.976 8
  23603726.292 7   3390621.03407        45.000 7     -2453.712 7
  20166536.976 7  -2085965.96307        44.000 7      1071.870 7
  23631941.968 7   -597381.93607        45.000 7       -77.384 7
  25687299.444 5  -1902184.98805        33.000 5      4706.386 5
  21705000.801 8   1225611.10808        49.000 8     -1169.274 8
  21244515.818 7  -5662162.84207        46.000 7      3447.449 7
  25272009.582 7   2999221.29907        44.000 7     -2059.893 7
  25114972.385 7  -3644829.41307        45.000 7      4628.638 7
  23329281.797 7  -3536109.18907        45.000 7      1903.233 7
  20249723.193 7  -2837551.20507        46.000 7      1412.817 7
 12 12 12 12 16 45.0000000  0 11G01G03G11G14G17G19G20G22G23G28G32
  20603638.493 8  -3238527.26208        48.000 8      1944.432 8
  23604193.434 7   3393075.44707        45.000 7     -2455.438 7
  20166333.297 7  -2087037.09207        44.000 7      1070.211 7
  23631957.498 7   -597304.21307        46.000 7       -78.118 7
  25686403.951 5  -1906891.72505        33.000 5      4706.087 5
  21705223.745 8   1226781.28208        49.000 8     -1170.938 8
  21243859.533 7  -5665609.43907        46.000 7      3445.827 7
  25272401.758 7   3001282.22207        44.000 7     -2061.172 7
  25114091.603 7  -3649457.53407        45.000 7      4627.525 7
  23328920.577 7  -3538011.32807        45.000 7      1901.032 7
  20249454.268 7  -2838963.46207        46.000 7      1411.221 7
 12 12 12 12 16 46.0000000  0 11G01G03G11G14G17G19G20G22G23G28G32
  20603268.897 8  -3240471.66008        48.000 8      1945.225 8
  23604660.437 7   3395530.41107        45.000 7     -2454.377 7
  20166129.670 7  -2088107.43907        44.000 7      1070.860 7
  23631972.785 7   -597225.53807        46.000 7       -78.375 7
  25685508.074 5  -1911598.01205        33.000 5      4706.719 5
  21705446.410 8   1227952.25008        49.000 8     -1170.669 8
  21243204.050 7  -5669055.21407        46.000 7      3446.558 7
  25272793.969 7   3003343.53607        44.000 7     -2060.742 7
  25113211.030 7  -3654085.36607        45.000 7      4628.967 7
  23328559.672 7  -3539912.50107        45.000 7      1901.350 7
  20249185.674 7  -2840374.74307        46.000 7      1411.710 7
 12 12 12 12 16 47.0000000  0 11G01G03G11G14G17G19G20G22G23G28G32
  20602898.813 8  -3242416.69608        48.000 8      1945.574 8
  23605127.230 7   3397984.65007        45.000 7     -2454.179 7
  20165925.834 7  -2089178.28407        44.000 7      1071.034 7
  23631987.740 7   -597147.17207        46.000 7       -78.482 7
  25684612.407 5  -1916305.25805        33.000 5      4707.719 5
  21705669.023 8   1229122.72508        49.000 8     -1170.538 8
  21242548.009 7  -5672501.46307        46.000 7      3446.642 7
  25273185.604 7   3005403.97307        44.000 7     -2059.927 7
  25112329.776 7  -3658714.20107        45.000 7      4629.390 7
  23328198.295 7  -3541813.97307        45.000 7      1901.895 7
  20248916.993 7  -2841786.31507        46.000 7      1411.598 7
 12 12 12 12 16 48.0000000  0 11G01G03G11G14G17G19G20G22G23G28G32
  20602528.816 8  -3244362.21208        48.000 8      1944.596 8
  23605594.565 7   3400438.31907        45.000 7     -2454.469 7
  20165722.085 7  -2090249.46707        44.000 7      1070.552 7
  23632002.660 7   -597068.95807        45.000 7       -79.365 7
  25683716.565 5  -1921013.24805        33.000 5      4707.334 5
  21705891.775 8   1230292.88408        49.000 8     -1171.049 8
  21241892.230 7  -5675948.01207        46.000 7      3445.700 7
  25273577.606 7   3007463.66807        44.000 7     -2060.738 7
  25111448.540 7  -3663343.86507        45.000 7      4629.044 7
  23327836.447 7  -3543715.60607        45.000 7      1900.967 7
  20248647.998 7  -2843198.02207        46.000 7      1410.573 7
 12 12 12 12 16 49.0000000  0 11G01G03G11G14G17G19G20G22G23G28G32
  20602158.575 8  -3246306.48508        48.000 8      1943.557 8
  23606061.463 7   3402893.14207        45.000 7     -2455.408 7
  20165518.057 7  -2091319.27107        44.000 7      1069.219 7
  23632017.423 7   -596989.19007        45.000 7       -80.541 7
  25682821.247 5  -1925720.29305        33.000 5      4705.061 5
  21706114.579 8   1231464.42208        49.000 8     -1172.216 8
  21241236.451 7  -5679393.14107        46.000 7      3444.504 7
  25273970.934 7   3009524.32407        45.000 7     -2061.314 7
  25110567.810 7  -3667972.64407        45.000 7      4628.155 7
  23327475.577 7  -3545615.65407        45.000 7      1899.201 7
  20248379.422 7  -2844608.16307        46.000 7      1409.121 7
 12 12 12 12 16 50.0000000  0 11G01G03G11G14G17G19G20G22G23G28G32
  20601788.892 8  -3248250.32508        48.000 8      1944.506 8
  23606528.640 7   3405348.29507        45.000 7     -2454.698 7
  20165314.344 7  -2092388.50307        44.000 7      1069.710 7
  23632032.849 7   -596908.66507        45.000 7       -80.187 7
  25681925.649 5  -1930427.15105        33.000 5      4707.844 5
  21706337.907 8   1232636.55508        49.000 8     -1171.289 8
  21240581.178 7  -5682837.68107        46.000 7      3445.023 7
  25274363.267 7   3011585.15907        45.000 7     -2059.976 7
  25109687.080 7  -3672601.36407        45.000 7      4629.472 7
  23327114.340 7  -3547514.97207        46.000 7      1899.636 7
  20248110.915 7  -2846017.53607        46.000 7      1409.665 7
 12 12 12 12 16 51.0000000  0 11G01G03G11G14G17G19G20G22G23G28G32
  20601418.651 8  -3250193.77608        48.000 8      1943.182 8
  23606996.079 7   3407803.77207        45.000 7     -2456.361 7
  20165110.804 7  -2093457.19807        44.000 7      1067.743 7
  23632047.716 7   -596827.40807        45.000 7       -81.721 7
  25681030.418 5  -1935133.89105        33.000 5      4705.402 5
  21706560.816 8   1233809.23208        49.000 8     -1173.354 8
  21239925.678 7  -5686281.63307        46.000 7      3443.289 7
  25274755.077 7   3013646.14907        45.000 7     -2062.041 7
  25108806.159 7  -3677230.02407        45.000 7      4628.053 7
  23326752.928 7  -3549413.52207        46.000 7      1897.686 7
  20247842.950 7  -2847426.15907        46.000 7      1407.762 7
 12 12 12 12 16 52.0000000  0 11G01G03G11G14G17G19G20G22G23G28G32
  20601049.160 8  -3252136.77608        48.000 8      1943.754 8
  23607462.959 7   3410259.58907        45.000 7     -2455.529 7
  20164907.370 7  -2094525.28807        43.000 7      1068.720 7
  23632062.619 7   -596745.39507        45.000 7       -81.882 7
  25680134.786 5  -1939840.47005        33.000 5      4707.256 5
  21706784.179 8   1234982.50708        49.000 8     -1172.738 8
  21239269.916 7  -5689724.98607        46.000 7      3443.850 7
  25275146.625 7   3015707.32507        44.000 7     -2060.682 7
  25107925.341 7  -3681858.60007        45.000 7      4629.042 7
  23326392.267 7  -3551311.30907        45.000 7      1898.265 7
  20247575.211 7  -2848834.00107        46.000 7      1408.437 7
 12 12 12 12 16 53.0000000  0 11G01G03G11G14G17G19G20G22G23G28G32
  20600679.442 8  -3254079.42708        48.000 8      1942.415 8
  23607930.137 7   3412715.67107        45.000 7     -2456.325 7
  20164703.952 7  -2095592.89807        43.000 7      1067.347 7
  23632077.870 7   -596662.70807        45.000 7       -83.754 7
  25679239.432 5  -1944546.94605        33.000 5      4706.960 5
  21707007.280 8   1236156.27808        49.000 8     -1174.112 8
  21238614.695 7  -5693167.80207        46.000 7      3441.942 7
  25275539.098 7   3017768.59107        44.000 7     -2061.170 7
  25107044.419 7  -3686487.18407        45.000 7      4628.521 7
  23326031.083 7  -3553208.43407        45.000 7      1896.456 7
  20247307.158 7  -2850241.15607        46.000 7      1406.699 7
 12 12 12 12 16 54.0000000  0 11G01G03G11G14G17G19G20G22G23G28G32
  20600310.073 8  -3256021.45908        48.000 8      1942.182 8
  23608397.645 7   3415172.30007        45.000 7     -2456.227 7
  20164500.989 7  -2096659.71907        44.000 7      1066.993 7
  23632092.965 7   -596579.07407        45.000 7       -83.409 7
  25678343.765 5  -1949253.07805        33.000 5      4706.748 5
  21707230.608 8   1237330.82008        49.000 8     -1174.188 8
  21237959.788 7  -5696609.80707        46.000 7      3442.066 7
  25275931.099 7   3019830.23407        44.000 7     -2060.806 7
  25106163.777 7  -3691115.50007        45.000 7      4628.967 7
  23325669.601 7  -3555104.56907        45.000 7      1896.259 7
  20247038.896 7  -2851647.34207        46.000 7      1406.503 7
 12 12 12 12 16 55.0000000  0 11G01G03G11G14G17G19G20G22G23G28G32
  20599940.582 8  -3257963.76608        48.000 8      1941.336 8
  23608864.735 7   3417628.55707        45.000 7     -2457.340 7
  20164297.816 7  -2097726.69907        43.000 7      1065.550 7
  23632108.582 7   -596495.37207        44.000 7       -84.616 7
  25677447.504 5  -1953959.78805        33.000 5      4706.429 5
  21707454.040 8   1238505.23408        48.000 8     -1175.717 8
  21237304.777 7  -5700051.91707        45.000 7      3441.345 7
  25276323.345 7   3021891.34107        44.000 7     -2061.727 7
  25105283.082 7  -3695744.43407        45.000 7      4628.331 7
  23325308.434 7  -3557000.67907        45.000 7      1894.964 7
  20246771.157 7  -2853053.46307        46.000 7      1404.906 7
 12 12 12 12 16 56.0000000  0 11G01G03G11G14G17G19G20G22G23G28G32
  20599570.812 8  -3259905.66008        48.000 8      1941.171 8
  23609332.297 7   3420085.13307        45.000 7     -2457.424 7
  20164094.765 7  -2098793.11507        43.000 7      1065.459 7
  23632124.166 7   -596410.95407        44.000 7       -85.626 7
  25676552.483 5  -1958666.32305        33.000 5      4705.724 5
  21707677.822 8   1239680.20608        48.000 8     -1176.060 8
  21236649.609 7  -5703493.45907        46.000 7      3440.505 7
  25276715.068 7   3023952.61007        43.000 7     -2062.061 7
  25104401.828 7  -3700373.34207        45.000 7      4628.122 7
  23324947.511 7  -3558896.02307        45.000 7      1894.067 7
  20246503.994 7  -2854458.83807        46.000 7      1404.258 7
 12 12 12 12 16 57.0000000  0 11G01G03G11G14G17G19G20G22G23G28G32
  20599201.409 8  -3261847.29608        48.000 8      1941.771 8
  23609800.050 7   3422541.88207        45.000 7     -2457.566 7
  20163891.662 7  -2099859.13007        43.000 7      1065.126 7
  23632140.185 7   -596325.95107        44.000 7       -86.082 7
  25675656.763 5  -1963372.86805        33.000 5      4704.239 5
  21707901.603 8   1240855.60208        48.000 8     -1176.076 8
  21235994.580 7  -5706934.54707        46.000 7      3440.328 7
  25277106.616 7   3026013.88107        43.000 7     -2062.250 7
  25103521.081 7  -3705002.32707        45.000 7      4628.952 7
  23324586.152 7  -3560790.78407        45.000 7      1893.850 7
  20246236.413 7  -2855863.60807        46.000 7      1403.914 7
 12 12 12 12 16 58.0000000  0 11G01G03G11G14G17G19G20G22G23G28G32
  20598832.022 8  -3263788.65108        48.000 8      1942.073 8
  23610267.820 7   3424998.81507        45.000 7     -2456.752 7
  20163689.432 7  -2100924.72807        43.000 7      1066.385 7
  23632156.431 7   -596240.33907        44.000 7       -85.577 7
  25674760.450 5  -1968079.43205        33.000 5      4707.366 5
  21708125.280 8   1242031.41308        49.000 8     -1175.716 8
  21235339.917 7  -5710375.18707        46.000 7      3440.788 7
  25277498.914 7   3028075.18307        43.000 7     -2061.530 7
  25102640.333 7  -3709631.39507        45.000 7      4629.460 7
  23324224.741 7  -3562684.93207        45.000 7      1894.393 7
  20245968.953 7  -2857267.77107        45.000 7      1404.206 7
 12 12 12 12 16 59.0000000  0 11G01G03G11G14G17G19G20G22G23G28G32
  20598462.235 8  -3265730.24808        48.000 8      1940.699 8
  23610735.521 7   3427455.44007        45.000 7     -2457.330 7
  20163486.538 7  -2101990.38307        43.000 7      1064.846 7
  23632172.066 7   -596154.64807        44.000 7       -86.665 7
  25673864.591 5  -1972786.45605        33.000 5      4707.205 5
  21708349.376 8   1243207.15708        49.000 8     -1176.729 8
  21234685.255 7  -5713815.87207        46.000 7      3439.606 7
  25277890.567 7   3030136.05607        43.000 7     -2061.310 7
  25101759.324 7  -3714261.04507        45.000 7      4628.859 7
  23323863.818 7  -3564578.97007        44.000 7      1893.216 7
  20245702.105 7  -2858671.79907        45.000 7      1402.998 7
 12 12 12 12 17  0.0000000  0 11G01G03G11G14G17G19G20G22G23G28G32
  20598093.110 8  -3267671.11708        48.000 8      1941.917 8
  23611202.942 7   3429912.68707        45.000 7     -2456.163 7
  20163283.679 7  -2103055.20707        43.000 7      1065.741 7
  23632188.958 7   -596067.90607        44.000 7       -85.431 7
  25672968.906 5  -1977493.11105        33.000 5      4705.597 5
  21708573.070 8   1244383.76408        49.000 8     -1175.667 8
  21234030.837 7  -5717255.66807        45.000 7      3441.207 7
  25278283.703 7   3032197.33707        43.000 7     -2060.706 7
  25100878.612 7  -3718890.33807        45.000 7      4630.876 7
  23323503.628 7  -3566471.96507        44.000 7      1894.163 7
  20245435.116 7  -2860074.78707        45.000 7      1404.091 7
 12 12 12 12 17  1.0000000  0 11G01G03G11G14G17G19G20G22G23G28G32
  20597723.881 8  -3269612.09308        48.000 8      1940.077 8
  23611670.329 7   3432369.75207        45.000 7     -2457.760 7
  20163080.559 7  -2104119.98007        43.000 7      1064.261 7
  23632205.047 7   -595980.93507        44.000 7       -87.641 7
  25672073.064 5  -1982200.06505        33.000 5      4706.966 5
  21708796.974 8   1245560.42608        49.000 8     -1177.826 8
  21233376.611 7  -5720695.39407        45.000 7      3438.731 7
  25278676.019 7   3034258.30807        43.000 7     -2061.549 7
  25099997.289 7  -3723520.10007        45.000 7      4629.023 7
  23323143.403 7  -3568364.74907        44.000 7      1891.699 7
  20245168.041 7  -2861477.52607        45.000 7      1401.696 7
 12 12 12 12 17  2.0000000  0 12G01G03G06G11G14G17G19G20G22G23G28G32
  20597354.774 8  -3271552.59608        48.000 8      1940.677 8
  23612137.960 7   3434827.19507        45.000 7     -2457.354 7
  24836915.223 4   3203925.13434        26.000 4     -2249.448 4
  20162878.276 7  -2105184.14907        43.000 7      1063.773 7
  23632221.817 7   -595893.18607        44.000 7       -87.939 7
  25671177.344 5  -1986906.89105        33.000 5      4706.061 5
  21709020.564 8   1246737.71308        49.000 8     -1177.167 8
  21232721.774 7  -5724134.46607        45.000 7      3439.508 7
  25279066.869 7   3036319.48107        43.000 7     -2060.843 7
  25099115.861 7  -3728149.72807        45.000 7      4630.066 7
  23322783.021 7  -3570256.71507        44.000 7      1892.308 7
  20244901.768 7  -2862879.46007        45.000 7      1401.833 7
 12 12 12 12 17  3.0000000  0 12G01G03G06G11G14G17G19G20G22G23G28G32
  20596985.597 8  -3273492.53808        48.000 8      1939.766 8
  23612605.643 7   3437285.11707        45.000 7     -2458.166 7
  24837344.900 4   3206175.08034        27.000 4     -2250.096 4
  20162675.993 7  -2106247.59807        43.000 7      1062.928 7
  23632238.848 7   -595804.54807        44.000 7       -89.593 7
  25670282.026 5  -1991613.34405        33.000 5      4708.298 5
  21709245.008 8   1247915.71908        49.000 8     -1178.263 8
  21232067.583 7  -5727572.79507        46.000 7      3437.936 7
  25279459.690 7   3038380.99107        43.000 7     -2061.217 7
  25098234.799 7  -3732779.14907        45.000 7      4629.763 7
  23322422.639 7  -3572147.78907        44.000 7      1890.459 7
  20244635.181 7  -2864280.48507        46.000 7      1400.802 7
 12 12 12 12 17  4.0000000  0 12G01G03G06G11G14G17G19G20G22G23G28G32
  20596616.421 8  -3275432.65908        48.000 8      1940.931 8
  23613073.327 7   3439742.74607        45.000 7     -2456.966 7
  24837775.467 4   3208424.74834        27.000 4     -2249.733 4
  20162473.972 7  -2107311.08907        43.000 7      1064.566 7
  23632255.513 7   -595715.76507        44.000 7       -88.029 7
  25669385.975 5  -1996320.34105        33.000 5      4708.408 5
  21709469.331 8   1249093.66608        49.000 8     -1177.024 8
  21231413.357 7  -5731011.15407        46.000 7      3439.123 7
  25279852.495 7   3040442.02607        44.000 7     -2060.230 7
  25097353.999 7  -3737409.12507        45.000 7      4630.895 7
  23322062.833 7  -3574038.71907        44.000 7      1891.338 7
  20244368.576 7  -2865681.37007        46.000 7      1401.671 7
 12 12 12 12 17  5.0000000  0 12G01G03G06G11G14G17G19G20G22G23G28G32
  20596247.296 8  -3277372.92508        48.000 8      1940.166 8
  23613541.080 7   3442200.16707        45.000 7     -2456.854 7
  24838204.864 4   3210674.00334        28.000 4     -2249.896 4
  20162271.916 7  -2108374.57407        43.000 7      1063.953 7
  23632272.667 7   -595626.80307        44.000 7       -88.865 7
  25668489.645 5  -2001027.67405        34.000 5      4708.443 5
  21709692.973 8   1250271.65008        49.000 8     -1178.272 8
  21230759.253 7  -5734449.46007        45.000 7      3437.984 7
  25280244.950 7   3042502.65607        44.000 7     -2060.583 7
  25096472.624 7  -3742039.59107        45.000 7      4630.981 7
  23321703.150 7  -3575929.44207        44.000 7      1890.910 7
  20244102.338 7  -2867082.03507        46.000 7      1400.721 7
 12 12 12 12 17  6.0000000  0 12G01G03G06G11G14G17G19G20G22G23G28G32
  20595878.067 8  -3279312.54708        48.000 8      1938.700 8
  23614009.164 7   3444658.13707        45.000 7     -2459.221 7
  24838635.919 4   3212923.74834        28.000 4     -2251.146 4
  20162069.441 7  -2109437.28007        43.000 7      1061.554 7
  23632289.925 7   -595536.86807        44.000 7       -91.678 7
  25667593.995 5  -2005734.65805        34.000 5      4705.824 5
  21709917.575 8   1251450.41608        49.000 8     -1180.147 8
  21230104.939 7  -5737886.96007        45.000 7      3436.075 7
  25280636.638 7   3044563.68607        43.000 7     -2062.205 7
  25095591.684 7  -3746669.76707        45.000 7      4629.066 7
  23321343.605 7  -3577819.22007        44.000 7      1888.663 7
  20243836.048 7  -2868481.73707        46.000 7      1398.623 7
 12 12 12 12 17  7.0000000  0 12G01G03G06G11G14G17G19G20G22G23G28G32
  20595509.082 8  -3281251.68008        48.000 8      1938.587 8
  23614476.778 7   3447116.49707        45.000 7     -2458.705 7
  24839065.875 4   3215173.97134        27.000 4     -2250.534 4
  20161867.367 7  -2110499.34807        43.000 7      1061.474 7
  23632306.869 7   -595446.11907        44.000 7       -91.552 7
  25666698.921 5  -2010441.43305        34.000 5      4705.761 5
  21710141.880 8   1252629.82908        49.000 8     -1179.934 8
  21229451.045 7  -5741323.78507        46.000 7      3436.283 7
  25281027.715 7   3046624.96707        43.000 7     -2061.766 7
  25094710.483 7  -3751299.79007        45.000 7      4629.742 7
  23320984.759 7  -3579708.15807        44.000 7      1888.194 7
  20243569.548 7  -2869880.59607        46.000 7      1397.614 7
 12 12 12 12 17  8.0000000  0 12G01G03G06G11G14G17G19G20G22G23G28G32
  20595139.801 8  -3283190.63708        48.000 8      1938.215 8
  23614944.548 7   3449574.94707        45.000 7     -2459.037 7
  24839494.627 4   3217424.10634        27.000 4     -2250.549 4
  20161665.363 7  -2111561.10007        43.000 7      1061.235 7
  23632323.430 7   -595354.89307        44.000 7       -91.566 7
  25665802.869 5  -2015148.27805        34.000 5      4707.382 5
  21710366.516 8   1253809.55808        49.000 8     -1180.164 8
  21228796.906 7  -5744760.26907        46.000 7      3435.654 7
  25281420.920 7   3048686.13807        44.000 7     -2060.687 7
  25093829.788 7  -3755930.01107        45.000 7      4630.534 7
  23320625.250 7  -3581596.57907        44.000 7      1888.158 7
  20243303.642 7  -2871278.94107        46.000 7      1397.845 7
 12 12 12 12 17  9.0000000  0 12G01G03G06G11G14G17G19G20G22G23G28G32
  20594771.112 8  -3285129.64708        48.000 8      1940.321 8
  23615412.528 7   3452033.25707        45.000 7     -2456.873 7
  24839921.023 4   3219674.14634        27.000 4     -2248.689 4
  20161463.115 7  -2112622.76507        43.000 7      1062.890 7
  23632340.810 7   -595263.37907        44.000 7       -89.776 7
  25664907.202 5  -2019855.47805        33.000 5      4708.037 5
  21710590.804 8   1254989.38608        49.000 8     -1178.342 8
  21228142.767 7  -5748196.61507        46.000 7      3437.817 7
  25281813.882 7   3050746.96807        44.000 7     -2059.133 7
  25092948.448 7  -3760560.65307        45.000 7      4632.012 7
  23320266.281 7  -3583484.74007        45.000 7      1889.550 7
  20243037.840 7  -2872677.00107        46.000 7      1399.250 7
 12 12 12 12 17 10.0000000  0 12G01G03G06G11G14G17G19G20G22G23G28G32
  20594402.477 8  -3287067.74308        48.000 8      1937.947 8
  23615880.299 7   3454492.39607        45.000 7     -2459.454 7
  24840350.264 4   3221924.83034        27.000 4     -2250.163 4
  20161261.705 7  -2113683.35307        44.000 7      1060.301 7
  23632358.173 7   -595170.63307        44.000 7       -93.056 7
  25664011.605 5  -2024562.00905        34.000 5      4706.629 5
  21710815.755 8   1256170.27608        48.000 8     -1181.091 8
  21227489.448 7  -5751631.88407        46.000 7      3435.704 7
  25282206.372 7   3052808.48007        44.000 7     -2061.469 7
  25092067.316 7  -3765190.70607        45.000 7      4630.229 7
  23319907.766 7  -3585371.63507        45.000 7      1887.159 7
  20242771.567 7  -2874073.80207        46.000 7      1396.843 7
 12 12 12 12 17 11.0000000  0 12G01G03G06G11G14G17G19G20G22G23G28G32
  20594033.439 8  -3289005.33508        48.000 8      1937.944 8
  23616348.436 7   3456951.93907        45.000 7     -2458.887 7
  24840777.916 4   3224175.86534        27.000 4     -2251.302 4
  20161060.015 7  -2114743.29307        44.000 7      1060.681 7
  23632376.251 7   -595077.05707        44.000 7       -93.154 7
  25663116.199 5  -2029268.34605        34.000 5      4706.936 5
  21711040.182 8   1257351.81508        48.000 8     -1181.429 8
  21226836.182 7  -5755066.46907        46.000 7      3434.662 7
  25282597.711 7   3054870.23307        43.000 7     -2061.679 7
  25091186.272 7  -3769820.64107        45.000 7      4630.271 7
  23319548.763 7  -3587257.70807        45.000 7      1885.912 7
  20242506.551 7  -2875469.75407        46.000 7      1396.121 7
 12 12 12 12 17 12.0000000  0 12G01G03G06G11G14G17G19G20G22G23G28G32
  20593664.454 8  -3290942.66808        48.000 8      1936.477 8
  23616816.363 7   3459411.65007        45.000 7     -2460.707 7
  24841205.464 4   3226427.02534        27.000 4     -2251.763 4
  20160858.849 7  -2115802.85307        44.000 7      1058.118 7
  23632394.347 7   -594982.92007        44.000 7       -95.666 7
  25662220.636 5  -2033974.67505        34.000 5      4704.748 5
  21711264.871 8   1258533.75508        48.000 8     -1183.111 8
  21226182.340 7  -5758500.63107        46.000 7      3433.253 7
  25282989.660 7   3056931.98807        43.000 7     -2062.829 7
  25090305.403 7  -3774450.67207        45.000 7      4628.904 7
  23319190.266 7  -3589143.19707        45.000 7      1883.977 7
  20242240.993 7  -2876865.13607        46.000 7      1394.144 7
 12 12 12 12 17 13.0000000  0 12G01G03G06G11G14G17G19G20G22G23G28G32
  20593295.976 8  -3292879.71308        48.000 8      1936.732 8
  23617284.588 7   3461871.56307        45.000 7     -2460.599 7
  24841634.355 4   3228678.35834        26.000 4     -2251.467 4
  20160657.369 7  -2116861.96807        44.000 7      1058.372 7
  23632412.391 7   -594888.14707        44.000 7       -95.685 7
  25661324.760 5  -2038681.04805        34.000 5      4704.285 5
  21711490.014 8   1259716.13208        48.000 8     -1183.085 8
  21225529.265 7  -5761934.31907        46.000 7      3432.718 7
  25283382.726 7   3058993.74807        44.000 7     -2062.076 7
  25089424.411 7  -3779080.75607        45.000 7      4629.318 7
  23318832.065 7  -3591028.07107        45.000 7      1884.239 7
  20241975.331 7  -2878259.88307        46.000 7      1393.381 7
 12 12 12 12 17 14.0000000  0 12G01G03G06G11G14G17G19G20G22G23G28G32
  20592927.462 8  -3294816.36108        48.000 8      1936.347 8
  23617752.829 7   3464331.79707        45.000 7     -2460.664 7
  24842065.132 4   3230929.80334        26.000 4     -2252.124 4
  20160456.238 7  -2117920.53407        44.000 7      1057.438 7
  23632430.609 7   -594792.65807        44.000 7       -96.066 7
  25660429.180 5  -2043387.16905        33.000 5      4706.594 5
  21711715.279 8   1260899.07008        48.000 8     -1183.298 8
  21224875.790 7  -5765367.42207        46.000 7      3432.741 7
  25283775.426 7   3061055.67507        44.000 7     -2062.287 7
  25088543.297 7  -3783710.79507        45.000 7      4629.955 7
  23318473.917 7  -3592912.19007        45.000 7      1883.211 7
  20241710.088 7  -2879653.86507        46.000 7      1393.424 7
 12 12 12 12 17 15.0000000  0 12G01G03G06G11G14G17G19G20G22G23G28G32
  20592558.774 8  -3296752.23608        48.000 8      1935.824 8
  23618221.385 7   3466792.69907        45.000 7     -2461.147 7
  24842493.831 4   3233182.00934        25.000 4     -2251.463 4
  20160254.915 7  -2118978.18907        44.000 7      1057.000 7
  23632448.966 7   -594696.09007        44.000 7       -97.071 7
  25659533.582 5  -2048092.86605        33.000 5      4704.487 5
  21711940.090 8   1262082.92108        48.000 8     -1184.207 8
  21224222.506 7  -5768799.59907        46.000 7      3431.634 7
  25284167.026 7   3063118.09507        43.000 7     -2062.799 7
  25087662.445 7  -3788340.42907        45.000 7      4629.445 7
  23318115.734 7  -3594795.22907        45.000 7      1881.949 7
  20241445.054 7  -2881046.74807        46.000 7      1392.428 7
 12 12 12 12 17 16.0000000  0 11G01G03G11G14G17G19G20G22G23G28G32
  20592190.731 8  -3298687.79808        48.000 8      1935.528 8
  23618689.609 7   3469253.82907        45.000 7     -2460.890 7
  20160053.400 7  -2120035.39307        44.000 7      1056.989 7
  23632467.516 7   -594598.84707        44.000 7       -97.302 7
  25658638.770 5  -2052798.50905        33.000 5      4705.087 5
  21712165.791 8   1263267.23508        48.000 8     -1184.177 8
  21223569.780 7  -5772231.26007        46.000 7      3432.045 7
  25284558.731 7   3065180.61307        43.000 7     -2062.009 7
  25086781.523 7  -3792970.10107        45.000 7      4629.867 7
  23317758.074 7  -3596677.59007        45.000 7      1882.329 7
  20241180.177 7  -2882438.97907        46.000 7      1392.304 7
 12 12 12 12 17 17.0000000  0 11G01G03G11G14G17G19G20G22G23G28G32
  20591822.200 8  -3300622.81908        48.000 8      1935.383 8
  23619158.026 7   3471715.40807        45.000 7     -2460.734 7
  20159852.705 7  -2121091.89107        44.000 7      1056.841 7
  23632485.786 7   -594500.77307        44.000 7       -97.919 7
  25657743.521 5  -2057503.90405        33.000 5      4705.509 5
  21712391.021 8   1264452.25308        48.000 8     -1184.502 8
  21222917.177 7  -5775662.23107        46.000 7      3431.160 7
  25284950.820 7   3067243.39607        42.000 7     -2061.828 7
  25085900.060 7  -3797599.58407        45.000 7      4630.379 7
  23317400.345 7  -3598559.09607        45.000 7      1881.671 7
  20240915.492 7  -2883830.32407        46.000 7      1391.778 7
 12 12 12 12 17 18.0000000  0 11G01G03G11G14G17G19G20G22G23G28G32
  20591454.297 8  -3302557.79008        48.000 8      1935.310 8
  23619626.564 7   3474176.92907        45.000 7     -2461.524 7
  20159651.922 7  -2122148.23807        44.000 7      1056.169 7
  23632504.650 7   -594402.31807        44.000 7       -98.342 7
  25656847.871 5  -2062209.47505        33.000 5      4705.668 5
  21712616.338 8   1265637.45708        48.000 8     -1185.075 8
  21222264.574 7  -5779092.96807        46.000 7      3430.892 7
  25285343.677 7   3069305.94707        42.000 7     -2061.335 7
  25085019.261 7  -3802229.38507        45.000 7      4630.433 7
  23317042.702 7  -3600440.23507        45.000 7      1881.379 7
  20240650.493 7  -2885221.28907        46.000 7      1391.225 7
 12 12 12 12 17 19.0000000  0 11G01G03G11G14G17G19G20G22G23G28G32
  20591085.993 8  -3304492.35808        48.000 8      1933.884 8
  23620095.085 7   3476638.77007        45.000 7     -2462.271 7
  20159451.158 7  -2123204.00807        44.000 7      1054.769 7
  23632524.090 7   -594303.16107        44.000 7       -99.672 7
  25655952.396 5  -2066914.97105        33.000 5      4704.608 5
  21712841.865 8   1266823.20908        48.000 8     -1186.725 8
  21221611.849 7  -5782523.13807        46.000 7      3429.694 7
  25285735.469 7   3071368.64207        42.000 7     -2062.830 7
  25084138.112 7  -3806859.13807        45.000 7      4629.323 7
  23316685.339 7  -3602320.63807        46.000 7      1879.784 7
  20240385.756 7  -2886611.52207        46.000 7      1389.247 7
 12 12 12 12 17 20.0000000  0 11G01G03G11G14G17G19G20G22G23G28G32
  20590718.055 8  -3306426.10608        48.000 8      1932.878 8
  23620563.501 7   3479101.36507        45.000 7     -2463.340 7
  20159249.904 7  -2124258.81007        44.000 7      1054.171 7
  23632542.849 7   -594202.80807        44.000 7      -100.647 7
  25655056.432 5  -2071619.85405        33.000 5      4703.605 5
  21713067.618 8   1268009.95208        48.000 8     -1187.071 8
  21220959.786 7  -5785952.27907        46.000 7      3428.336 7
  25286127.890 7   3073431.92807        42.000 7     -2063.442 7
  25083257.033 7  -3811488.40307        45.000 7      4629.020 7
  23316327.558 7  -3604199.84807        46.000 7      1878.437 7
  20240121.944 7  -2888000.55307        46.000 7      1388.707 7
 12 12 12 12 17 21.0000000  0 11G01G03G11G14G17G19G20G22G23G28G32
  20590350.274 8  -3308359.78908        48.000 8      1933.417 8
  23621032.179 7   3481563.91107        45.000 7     -2462.424 7
  20159049.558 7  -2125313.42707        44.000 7      1054.183 7
  23632562.463 7   -594102.09907        44.000 7      -100.422 7
  25654160.817 5  -2076324.95605        33.000 5      4705.895 5
  21713293.633 8   1269196.86708        48.000 8     -1186.793 8
  21220307.619 7  -5789381.20307        46.000 7      3428.603 7
  25286520.921 7   3075494.98707        43.000 7     -2063.089 7
  25082376.006 7  -3816117.97907        46.000 7      4630.134 7
  23315970.404 7  -3606078.70707        46.000 7      1878.648 7
  20239857.084 7  -2889389.22607        46.000 7      1388.620 7
 12 12 12 12 17 22.0000000  0 11G01G03G11G14G17G19G20G22G23G28G32
  20589982.249 8  -3310293.38008        48.000 8      1933.073 8
  23621501.293 7   3484026.45807        45.000 7     -2463.563 7
  20158848.846 7  -2126367.78607        44.000 7      1053.548 7
  23632581.850 7   -594000.98207        44.000 7      -102.313 7
  25653264.888 5  -2081030.24905        33.000 5      4706.534 5
  21713520.033 8   1270384.04108        48.000 8     -1187.540 8
  21219655.383 7  -5792809.84607        46.000 7      3428.053 7
  25286913.603 7   3077557.89207        43.000 7     -2063.218 7
  25081495.119 7  -3820747.81207        46.000 7      4629.559 7
  23315612.901 7  -3607957.11007        46.000 7      1877.547 7
  20239593.063 7  -2890777.45307        46.000 7      1387.406 7
 12 12 12 12 17 23.0000000  0 11G01G03G11G14G17G19G20G22G23G28G32
  20589614.172 8  -3312226.68608        48.000 8      1933.063 8
  23621970.006 7   3486489.21807        45.000 7     -2462.201 7
  20158648.273 7  -2127421.71307        44.000 7      1053.623 7
  23632601.813 7   -593899.24707        44.000 7      -101.812 7
  25652369.081 5  -2085735.54105        33.000 5      4705.798 5
  21713745.769 8   1271571.65408        48.000 8     -1187.492 8
  21219003.006 7  -5796238.02807        47.000 7      3428.679 7
  25287305.919 7   3079620.83907        43.000 7     -2062.502 7
  25080614.093 7  -3825377.70707        46.000 7      4630.229 7
  23315255.259 7  -3609834.89307        46.000 7      1878.169 7
  20239329.460 7  -2892165.05107        46.000 7      1387.321 7
 12 12 12 12 17 24.0000000  0 11G01G03G11G14G17G19G20G22G23G28G32
  20589245.920 8  -3314159.66208        48.000 8      1932.287 8
  23622438.806 7   3488952.19507        45.000 7     -2463.780 7
  20158447.945 7  -2128475.18007        44.000 7      1052.531 7
  23632621.619 7   -593796.87007        44.000 7      -103.540 7
  25651473.117 5  -2090440.77805        33.000 5      4705.114 5
  21713972.098 8   1272759.72408        48.000 8     -1189.090 8
  21218350.926 7  -5799665.72307        47.000 7      3426.822 7
  25287699.317 7   3081683.83407        44.000 7     -2063.332 7
  25079732.752 7  -3830007.63507        45.000 7      4629.197 7
  23314898.280 7  -3611712.03307        46.000 7      1876.174 7
  20239065.350 7  -2893551.98307        46.000 7      1385.983 7
 12 12 12 12 17 25.0000000  0 11G01G03G11G14G17G19G20G22G23G28G32
  20588878.017 8  -3316092.10408        48.000 8      1932.179 8
  23622907.606 7   3491415.63707        45.000 7     -2463.723 7
  20158247.529 7  -2129527.97707        44.000 7      1052.252 7
  23632642.001 7   -593693.62907        44.000 7      -103.219 7
  25650577.450 5  -2095145.72305        32.000 5      4705.505 5
  21714198.410 8   1273948.49108        48.000 8     -1189.167 8
  21217698.637 7  -5803092.70207        47.000 7      3426.666 7
  25288092.697 7   3083747.09307        44.000 7     -2063.156 7
  25078851.970 7  -3834637.37707        45.000 7      4629.767 7
  23314540.935 7  -3613588.31407        46.000 7      1875.630 7
  20238801.713 7  -2894938.03807        46.000 7      1385.709 7
 12 12 12 12 17 26.0000000  0 11G01G03G11G14G17G19G20G22G23G28G32
  20588510.568 8  -3318024.60408        48.000 8      1932.322 8
  23623376.371 7   3493878.91407        45.000 7     -2463.367 7
  20158047.253 7  -2130580.68007        44.000 7      1052.339 7
  23632661.650 7   -593590.15307        44.000 7      -104.018 7
  25649682.114 5  -2099851.06705        32.000 5      4704.179 5
  21714424.303 8   1275137.34808        48.000 8     -1189.333 8
  21217046.819 7  -5806519.55307        47.000 7      3426.469 7
  25288485.083 7   3085810.06207        44.000 7     -2063.075 7
  25077970.926 7  -3839267.53307        45.000 7      4630.327 7
  23314184.112 7  -3615464.30307        45.000 7      1875.800 7
  20238538.005 7  -2896323.80507        46.000 7      1385.435 7
 12 12 12 12 17 27.0000000  0 11G01G03G11G14G17G19G20G22G23G28G32
  20588142.542 8  -3319956.53108        48.000 8      1931.116 8
  23623845.398 7   3496342.67307        45.000 7     -2464.953 7
  20157846.837 7  -2131632.65407        44.000 7      1050.651 7
  23632682.520 7   -593485.74207        45.000 7      -105.527 7
  25648786.848 5  -2104556.03605        32.000 5      4705.638 5
  21714650.876 8   1276326.94808        48.000 8     -1190.821 8
  21216394.757 7  -5809945.65107        47.000 7      3425.475 7
  25288876.980 7   3087873.31907        44.000 7     -2064.023 7
  25077089.725 7  -3843897.48107        45.000 7      4628.783 7
  23313826.715 7  -3617339.38807        45.000 7      1873.794 7
  20238274.402 7  -2897708.66307        46.000 7      1383.584 7
 12 12 12 12 17 28.0000000  0 12G01G03G06G11G14G17G19G20G22G23G28G32
  20587774.954 8  -3321887.21708        48.000 8      1929.719 8
  23624314.408 7   3498807.59907        45.000 7     -2465.484 7
  24848036.753 4   3262475.29934        25.000 4     -2257.418 4
  20157647.154 7  -2132683.25007        44.000 7      1049.608 7
  23632702.972 7   -593379.78507        45.000 7      -107.196 7
  25647891.530 5  -2109260.09905        32.000 5      4703.486 5
  21714877.363 8   1277517.93008        48.000 8     -1192.053 8
  21215742.573 7  -5813370.33807        47.000 7      3423.531 7
  25289269.173 7   3089937.59007        43.000 7     -2064.745 7
  25076209.187 7  -3848526.52107        45.000 7      4627.762 7
  23313470.399 7  -3619212.88607        45.000 7      1872.732 7
  20238010.886 7  -2899091.93507        46.000 7      1382.298 7
 12 12 12 12 17 29.0000000  0 12G01G03G06G11G14G17G19G20G22G23G28G32
  20587407.452 8  -3323818.12508        48.000 8      1930.674 8
  23624783.260 7   3501272.18607        45.000 7     -2465.135 7
  24848464.458 4   3264728.75534        25.000 4     -2258.045 4
  20157446.721 7  -2133733.93607        44.000 7      1050.223 7
  23632723.598 7   -593273.74307        45.000 7      -107.277 7
  25646995.845 5  -2113964.65405        32.000 5      4704.266 5
  21715104.251 8   1278708.84108        48.000 8     -1191.616 8
  21215090.615 7  -5816795.08507        47.000 7      3423.850 7
  25289662.379 7   3092001.34807        44.000 7     -2064.205 7
  25075327.968 7  -3853156.14307        45.000 7      4629.286 7
  23313113.367 7  -3621086.30107        45.000 7      1872.393 7
  20237747.842 7  -2900475.10807        46.000 7      1382.370 7
 12 12 12 12 17 30.0000000  0 12G01G03G06G11G14G17G19G20G22G23G28G32
  20587039.776 8  -3325748.86508        48.000 8      1929.540 8
  23625252.497 7   3503736.84107        45.000 7     -2465.572 7
  24848893.402 4   3266983.76934        25.000 4     -2257.302 4
  20157246.358 7  -2134784.31807        44.000 7      1049.606 7
  23632744.172 7   -593167.20607        45.000 7      -106.820 7
  25646100.492 5  -2118669.29005        32.000 5      4704.392 5
  21715331.051 8   1279900.04608        48.000 8     -1192.438 8
  21214438.902 7  -5820219.49107        46.000 7      3423.300 7
  25290055.881 7   3094064.98407        44.000 7     -2064.710 7
  25074446.366 7  -3857785.96007        45.000 7      4629.046 7
  23312756.632 7  -3622959.20907        45.000 7      1871.812 7
  20237484.692 7  -2901857.78507        46.000 7      1381.558 7
 12 12 12 12 17 31.0000000  0 12G01G03G06G11G14G17G19G20G22G23G28G32
  20586672.379 7  -3327678.97607        47.000 7      1929.643 7
  23625721.454 7   3506202.05207        45.000 7     -2465.234 7
  24849322.049 4   3269237.79434        25.000 4     -2256.208 4
  20157046.465 7  -2135833.93107        44.000 7      1049.472 7
  23632764.972 7   -593059.72007        45.000 7      -107.953 7
  25645205.348 5  -2123373.57505        32.000 5      4704.762 5
  21715558.026 8   1281092.04208        48.000 8     -1192.455 8
  21213787.660 7  -5823643.08407        46.000 7      3423.349 7
  25290447.552 7   3096129.05207        43.000 7     -2064.088 7
  25073565.653 7  -3862415.49507        45.000 7      4629.207 7
  23312399.985 7  -3624831.14607        45.000 7      1871.617 7
  20237221.787 7  -2903239.47107        46.000 7      1380.915 7
 12 12 12 12 17 32.0000000  0 12G01G03G06G11G14G17G19G20G22G23G28G32
  20586305.209 7  -3329609.08307        47.000 7      1930.690 7
  23626190.568 7   3508667.16707        45.000 7     -2464.706 7
  24849748.811 4   3271492.64934        25.000 4     -2257.574 4
  20156847.219 7  -2136883.37707        44.000 7      1050.109 7
  23632785.686 7   -592951.90107        45.000 7      -107.631 7
  25644309.820 5  -2128078.11205        32.000 5      4705.700 5
  21715785.123 8   1282284.20508        48.000 8     -1191.619 8
  21213135.929 7  -5827066.48607        46.000 7      3423.830 7
  25290839.658 7   3098192.86507        43.000 7     -2063.114 7
  25072684.661 7  -3867045.36607        45.000 7      4630.558 7
  23312043.791 7  -3626702.74307        45.000 7      1872.046 7
  20236958.760 7  -2904620.81607        46.000 7      1381.886 7
 12 12 12 12 17 33.0000000  0 12G01G03G06G11G14G17G19G20G22G23G28G32
  20585937.358 7  -3331538.43007        47.000 7      1930.340 7
  23626659.717 7   3511132.92807        45.000 7     -2465.289 7
  24850177.162 4   3273748.10234        25.000 4     -2254.145 4
  20156647.693 7  -2137931.93307        44.000 7      1049.050 7
  23632806.103 7   -592843.02607        45.000 7      -108.195 7
  25643415.060 5  -2132782.20405        32.000 5      4705.098 5
  21716012.203 8   1283477.24908        48.000 8     -1192.808 8
  21212485.053 7  -5830488.97907        46.000 7      3422.838 7
  25291232.811 7   3100257.14907        43.000 7     -2063.620 7
  25071803.722 7  -3871674.85807        45.000 7      4630.258 7
  23311687.545 7  -3628573.28507        45.000 7      1870.633 7
  20236696.728 7  -2906001.08707        46.000 7      1380.575 7
 12 12 12 12 17 34.0000000  0 12G01G03G06G11G14G17G19G20G22G23G28G32
  20585570.537 7  -3333468.03907        47.000 7      1928.420 7
  23627128.884 7   3513598.36107        45.000 7     -2466.879 7
  24850605.408 4   3276002.67334        25.000 4     -2257.629 4
  20156447.801 7  -2138980.61107        44.000 7      1047.303 7
  23632826.694 7   -592734.06507        45.000 7      -110.857 7
  25642519.271 5  -2137486.75805        32.000 5      4702.468 5
  21716238.986 8   1284670.20008        48.000 8     -1194.704 8
  21211833.619 7  -5833911.54007        46.000 7      3420.999 7
  25291626.209 7   3102320.91707        44.000 7     -2064.639 7
  25070922.748 7  -3876304.95207        45.000 7      4628.675 7
  23311331.665 7  -3630443.72607        45.000 7      1868.282 7
  20236433.421 7  -2907381.24807        46.000 7      1378.012 7
 12 12 12 12 17 35.0000000  0 11G01G03G11G14G17G19G20G22G23G28G32
  20585203.402 7  -3335397.15407        47.000 7      1929.253 7
  23627598.085 7   3516064.20607        45.000 7     -2465.209 7
  20156247.961 7  -2140028.61507        44.000 7      1048.003 7
  23632847.180 7   -592624.28207        45.000 7      -109.727 7
  25641623.656 5  -2142191.08105        32.000 5      4703.384 5
  21716465.717 8   1285863.80708        48.000 8     -1193.352 8
  21211181.993 7  -5837333.42007        46.000 7      3422.101 7
  25292019.397 7   3104384.91507        44.000 7     -2063.163 7
  25070041.564 7  -3880934.89507        45.000 7      4630.470 7
  23310975.838 7  -3632313.33707        45.000 7      1869.916 7
  20236170.953 7  -2908760.58407        46.000 7      1378.910 7
 12 12 12 12 17 36.0000000  0 11G01G03G11G14G17G19G20G22G23G28G32
  20584835.988 7  -3337326.38707        47.000 7      1928.913 7
  23628067.461 7   3518529.81907        45.000 7     -2466.451 7
  20156048.243 7  -2141076.61307        44.000 7      1046.860 7
  23632868.086 7   -592514.30107        45.000 7      -111.135 7
  25640727.622 5  -2146895.83205        32.000 5      4704.403 5
  21716692.866 8   1287057.44008        48.000 8     -1194.536 8
  21210530.803 7  -5840755.25007        46.000 7      3420.918 7
  25292411.800 7   3106448.56807        43.000 7     -2064.562 7
  25069160.241 7  -3885565.32207        45.000 7      4629.907 7
  23310619.801 7  -3634182.72807        45.000 7      1868.012 7
  20235908.763 7  -2910139.69507        46.000 7      1378.133 7
 12 12 12 12 17 37.0000000  0 11G01G03G11G14G17G19G20G22G23G28G32
  20584468.556 7  -3339254.64607        47.000 7      1927.881 7
  23628536.505 7   3520996.32907        45.000 7     -2466.874 7
  20155849.171 7  -2142123.48807        44.000 7      1046.970 7
  23632888.729 7   -592403.01507        45.000 7      -111.719 7
  25639832.548 5  -2151599.88005        32.000 5      4703.413 5
  21716920.679 8   1288252.18308        48.000 8     -1195.559 8
  21209879.945 7  -5844175.92207        46.000 7      3420.134 7
  25292804.640 7   3108512.91307        43.000 7     -2064.688 7
  25068278.935 7  -3890195.12007        45.000 7      4629.532 7
  23310264.340 7  -3636050.83307        45.000 7      1868.164 7
  20235646.748 7  -2911517.47707        46.000 7      1377.414 7
 12 12 12 12 17 38.0000000  0 11G01G03G11G14G17G19G20G22G23G28G32
  20584102.049 7  -3341183.00907        47.000 7      1928.432 7
  23629006.405 7   3523462.64107        45.000 7     -2466.048 7
  20155650.204 7  -2143170.32107        44.000 7      1047.342 7
  23632910.019 7   -592291.52807        45.000 7      -111.264 7
  25638937.212 5  -2156304.27605        32.000 5      4704.708 5
  21717147.898 8   1289446.99408        48.000 8     -1194.608 8
  21209228.895 7  -5847596.52507        46.000 7      3420.660 7
  25293197.078 7   3110576.91207        44.000 7     -2062.854 7
  25067397.856 7  -3894825.37307        45.000 7      4630.607 7
  23309908.443 7  -3637918.69407        45.000 7      1868.125 7
  20235384.594 7  -2912895.05007        46.000 7      1377.692 7
 12 12 12 12 17 39.0000000  0 12G01G03G06G11G14G17G19G20G22G23G28G32
  20583734.949 7  -3343111.35407        47.000 7      1927.910 7
  23629475.920 7   3525928.86007        45.000 7     -2466.834 7
  24852755.728 4   3287282.09834        25.000 4     -2256.789 4
  20155451.149 7  -2144216.99707        44.000 7      1046.264 7
  23632931.221 7   -592179.72607        45.000 7      -112.653 7
  25638041.510 5  -2161008.95305        32.000 5      4703.355 5
  21717374.943 8   1290641.95508        48.000 8     -1195.723 8
  21208578.037 7  -5851016.93907        46.000 7      3419.894 7
  25293590.161 7   3112640.64607        44.000 7     -2064.451 7
  25066517.004 7  -3899455.98307        46.000 7      4630.202 7
  23309553.244 7  -3639786.23107        45.000 7      1866.777 7
  20235122.823 7  -2914272.27907        46.000 7      1376.244 7
 12 12 12 12 17 40.0000000  0 12G01G03G06G11G14G17G19G20G22G23G28G32
  20583368.268 7  -3345039.07107        47.000 7      1927.204 7
  23629944.982 7   3528395.63607        45.000 7     -2467.417 7
  24853184.777 4   3289538.26334        25.000 4     -2256.731 4
  20155252.042 7  -2145262.88307        44.000 7      1045.756 7
  23632952.562 7   -592066.91807        45.000 7      -113.060 7
  25637145.843 5  -2165713.22405        32.000 5      4703.179 5
  21717602.633 8   1291837.71208        48.000 8     -1195.954 8
  21207927.370 7  -5854436.52307        46.000 7      3419.178 7
  25293982.652 7   3114704.77507        44.000 7     -2064.414 7
  25065636.152 7  -3904086.29107        45.000 7      4629.808 7
  23309198.341 7  -3641652.77707        45.000 7      1866.094 7
  20234860.529 7  -2915648.51807        46.000 7      1375.562 7
 12 12 12 12 17 41.0000000  0 12G01G03G06G11G14G17G19G20G22G23G28G32
  20583001.551 7  -3346966.35407        47.000 7      1927.021 7
  23630414.498 7   3530862.74107        45.000 7     -2467.284 7
  24853614.139 4   3291794.60534        25.000 4     -2259.128 4
  20155053.249 7  -2146308.21407        44.000 7      1045.146 7
  23632974.619 7   -591953.40407        45.000 7      -113.712 7
  25636250.821 5  -2170417.34105        31.000 5      4704.308 5
  21717830.149 8   1293034.01408        48.000 8     -1196.959 8
  21207276.111 7  -5857855.53507        46.000 7      3418.651 7
  25294375.212 7   3116769.05807        43.000 7     -2064.587 7
  25064754.811 7  -3908716.53907        45.000 7      4630.204 7
  23308843.578 7  -3643518.57207        45.000 7      1865.401 7
  20234599.055 7  -2917023.99607        46.000 7      1375.084 7
 12 12 12 12 17 42.0000000  0 12G01G03G06G11G14G17G19G20G22G23G28G32
  20582635.219 7  -3348893.29507        47.000 7      1926.897 7
  23630884.223 7   3533330.10307        45.000 7     -2467.048 7
  24854042.996 4   3294050.01334        25.000 4     -2257.510 4
  20154855.207 7  -2147353.04307        44.000 7      1045.293 7
  23632996.694 7   -591839.21407        45.000 7      -114.419 7
  25635355.311 5  -2175121.41305        31.000 5      4704.432 5
  21718058.154 8   1294230.82308        48.000 8     -1196.767 8
  21206625.130 7  -5861274.01607        46.000 7      3418.606 7
  25294768.400 7   3118833.44007        43.000 7     -2064.539 7
  25063873.366 7  -3913346.78407        45.000 7      4630.596 7
  23308488.623 7  -3645383.68507        45.000 7      1865.307 7
  20234337.266 7  -2918398.78607        46.000 7      1374.603 7
 12 12 12 12 17 43.0000000  0 12G01G03G06G11G14G17G19G20G22G23G28G32
  20582268.398 7  -3350820.02407        47.000 7      1927.082 7
  23631353.738 7   3535797.58007        46.000 7     -2466.892 7
  24854472.184 4   3296306.00434        25.000 4     -2255.821 4
  20154655.751 7  -2148397.53807        44.000 7      1045.377 7
  23633018.646 7   -591724.48907        45.000 7      -114.145 7
  25634459.975 5  -2179825.54905        31.000 5      4704.951 5
  21718286.193 8   1295427.99408        48.000 8     -1196.832 8
  21205974.045 7  -5864692.11207        46.000 7      3418.416 7
  25295161.274 7   3120897.77307        43.000 7     -2063.648 7
  25062992.339 7  -3917977.17407        45.000 7      4630.873 7
  23308134.000 7  -3647248.27307        45.000 7      1865.293 7
  20234076.787 7  -2919773.01507        46.000 7      1374.721 7
 12 12 12 12 17 44.0000000  0 12G01G03G06G11G14G17G19G20G22G23G28G32
  20581901.943 7  -3352746.60207        47.000 7      1927.478 7
  23631823.184 7   3538265.09507        45.000 7     -2466.764 7
  24854903.047 4   3298562.99634        25.000 4     -2260.131 4
  20154457.027 7  -2149441.73607        44.000 7      1044.802 7
  23633040.703 7   -591609.31207        45.000 7      -115.247 7
  25633565.110 5  -2184529.84505        31.000 5      4705.543 5
  21718514.145 8   1296625.44708        48.000 8     -1196.848 8
  21205323.484 7  -5868109.89807        46.000 7      3418.200 7
  25295553.817 7   3122961.98107        43.000 7     -2064.192 7
  25062111.313 7  -3922607.78107        45.000 7      4631.316 7
  23307779.568 7  -3649112.36407        45.000 7      1864.343 7
  20233815.470 7  -2921146.76107        46.000 7      1374.571 7
 12 12 12 12 17 45.0000000  0 12G01G03G06G11G14G17G19G20G22G23G28G32
  20581535.367 8  -3354672.70308        48.000 8      1926.654 8
  23632293.171 7   3540733.02007        45.000 7     -2466.907 7
  24855332.602 4   3300820.68734        25.000 4     -2260.777 4
  20154258.252 7  -2150485.28807        44.000 7      1044.492 7
  23633063.127 7   -591493.30507        45.000 7      -114.754 7
  25632669.216 5  -2189233.79005        31.000 5      4706.513 5
  21718742.045 8   1297823.55508        48.000 8     -1197.187 8
  21204673.114 7  -5871527.01207        46.000 7      3418.056 7
  25295947.965 7   3125026.41907        43.000 7     -2063.245 7
  25061229.780 7  -3927238.23907        45.000 7      4631.607 7
  23307425.224 7  -3650975.63107        45.000 7      1863.923 7
  20233554.205 7  -2922519.70107        46.000 7      1373.945 7
 12 12 12 12 17 46.0000000  0 12G01G03G06G11G14G17G19G20G22G23G28G32
  20581169.244 8  -3356599.07308        48.000 8      1925.379 8
  23632762.477 7   3543200.56607        46.000 7     -2468.766 7
  24855763.832 4   3303077.55934        25.000 4     -2254.493 4
  20154059.965 7  -2151528.99307        44.000 7      1042.332 7
  23633085.795 7   -591377.27707        45.000 7      -117.352 7
  25631773.671 5  -2193938.37105        31.000 5      4703.454 5
  21718970.329 8   1299021.52808        48.000 8     -1198.900 8
  21204022.884 7  -5874944.22207        46.000 7      3415.923 7
  25296340.350 7   3127090.34107        43.000 7     -2064.738 7
  25060348.823 7  -3931869.33607        45.000 7      4630.283 7
  23307069.868 7  -3652838.85307        45.000 7      1861.423 7
  20233292.836 7  -2923892.57107        46.000 7      1371.792 7
 12 12 12 12 17 47.0000000  0 12G01G03G06G11G14G17G19G20G22G23G28G32
  20580802.667 8  -3358524.78908        48.000 8      1926.756 8
  23633232.150 7   3545668.69407        46.000 7     -2467.292 7
  24856192.147 4   3305332.72834        25.000 4     -2253.078 4
  20153861.155 7  -2152571.88507        44.000 7      1043.558 7
  23633107.747 7   -591260.25507        45.000 7      -116.942 7
  25630878.318 5  -2198642.55705        30.000 5      4703.349 5
  21719198.299 8   1300220.31108        48.000 8     -1198.020 8
  21203372.602 7  -5878360.59507        46.000 7      3417.683 7
  25296732.788 7   3129154.64007        43.000 7     -2062.848 7
  25059467.605 7  -3936500.12107        45.000 7      4631.649 7
  23306715.733 7  -3654701.08807        45.000 7      1862.878 7
  20233031.658 7  -2925264.44907        46.000 7      1372.663 7
 12 12 12 12 17 48.0000000  0 12G01G03G06G11G14G17G19G20G22G23G28G32
  20580436.387 8  -3360450.26408        48.000 8      1924.797 8
  23633701.962 7   3548136.95007        46.000 7     -2468.679 7
  24856623.970 4   3307589.77934        26.000 4     -2260.233 4
  20153662.816 7  -2153614.39307        44.000 7      1042.020 7
  23633129.839 7   -591142.68207        45.000 7      -118.409 7
  25629982.807 5  -2203346.75505        30.000 5      4703.300 5
  21719427.071 8   1301419.47808        48.000 8     -1199.630 8
  21202722.459 7  -5881776.57007        46.000 7      3415.380 7
  25297125.732 7   3131218.92307        43.000 7     -2065.117 7
  25058586.474 7  -3941131.02907        45.000 7      4630.644 7
  23306361.424 7  -3656562.74007        45.000 7      1861.189 7
  20232770.795 7  -2926635.75607        46.000 7      1370.445 7
 12 12 12 12 17 49.0000000  0 11G01G03G11G14G17G19G20G22G23G28G32
  20580070.019 7  -3362375.20107        47.000 7      1924.765 7
  23634171.687 7   3550605.65207        45.000 7     -2469.040 7
  20153464.564 7  -2154656.24107        44.000 7      1041.220 7
  23633151.425 7   -591024.23807        45.000 7      -119.125 7
  25629087.053 5  -2208050.67205        30.000 5      4704.699 5
  21719654.709 8   1302619.32208        48.000 8     -1200.172 8
  21202072.421 7  -5885191.83407        46.000 7      3415.112 7
  25297519.025 7   3133283.46507        43.000 7     -2065.408 7
  25057705.377 7  -3945761.74507        45.000 7      4629.992 7
  23306007.394 7  -3658423.55007        45.000 7      1859.967 7
  20232510.420 7  -2928006.17807        46.000 7      1369.733 7
 12 12 12 12 17 50.0000000  0 11G01G03G11G14G17G19G20G22G23G28G32
  20579703.408 7  -3364299.71407        47.000 7      1924.989 7
  23634641.307 7   3553074.69707        45.000 7     -2468.277 7
  20153266.626 7  -2155697.48507        44.000 7      1041.378 7
  23633174.023 7   -590905.04607        45.000 7      -119.184 7
  25628192.049 5  -2212754.47105        30.000 5      4703.938 5
  21719883.115 8   1303819.75508        48.000 8     -1200.334 8
  21201422.994 7  -5888606.48207        45.000 7      3414.763 7
  25297911.777 7   3135348.21507        44.000 7     -2063.811 7
  25056824.159 7  -3950392.37607        45.000 7      4630.943 7
  23305653.399 7  -3660283.57707        45.000 7      1860.056 7
  20232249.749 7  -2929375.81007        46.000 7      1369.529 7
 12 12 12 12 17 51.0000000  0 11G01G03G11G14G17G19G20G22G23G28G32
  20579337.285 7  -3366224.21607        47.000 7      1924.356 7
  23635111.032 7   3555543.64407        45.000 7     -2469.082 7
  20153068.898 7  -2156738.60207        44.000 7      1040.982 7
  23633196.586 7   -590785.51907        45.000 7      -119.907 7
  25627296.259 5  -2217458.54705        30.000 5      4703.124 5
  21720111.591 8   1305020.33908        48.000 8     -1200.876 8
  21200773.340 7  -5892020.94607        45.000 7      3414.318 7
  25298304.739 7   3137412.69307        44.000 7     -2064.402 7
  25055942.504 7  -3955023.36907        45.000 7      4631.110 7
  23305299.107 7  -3662143.25707        45.000 7      1859.481 7
  20231989.078 7  -2930745.10607        46.000 7      1369.190 7
 12 12 12 12 17 52.0000000  0 11G01G03G11G14G17G19G20G22G23G28G32
  20578971.127 7  -3368149.12507        47.000 7      1923.917 7
  23635580.617 7   3558012.10807        45.000 7     -2469.128 7
  20152870.960 7  -2157779.96507        44.000 7      1040.220 7
  23633219.376 7   -590666.07407        45.000 7      -120.526 7
  25626400.522 4  -2222162.74734        29.000 4      4703.293 4
  21720340.119 8   1306220.66408        48.000 8     -1201.412 8
  21200123.598 7  -5895435.64107        46.000 7      3413.997 7
  25298697.404 7   3139476.51307        44.000 7     -2064.874 7
  25055061.006 7  -3959655.11307        45.000 7      4631.146 7
  23304944.903 7  -3664003.02907        45.000 7      1858.474 7
  20231728.075 7  -2932114.47607        46.000 7      1368.143 7
 12 12 12 12 17 53.0000000  0 12G01G03G06G11G14G17G19G20G22G23G28G32
  20578605.004 7  -3370073.54207        47.000 7      1923.433 7
  23636050.028 7   3560480.93907        45.000 7     -2469.423 7
  24858768.166 4   3318877.74434        26.000 4     -2256.835 4
  20152673.092 7  -2158820.70407        44.000 7      1040.224 7
  23633241.869 7   -590545.83307        45.000 7      -120.803 7
  25625504.942 4  -2226867.26424        29.000 4      4705.226 4
  21720569.135 8   1307421.63608        48.000 8     -1201.387 8
  21199473.787 7  -5898849.66507        46.000 7      3413.209 7
  25299090.051 7   3141540.56407        43.000 7     -2064.541 7
  25054179.857 7  -3964286.72407        45.000 7      4631.095 7
  23304590.943 7  -3665861.97007        44.000 7      1857.792 7
  20231467.840 7  -2933483.01907        46.000 7      1368.041 7
 12 12 12 12 17 54.0000000  0 11G01G03G11G14G17G19G20G22G23G28G32
  20578238.794 7  -3371997.83107        47.000 7      1924.979 7
  23636519.840 7   3562949.81607        45.000 7     -2468.120 7
  20152474.805 7  -2159861.17107        44.000 7      1040.838 7
  23633264.869 7   -590425.15207        45.000 7      -121.054 7
  25624609.920 4  -2231571.93034        29.000 4      4704.904 4
  21720797.628 8   1308622.87208        49.000 8     -1201.093 8
  21198824.342 7  -5902263.38307        46.000 7      3413.871 7
  25299483.204 7   3143604.46507        44.000 7     -2063.385 7
  25053298.499 7  -3968918.56107        45.000 7      4632.361 7
  23304236.249 7  -3667720.44607        44.000 7      1858.861 7
  20231207.186 7  -2934851.10107        46.000 7      1368.389 7
 12 12 12 12 17 55.0000000  0 11G01G03G11G14G17G19G20G22G23G28G32
  20577872.775 7  -3373922.28107        47.000 7      1923.065 7
  23636989.705 7   3565418.43907        45.000 7     -2470.093 7
  20152276.675 7  -2160901.66707        44.000 7      1038.908 7
  23633287.816 7   -590304.27607        45.000 7      -122.161 7
  25623714.462 4  -2236276.98324        29.000 4      4704.614 4
  21721026.226 8   1309824.09708        49.000 8     -1202.808 8
  21198174.252 7  -5905677.08307        46.000 7      3412.550 7
  25299876.812 7   3145667.95307        44.000 7     -2064.281 7
  25052416.949 7  -3973550.89907        45.000 7      4631.329 7
  23303882.760 7  -3669578.75707        44.000 7      1856.591 7
  20230946.357 7  -2936218.99407        46.000 7      1366.453 7
 12 12 12 12 17 56.0000000  0 11G01G03G11G14G17G19G20G22G23G28G32
  20577506.460 7  -3375845.15207        47.000 7      1922.014 7
  23637459.378 7   3567888.55407        45.000 7     -2470.760 7
  20152079.086 7  -2161940.42407        44.000 7      1038.038 7
  23633310.798 7   -590181.52407        45.000 7      -123.516 7
  25622818.603 4  -2240980.72724        29.000 4      4702.665 4
  21721255.121 8   1311027.06108        49.000 8     -1203.719 8
  21197524.755 7  -5909089.03007        45.000 7      3411.354 7
  25300270.035 7   3147732.76707        44.000 7     -2065.190 7
  25051535.696 7  -3978182.01407        45.000 7      4630.506 7
  23303529.568 7  -3671435.14007        44.000 7      1855.463 7
  20230686.245 7  -2937584.97007        46.000 7      1365.091 7
 12 12 12 12 17 57.0000000  0 11G01G03G11G14G17G19G20G22G23G28G32
  20577140.913 7  -3377767.96007        47.000 7      1923.162 7
  23637929.836 7   3570358.62407        45.000 7     -2469.644 7
  20151881.515 7  -2162978.97507        44.000 7      1039.377 7
  23633333.623 7   -590058.39007        45.000 7      -123.180 7
  25621923.110 4  -2245684.72924        29.000 4      4707.434 4
  21721484.103 8   1312230.23708        49.000 8     -1202.714 8
  21196876.043 7  -5912500.74307        46.000 7      3412.457 7
  25300662.351 7   3149797.38807        43.000 7     -2063.757 7
  25050654.337 7  -3982813.41707        45.000 7      4631.969 7
  23303175.974 7  -3673291.14907        44.000 7      1856.078 7
  20230426.446 7  -2938950.53707        46.000 7      1365.923 7
 12 12 12 12 17 58.0000000  0 11G01G03G11G14G17G19G20G22G23G28G32
  20576774.773 8  -3379690.84608        48.000 8      1922.158 8
  23638400.101 7   3572828.52907        45.000 7     -2470.378 7
  20151684.362 7  -2164017.46907        44.000 7      1037.712 7
  23633357.268 7   -589934.99607        45.000 7      -124.061 7
  25621027.932 4  -2250389.01824        29.000 4      4703.668 4
  21721713.119 8   1313433.46708        49.000 8     -1203.744 8
  21196227.052 7  -5915912.35507        46.000 7      3411.377 7
  25301055.068 7   3151861.65907        43.000 7     -2064.773 7
  25049773.014 7  -3987445.25307        45.000 7      4631.425 7
  23302822.764 7  -3675146.89807        44.000 7      1855.150 7
  20230166.682 7  -2940315.87007        46.000 7      1364.674 7
 12 12 12 12 17 59.0000000  0 11G01G03G11G14G17G19G20G22G23G28G32
  20576409.435 8  -3381613.73408        48.000 8      1923.056 8
  23638869.600 7   3575298.34507        45.000 7     -2468.730 7
  20151486.808 7  -2165055.80607        44.000 7      1038.568 7
  23633380.354 7   -589811.27007        45.000 7      -123.838 7
  25620132.631 4  -2255093.56624        29.000 4      4705.066 4
  21721942.467 8   1314636.86108        49.000 8     -1203.228 8
  21195578.305 7  -5919323.77907        46.000 7      3411.673 7
  25301447.418 7   3153925.68107        43.000 7     -2063.257 7
  25048891.447 7  -3992077.43707        45.000 7      4632.638 7
  23302469.729 7  -3677002.30007        44.000 7      1855.461 7
  20229906.534 7  -2941680.83907        46.000 7      1364.963 7
 12 12 12 12 18  0.0000000  0 11G01G03G11G14G17G19G20G22G23G28G32
  20576043.364 8  -3383536.31308        48.000 8      1920.900 8
  23639339.743 7   3577768.35207        45.000 7     -2471.763 7
  20151289.220 7  -2166093.70607        45.000 7      1036.406 7
  23633404.802 7   -589686.94807        45.000 7      -125.631 7
  25619237.347 4  -2259798.17034        29.000 4      4701.052 4
  21722171.153 8   1315840.68908        49.000 8     -1205.296 8
  21194929.628 7  -5922734.72507        46.000 7      3409.335 7
  25301840.293 7   3155989.72507        43.000 7     -2065.598 7
  25048010.385 7  -3996709.67707        45.000 7      4631.127 7
  23302116.048 7  -3678857.07407        44.000 7      1852.789 7
  20229646.927 7  -2943045.18507        46.000 7      1362.288 7
 12 12 12 12 18  1.0000000  0 11G01G03G11G14G17G19G20G22G23G28G32
  20575678.271 8  -3385457.39308        48.000 8      1921.480 8
  23639810.044 7   3580239.78507        45.000 7     -2470.812 7
  20151092.207 7  -2167129.95307        45.000 7      1036.341 7
  23633428.622 7   -589560.77607        45.000 7      -125.621 7
  25618341.837 4  -2264501.44524        29.000 4      4701.394 4
  21722400.675 8   1317046.18708        49.000 8     -1205.392 8
  21194280.951 7  -5926143.99907        46.000 7      3409.163 7
  25302232.643 7   3158055.03507        43.000 7     -2065.080 7
  25047128.643 7  -4001340.73907        46.000 7      4631.563 7
  23301763.554 7  -3680710.00107        44.000 7      1853.326 7
  20229387.634 7  -2944407.67507        46.000 7      1362.844 7
 12 12 12 12 18  2.0000000  0 11G01G03G11G14G17G19G20G22G23G28G32
  20575312.724 8  -3387378.68208        48.000 8      1921.723 8
  23640280.258 7   3582710.89207        45.000 7     -2470.979 7
  20150895.351 7  -2168166.27507        45.000 7      1036.563 7
  23633452.685 7   -589434.52207        45.000 7      -126.218 7
  25617446.606 4  -2269205.20234        29.000 4      4702.230 4
  21722629.989 8   1318251.60308        49.000 8     -1205.661 8
  21193632.536 7  -5929553.28707        46.000 7      3409.037 7
  25302625.169 7   3160119.88507        42.000 7     -2064.409 7
  25046247.250 7  -4005972.38407        46.000 7      4631.762 7
  23301410.675 7  -3682562.81907        44.000 7      1853.011 7
  20229128.341 7  -2945770.04407        46.000 7      1362.327 7
 12 12 12 12 18  3.0000000  0 11G01G03G11G14G17G19G20G22G23G28G32
  20574947.316 8  -3389300.02408        48.000 8      1921.720 8
  23640750.332 7   3585181.86807        45.000 7     -2470.270 7
  20150698.512 7  -2169202.49907        45.000 7      1036.571 7
  23633477.098 7   -589307.98207        45.000 7      -126.243 7
  25616552.055 5  -2273909.34835        30.000 5      4704.519 5
  21722859.494 8   1319457.12208        49.000 8     -1205.611 8
  21192983.807 7  -5932962.45707        46.000 7      3409.469 7
  25303017.362 7   3162184.39607        43.000 7     -2064.116 7
  25045365.805 7  -4010604.42407        46.000 7      4632.264 7
  23301058.460 7  -3684415.35307        44.000 7      1853.364 7
  20228868.996 7  -2947132.13207        46.000 7      1362.582 7
 12 12 12 12 18  4.0000000  0 11G01G03G11G14G17G19G20G22G23G28G32
  20574581.629 8  -3391221.68608        48.000 8      1921.393 8
  23641220.790 7   3587652.41507        45.000 7     -2470.981 7
  20150501.238 7  -2170238.89607        45.000 7      1035.727 7
  23633501.825 7   -589181.45507        45.000 7      -127.089 7
  25615656.720 5  -2278614.04325        30.000 5      4703.562 5
  21723088.423 8   1320662.45908        49.000 8     -1205.780 8
  21192334.763 7  -5936371.78807        46.000 7      3408.609 7
  25303410.027 7   3164248.32607        42.000 7     -2064.262 7
  25044484.115 7  -4015237.14607        46.000 7      4632.503 7
  23300706.001 7  -3686267.88807        44.000 7      1852.058 7
  20228609.930 7  -2948494.20507        46.000 7      1361.359 7
 12 12 12 12 18  5.0000000  0 11G01G03G11G14G17G19G20G22G23G28G32
  20574216.518 8  -3393142.33508        48.000 8      1920.469 8
  23641691.527 7   3590123.89407        45.000 7     -2471.810 7
  20150304.155 7  -2171274.13907        45.000 7      1034.873 7
  23633526.605 7   -589053.58307        45.000 7      -128.365 7
  25614761.401 5  -2283317.98425        30.000 5      4703.488 5
  21723318.103 8   1321868.96508        49.000 8     -1206.748 8
  21191686.680 7  -5939779.90507        46.000 7      3407.919 7
  25303802.919 7   3166313.01607        42.000 7     -2064.750 7
  25043602.739 7  -4019869.18707        46.000 7      4631.925 7
  23300353.628 7  -3688119.04607        44.000 7      1850.517 7
  20228350.830 7  -2949854.91307        46.000 7      1360.244 7
 12 12 12 12 18  6.0000000  0 11G01G03G11G14G17G19G20G22G23G28G32
  20573851.303 8  -3395062.05008        48.000 8      1919.736 8
  23642161.670 7   3592596.19307        45.000 7     -2472.687 7
  20150107.177 7  -2172308.31807        45.000 7      1033.309 7
  23633551.192 7   -588924.46207        45.000 7      -129.510 7
  25613866.205 5  -2288021.21235        30.000 5      4708.454 5
  21723547.940 8   1323076.54408        48.000 8     -1208.173 8
  21191038.142 7  -5943186.93907        46.000 7      3406.155 7
  25304195.932 7   3168378.39007        42.000 7     -2065.873 7
  25042721.119 7  -4024500.67007        46.000 7      4631.185 7
  23300002.059 7  -3689968.99207        44.000 7      1849.220 7
  20228092.531 7  -2951214.37007        46.000 7      1358.583 7
 12 12 12 12 18  7.0000000  0 11G01G03G11G14G17G19G20G22G23G28G32
  20573486.052 8  -3396982.00108        48.000 8      1920.276 8
  23642631.727 7   3595068.17407        45.000 7     -2471.373 7
  20149910.269 7  -2173342.56007        45.000 7      1034.694 7
  23633575.744 7   -588795.24807        45.000 7      -128.501 7
  25612971.480 5  -2292725.04425        30.000 5      4699.419 5
  21723777.358 8   1324284.04008        48.000 8     -1207.132 8
  21190389.605 7  -5946594.01307        46.000 7      3407.712 7
  25304588.597 7   3170443.26207        42.000 7     -2064.181 7
  25041839.936 7  -4029132.72407        46.000 7      4632.739 7
  23299650.472 7  -3691818.79607        44.000 7      1849.885 7
  20227834.198 7  -2952573.70907        46.000 7      1360.005 7
 12 12 12 12 18  8.0000000  0 11G01G03G11G14G17G19G20G22G23G28G32
  20573120.802 8  -3398901.74808        48.000 8      1918.838 8
  23643102.359 7   3597540.26407        45.000 7     -2473.134 7
  20149713.692 7  -2174376.47407        45.000 7      1033.043 7
  23633600.053 7   -588665.51907        45.000 7      -130.719 7
  25612076.424 5  -2297428.93235        30.000 5      4702.342 5
  21724007.421 8   1325491.89608        48.000 8     -1208.948 8
  21189741.137 7  -5950000.71007        46.000 7      3405.731 7
  25304981.855 7   3172508.07107        42.000 7     -2065.510 7
  25040958.438 7  -4033764.92307        46.000 7      4631.559 7
  23299298.449 7  -3693668.07907        44.000 7      1848.479 7
  20227575.534 7  -2953932.51207        46.000 7      1358.001 7
 12 12 12 12 18  9.0000000  0 11G01G03G11G14G17G19G20G22G23G28G32
  20572755.830 8  -3400820.77308        48.000 8      1918.902 8
  23643573.079 7   3600012.97707        45.000 7     -2472.758 7
  20149517.098 7  -2175409.52607        45.000 7      1032.665 7
  23633625.478 7   -588534.75507        45.000 7      -130.598 7
  25611181.507 5  -2302132.26335        30.000 5      4701.923 5
  21724237.189 8   1326700.60908        48.000 8     -1208.817 8
  21189093.141 7  -5953406.49407        46.000 7      3405.807 7
  25305374.503 7   3174573.35207        42.000 7     -2064.453 7
  25040076.731 7  -4038396.75807        46.000 7      4632.157 7
  23298946.757 7  -3695516.29807        44.000 7      1848.125 7
  20227316.834 7  -2955290.24607        46.000 7      1357.912 7
