     3.02           OBSERVATION DATA    M (MIXED)           RINEX VERSION / TYPE
NetR9 4.80          Receiver Operator   15-JUN-13 00:00:00  PGM / RUN BY / DATE
GMSD                                                        MARKER NAME
21749S002                                                   MARKER NUMBER
GEODETIC                                                    MARKER TYPE
GMSD                JAXA                                    OBSERVER / AGENCY
5049K72188          TRIMBLE NETR9       4.80                REC # / TYPE / VERS
4938353448          TRM59800.00     SCIS                    ANT # / TYPE
 -3607665.3832  4147868.2600  3223717.2637                  APPROX POSITION XYZ
        0.0000        0.0000        0.0000                  ANTENNA: DELTA H/E/N
G   12 C1C L1C S1C C2W L2W S2W C2X L2X S2X C5X L5X S5X      SYS / # / OBS TYPES
R   12 C1C L1C S1C C1P L1P S1P C2C L2C S2C C2P L2P S2P      SYS / # / OBS TYPES
E   12 C1X L1X S1X C5X L5X S5X C7X L7X S7X C8X L8X S8X      SYS / # / OBS TYPES
J   15 C1C L1C S1C C1X L1X S1X C2X L2X S2X C5X L5X S5X C6X  SYS / # / OBS TYPES
       L6X S6X                                              SYS / # / OBS TYPES
C    9 C2I L2I S2I C7I L7I S7I C6I L6I S6I                  SYS / # / OBS TYPES
    30.000                                                  INTERVAL
  2013     6    15     4     0    0.0000000     GPS         TIME OF FIRST OBS
G L2X -0.25000                                              SYS / PHASE SHIFT
R L1P  0.25000                                              SYS / PHASE SHIFT
R L2C -0.25000                                              SYS / PHASE SHIFT
J L2X -0.25000                                              SYS / PHASE SHIFT
GIOVE-A if present is mapped to satellite ID 51             COMMENT
GIOVE-B if present is mapped to satellite ID 52             COMMENT
DBHZ                                                        SIGNAL STRENGTH UNIT
                                                            END OF HEADER
> 2013  6 15  4  0  0.0000000  0 32
R21  22585468.500 7 120859940.538 7        44.300    22585467.063 7 120859665.547 7        43.000    22585475.984 6  94001875.227 6        36.200    22585476.613 5  94001883.223 5        35.600
R08  21665357.516 8 116017235.257 8        49.500    21665356.520 7 116017145.267 7        47.500    21665363.535 7  90235558.930 7        44.600    21665363.629 7  90235550.937 7        44.400
G21  25112295.359 5 131966023.234 5        33.900    25112311.836 2 102830710.57242        13.900
R09  21798921.930 8 116404797.882 8        48.800    21798920.965 7 116405040.889 7        47.300    21798927.543 6  90537270.161 6        41.500    21798928.016 6  90537266.165 6        41.100
G16  21770214.141 8 114403352.013 8        49.200    21770223.160 6  89145537.95846        36.400
G31  20898690.969 8 109823617.733 8        52.000    20898699.059 7  85576759.12647        43.800    20898699.066 8  85576761.119 8        49.500
G25  25027628.094 5 131521070.909 5        33.600    25027643.137 2 102484003.45142        16.900    25027644.031 6 102484003.454 6        36.400    25027645.512 6  98213830.219 6        40.600
G03  24851136.570 6 130593620.033 6        38.600    24851153.461 3 101761351.17743        19.300
G32  24209932.031 6 127224039.721 6        40.800    24209944.496 3  99135676.39943        23.800
G20  24900453.680 6 130852749.611 6        37.200    24900466.586 3 101963227.43543        18.600
R20  20303062.977 7 108569727.248 7        46.000    20303061.938 7 108569677.260 7        45.100    20303070.695 7  84443175.934 7        47.900    20303070.098 7  84443170.937 7        47.100
G14  21969332.820 7 115449587.466 7        45.800    21969342.715 5  89960815.51045        33.600
R07  23372224.492 7 125113341.790 7        42.800    23372224.273 6 125113301.798 6        41.300    23372236.758 6  97310354.786 6        39.400    23372237.129 6  97310348.784 6        38.200
G29  22362843.281 7 117517589.360 7        46.300    22362853.098 5  91572222.32045        35.800    22362853.008 7  91572216.311 7        43.700
R10  20618214.922 8 109906669.491 8        52.300    20618213.367 8 109906734.491 8        51.000    20618223.250 6  85483089.414 6        41.500    20618222.695 6  85483081.418 6        41.400
G23  25044043.844 6 131607353.684 6        39.200    25044054.121 3 102551220.08543        20.100
R11  22941722.188 7 122593546.869 7        43.400    22941721.371 7 122593598.863 7        42.300    22941731.094 6  95350677.306 6        36.000    22941730.445 5  95350673.314 5        35.100
R19  21329606.367 8 114098979.382 8        49.100    21329604.969 7 114099071.390 7        47.900    21329609.809 7  88743751.199 7        44.300    21329610.832 7  88743749.204 7        43.500
R01  22922008.492 7 122531286.374 7        44.500    22922007.117 7 122531279.401 7        43.000    22922015.992 6  95302131.379 6        37.000    22922017.004 5  95302120.398 5        35.900
G06  22833583.055 7 119991366.984 7        43.800    22833594.934 4  93499872.17444        28.700
J01  37303144.328 6 196029484.377 6        38.900    37303145.113 6 196029223.360 6        41.000    37303158.855 6 152750315.886 6        38.100    37303165.715 6 146385756.219 6        41.300    37303151.69515 159114783.30715        31.400
E12  25640687.914 7 134742793.581 7        44.900    25640696.660 7 100619702.205 7        44.700    25640692.816 7 103244537.859 7        43.600    25640694.809 8 101932124.138 8        50.600
C01  36697309.703 7 191092527.043 7        44.300    36697302.652 8 147764841.961 8        48.200    36697297.098 7 155278330.692 7        47.000
C02  39033180.211 5 203256037.805 5        35.900    39033179.043 6 157170453.785 6        41.100    39033173.816 6 165162161.480 6        39.900
C03  37220154.789 7 193815090.682 7        42.600    37220151.480 7 149870092.057 7        47.000    37220145.727 8 157490626.591 8        48.300
C04  37510097.680 6 195324939.274 6        40.700    37510095.078 7 151037616.330 7        45.200    37510088.555 7 158717513.110 7        45.100
C07  36056207.273 7 187754141.846 7        47.000    36056203.164 8 145183387.490 8        49.800    36056194.113 8 152565598.808 8        50.300
C10  37339055.117 7 194434270.555 7        44.900    37339053.957 7 150348917.412 7        46.200    37339044.219 7 157993728.860 7        46.300
C06  40962071.883 5 213300247.159 5        31.800    40962079.430 5 164937295.735 5        34.300    40962068.473 5 173323890.386 5        34.500
C14  25508362.891 6 132828736.277 6        37.500    25508364.441 6 102711604.534 6        40.400    25508354.227 7 107934191.721 7        42.300
C08  37481645.453 7 195176806.364 7        44.300    37481643.148 7 150923112.557 7        45.800    37481634.574 7 158597120.963 7        46.900
C09  40412834.172 6 210440241.031 6        37.500    40412839.500 6 162725772.975 6        38.700    40412828.586 6 170999915.928 6        36.200
> 2013  6 15  4  0 30.0000000  0 32
R21  22561545.945 7 120731922.645 7        44.100    22561543.922 7 120731647.661 7        43.000    22561552.398 5  93902305.960 5        34.800    22561552.781 5  93902313.964 5        34.900
R08  21677318.672 8 116081286.801 8        49.100    21677317.559 7 116081196.825 7        47.800    21677325.008 7  90285376.714 7        43.500    21677324.961 7  90285368.714 7        43.400
G21  25102960.992 5 131916969.179 5        33.100    25102976.102 2 102792486.71442        14.800
R09  21806856.570 8 116447172.796 8        48.500    21806855.605 7 116447415.796 7        46.600    21806861.934 6  90570228.351 6        41.400    21806863.219 6  90570224.348 6        41.500
G16  21760809.867 8 114353930.992 8        49.800    21760818.625 6  89107028.12446        36.800
G31  20898315.141 8 109821644.386 8        52.000    20898324.102 7  85575221.44947        43.700    20898323.656 8  85575223.443 8        50.300
G25  25044447.56315 131609453.27315        31.900    25044462.21512 102552872.77052        16.300    25044461.89815 102552872.81615        35.500    25044463.06616  98279829.98716        41.100
G03  24828800.648 5 130476254.225 5        34.300    24828819.078 2 101669897.76142        17.400
G32  24217940.070 6 127266120.277 6        41.100    24217952.652 3  99168466.33043        22.500
G20  24904491.453 6 130873967.259 6        36.400    24904504.637 3 101979760.52443        19.300
R20  20290497.781 7 108502535.426 7        47.100    20290496.742 7 108502485.431 7        45.700    20290505.180 8  84390915.669 8        48.100    20290504.906 7  84390910.678 7        47.600
G14  21986515.422 7 115539885.813 7        44.500    21986526.484 5  90031177.78645        34.000
R07  23394211.242 7 125231034.874 7        42.400    23394210.672 6 125230994.862 6        41.300    23394223.613 6  97401893.426 6        39.400    23394224.020 6  97401887.423 6        39.500
G29  22374640.563 7 117579585.139 7        46.200    22374649.918 5  91620530.70645        35.500    22374650.129 7  91620524.695 7        43.600
R10  20614367.070 8 109886157.936 8        52.800    20614366.102 8 109886222.929 8        50.800    20614374.582 7  85467135.984 7        42.000    20614374.887 6  85467127.988 6        41.500
G23  25023924.789 6 131501627.944 6        37.900    25023934.715 2 102468836.53942        17.800
R11  22929615.539 7 122528851.132 7        42.800    22929614.137 6 122528903.132 6        41.100    22929623.137 6  95300358.477 6        36.500    22929623.516 5  95300354.485 5        34.800
R19  21339190.867 8 114150248.038 8        49.600    21339189.234 8 114150340.052 8        48.100    21339194.785 7  88783626.806 7        44.300    21339194.832 7  88783624.810 7        44.100
R01  22915504.141 7 122496516.489 7        44.900    22915502.531 7 122496509.479 7        42.800    22915510.402 6  95275088.138 6        36.300    22915512.035 6  95275077.150 6        36.200
G06  22813272.094 7 119884634.008 7        43.800    22813284.734 4  93416703.73244        28.500
J01  37302784.891 6 196027593.485 6        38.200    37302785.109 6 196027332.475 6        41.100    37302798.410 6 152748842.456 6        37.400    37302805.375 6 146384344.177 6        41.300    37302790.945 5 159113248.387 5        32.300
E12  25624450.586 7 134657467.598 7        45.300    25624459.676 7 100555984.835 7        44.900    25624456.207 7 103179158.290 7        44.000    25624457.680 8 101867575.668 8        50.900
C01  36697319.766 7 191092580.904 7        44.500    36697313.078 8 147764883.599 8        48.000    36697307.559 7 155278374.446 7        47.600
C02  39033268.102 6 203256491.926 6        36.100    39033266.215 6 157170804.913 6        41.400    39033260.828 6 165162530.466 6        39.200
C03  37220046.742 7 193814526.838 7        42.600    37220043.555 7 149869656.048 7        46.800    37220037.539 7 157490168.420 7        47.300
C04  37510093.953 6 195324920.298 6        40.900    37510091.645 7 151037601.642 7        45.400    37510085.313 7 158717497.676 7        44.900
C07  36053548.773 7 187740298.452 7        46.600    36053544.781 8 145172682.892 8        49.800    36053535.723 8 152554349.910 8        49.800
C10  37335376.781 7 194415117.497 7        45.000    37335375.910 7 150334107.059 7        45.600    37335365.840 7 157978165.438 7        46.000
C06  40969836.648 5 213340678.540 5        32.600    40969843.789 5 164968559.839 5        34.500    40969832.793 5 173356744.200 5        34.900
C14  25511866.773 6 132846979.628 6        37.600    25511867.840 6 102725711.369 6        40.100    25511857.695 6 107949015.874 6        41.400
C08  37475093.992 7 195142691.297 7        44.200    37475091.590 7 150896732.626 7        46.000    37475082.973 7 158569399.679 7        47.000
C09  40423464.359 6 210495596.595 6        37.500    40423470.297 6 162768577.195 6        38.200    40423459.457 6 171044896.688 6        38.100
> 2013  6 15  4  1  0.0000000  0 32
R21  22537646.273 7 120604034.026 7        44.600    22537645.070 7 120603759.040 7        43.400    22537653.348 5  93802837.241 5        35.800    22537654.074 5  93802845.245 5        35.100
R08  21689382.156 8 116145885.815 8        48.600    21689381.043 7 116145795.823 7        47.300    21689388.148 7  90335620.315 7        43.100    21689388.066 7  90335612.315 7        43.000
G21  25093627.078 5 131867924.948 5        34.900    25093642.41412 102754270.49552        16.300
R09  21814815.102 8 116489664.975 8        48.500    21814814.137 7 116489907.982 7        47.000    21814819.996 6  90603277.731 6        41.800    21814821.367 6  90603273.744 6        41.000
G16  21751468.469 8 114304844.836 8        49.400    21751477.789 6  89068779.20746        37.100
G31  20897976.148 8 109819862.746 8        51.600    20897984.387 7  85573833.14347        44.000    20897984.344 8  85573835.144 8        49.700
G25  25061250.242 5 131697746.921 5        35.600    25061263.535 2 102621672.94642        17.400    25061263.766 5 102621672.955 5        34.300    25061264.855 6  98345763.463 6        41.400
G03  24806469.406 6 130358896.035 6        37.300    24806485.828 3 101578450.32443        18.300
G32  24226002.742 6 127308492.109 6        40.900    24226015.457 3  99201483.21143        22.800
G20  24908602.164 5 130895570.106 5        34.000    24908615.711 3 101996593.87643        20.100
R20  20278059.531 7 108436020.345 7        47.500    20278058.961 7 108435970.350 7        45.600    20278067.227 8  84339181.769 8        48.000    20278067.199 7  84339176.772 7        47.700
G14  22003764.109 7 115630525.901 7        44.500    22003774.637 5  90101806.34145        32.800
R07  23416189.703 6 125348693.849 6        39.900    23416188.898 6 125348653.837 6        38.800    23416203.727 6  97493405.479 6        40.900    23416203.895 6  97493399.480 6        39.800
G29  22386526.867 7 117642048.605 7        45.200    22386536.906 5  91669203.51145        35.200    22386536.820 7  91669197.502 7        43.700
R10  20610536.383 8 109865735.094 8        53.000    20610534.828 8 109865800.088 8        50.200    20610543.922 6  85451251.557 6        41.700    20610543.789 6  85451243.560 6        41.100
G23  25003830.375 6 131396028.636 6        40.300    25003839.887 3 102386551.47243        19.000
R11  22917499.766 7 122464111.297 7        42.500    22917498.949 6 122464163.288 6        40.600    22917508.352 5  95250005.372 5        35.400    22917508.180 5  95250001.380 5        34.600
R19  21348911.039 8 114202250.009 8        48.800    21348910.578 8 114202342.025 8        48.100    21348916.188 7  88824072.780 7        43.900    21348916.406 7  88824070.792 7        43.700
R01  22909130.992 7 122462445.960 7        43.800    22909128.676 7 122462438.967 7        42.600    22909137.805 6  95248588.833 6        36.800    22909138.652 5  95248577.845 5        35.600
G06  22792999.773 7 119778103.510 7        43.400    22793012.566 4  93333693.08844        28.300
J01  37302414.500 6 196025645.262 6        37.400    37302414.359 6 196025384.260 6        41.600    37302427.859 6 152747324.345 6        37.300    37302434.473 6 146382889.320 6        41.600    37302420.57015 159111667.28515        31.500
E12  25608232.992 7 134572243.994 7        45.400    25608242.254 7 100492343.921 7        45.700    25608238.031 7 103113857.167 7        43.600    25608240.051 8 101803104.651 8        50.900
C01  36697330.609 7 191092638.090 7        44.300    36697324.117 8 147764927.807 8        48.500    36697318.766 7 155278420.906 7        47.500
C02  39033356.055 6 203256948.704 6        36.000    39033353.582 6 157171158.099 6        40.500    39033348.262 6 165162901.620 6        39.200
C03  37219938.547 7 193813965.585 7        42.600    37219935.523 7 149869222.049 7        47.300    37219929.605 8 157489712.337 8        48.400
C04  37510090.750 6 195324903.502 6        40.900    37510088.691 7 151037588.632 7        45.100    37510082.277 7 158717484.007 7        45.500
C07  36050891.031 7 187726457.651 7        47.200    36050886.570 8 145161980.306 8        50.000    36050877.590 8 152543103.123 8        50.500
C10  37331692.625 7 194395933.557 7        45.900    37331691.813 7 150319272.829 7        46.500    37331681.871 7 157962576.923 7        46.300
C06  40977576.570 5 213380983.277 5        32.200    40977583.832 5 164999726.033 5        34.600    40977572.785 5 173389495.118 5        34.800
C14  25515444.070 6 132865610.736 6        37.100    25515445.414 6 102740118.061 6        40.000    25515435.137 7 107964155.122 7        42.000
C08  37468565.977 7 195108696.917 7        44.600    37468563.227 7 150870446.023 7        46.200    37468554.813 7 158541776.458 7        47.000
C09  40434085.203 6 210550898.487 6        37.500    40434090.566 6 162811339.909 6        37.900    40434079.832 6 171089833.829 6        37.600
> 2013  6 15  4  1 30.0000000  0 33
R21  22513771.945 7 120476277.103 7        45.100    22513770.980 7 120476002.112 7        43.800    22513780.059 6  93703470.960 6        36.800    22513780.133 6  93703478.963 6        36.200
R08  21701546.336 8 116211026.899 8        48.600    21701545.340 7 116210936.923 7        47.200    21701552.887 7  90386285.530 7        43.700    21701553.055 7  90386277.536 7        43.600
G21  25084296.219 5 131818891.318 5        35.700    25084311.070 2 102716062.55842        16.900
R09  21822793.961 8 116532273.435 8        48.200    21822792.410 7 116532516.452 7        46.800    21822798.301 7  90636417.585 7        42.500    21822800.188 6  90636413.588 6        41.200
G16  21742191.320 8 114256091.742 8        49.700    21742200.211 6  89030789.83246        37.000
G31  20897673.594 8 109818272.418 8        51.100    20897681.746 7  85572593.91747        43.900    20897681.684 8  85572595.918 8        49.200
G25  25078032.54715 131785949.57315        32.000    25078049.11712 102690402.24252        16.900    25078048.48415 102690402.25915        35.800    25078049.73816  98411629.03116        41.100
G03  24784138.352 6 130241546.324 6        39.000    24784155.590 3 101487009.45343        20.600
G32  24234121.008 6 127351151.325 6        40.600    24234133.363 3  99234724.07043        22.900
G20  24912786.20315 130917554.99415        35.100    24912799.40213 102013724.87253        19.900
R20  20265748.164 7 108370183.781 7        47.200    20265746.773 7 108370133.786 7        45.300    20265755.262 8  84287975.603 8        48.100    20265755.164 8  84287970.605 8        48.000
G14  22021076.828 7 115721503.753 7        45.200    22021086.922 5  90172698.09445        33.700
R07  23438163.102 6 125466313.006 6        41.400    23438162.180 6 125466273.044 6        40.400    23438177.555 6  97584886.544 6        38.700    23438176.758 6  97584880.538 6        38.500
G29  22398501.844 7 117704976.256 7        47.000    22398511.348 5  91718238.01545        35.500    22398511.281 7  91718232.007 7        44.000
R10  20606721.633 8 109845401.028 8        52.400    20606720.078 8 109845466.021 8        51.000    20606728.641 6  85435436.175 6        41.300    20606728.832 6  85435428.179 6        41.500
G23  24983759.492 6 131290557.055 6        40.700    24983768.191 3 102304365.88443        19.000
R11  22905375.500 6 122399326.199 6        41.400    22905374.566 6 122399378.204 6        40.800    22905384.398 6  95199617.066 6        36.100    22905384.035 5  95199613.072 5        35.300
R19  21358769.109 8 114254981.773 8        49.500    21358767.945 8 114255073.787 8        48.000    21358773.520 7  88865086.378 7        44.200    21358774.059 7  88865084.380 7        43.700
R01  22902886.727 7 122429073.874 7        43.900    22902885.703 7 122429066.897 7        42.400    22902895.215 6  95222632.785 6        36.900    22902896.238 6  95222621.793 6        36.400
G06  22772766.805 7 119671776.787 7        43.400    22772779.176 4  93250841.20844        28.400
J01  37302032.969 6 196023638.308 6        39.600    37302032.699 6 196023377.307 6        41.100    37302046.355 6 152745760.478 6        37.400    37302052.668 6 146381390.615 6        41.700    37302038.824 5 159110038.064 5        30.900
E12  25592035.055 7 134487123.174 7        45.500    25592043.844 7 100428779.768 7        45.300    25592040.094 7 103048634.803 7        43.800    25592041.984 8 101738711.392 8        50.900
C01  36697342.086 7 191092697.102 7        44.300    36697335.652 8 147764973.430 8        48.000    36697329.902 7 155278468.845 7        47.500
C02  39033443.984 6 203257406.712 6        36.100    39033442.082 6 157171512.223 6        41.600    39033436.699 6 165163273.764 6        40.000
C03  37219831.211 7 193813405.350 7        42.500    37219828.066 7 149868788.817 7        47.900    37219821.988 7 157489257.093 7        47.800
C04  37510087.813 6 195324887.332 6        40.900    37510085.633 7 151037576.112 7        45.400    37510079.133 7 158717470.860 7        45.200
C07  36048233.102 7 187712618.434 7        46.600    36048228.859 8 145151278.938 8        50.100    36048219.840 8 152531857.619 8        49.900
C10  37328002.656 7 194376717.580 7        44.900    37328001.594 7 150304413.832 7        45.600    37327991.750 7 157946962.383 7        46.200
C06  40985291.03115 213421159.34915        31.800    40985299.52315 165030792.73415        35.200    40985288.59815 173422141.47415        34.000
C14  25519095.906 6 132884626.546 6        38.000    25519097.695 6 102754822.214 6        41.300    25519087.574 7 107979606.957 7        42.500
C08  37462060.102 7 195074821.967 7        44.100    37462057.891 7 150844251.767 7        46.200    37462049.160 7 158514250.296 7        47.300
C09  40444694.633 6 210606144.661 6        37.700    40444700.605 6 162854059.538 6        38.100    40444689.953 6 171134725.688 6        38.300
C05  40900072.03115 212977343.94815        32.200    40900076.25815 164687655.12515        34.800    40900069.42616 173061577.98016        36.600
> 2013  6 15  4  2  0.0000000  0 32
R21  22489922.984 7 120348656.606 7        44.800    22489921.902 7 120348381.637 7        43.600    22489929.715 6  93604210.803 6        36.000    22489930.574 5  93604218.799 5        35.300
R08  21713812.508 8 116276706.771 8        49.200    21713811.043 7 116276616.780 7        47.300    21713818.000 7  90437369.786 7        43.400    21713818.168 7  90437361.785 7        43.000
G21  25074968.477 6 131769871.469 6        36.200    25074983.055 2 102677865.38242        17.400
R09  21830795.242 8 116574999.688 8        48.100    21830794.160 7 116575242.698 7        46.500    21830800.582 7  90669649.042 7        43.000    21830802.293 7  90669645.047 7        42.300
G16  21732977.250 8 114207671.950 8        50.200    21732986.223 6  88993060.17046        36.800
G31  20897408.031 8 109816874.752 8        52.300    20897415.945 7  85571504.81547        43.600    20897415.809 8  85571506.816 8        48.600
G25  25094802.37515 131874061.20815        35.700    25094816.34412 102759060.55352        15.600    25094815.72315 102759060.60915        34.900    25094816.96116  98477426.58316        41.900
G03  24761808.773 6 130124207.582 6        38.700    24761826.074 3 101395577.13743        20.600
G32  24242293.320 6 127394096.010 6        39.800    24242305.152 4  99268187.35744        24.200
G20  24917042.078 6 130939920.389 6        38.300    24917055.855 3 102031152.36043        21.700
R20  20253562.898 7 108305029.711 7        47.200    20253562.797 7 108304979.731 7        46.000    20253571.211 8  84237300.266 8        48.000    20253571.059 7  84237295.269 7        47.500
G14  22038453.844 7 115812817.683 7        45.800    22038463.711 5  90243851.72345        34.400
R07  23460128.164 7 125583888.530 7        43.400    23460127.594 7 125583848.542 7        42.600    23460140.324 6  97676333.744 6        37.100    23460139.914 6  97676327.750 6        36.400
G29  22410564.938 7 117768366.439 7        45.300    22410574.633 5  91767632.94745        35.200    22410574.516 7  91767626.944 7        44.400
R10  20602923.305 8 109825156.838 8        52.400    20602921.984 8 109825221.838 8        50.800    20602930.875 6  85419690.687 6        41.800    20602930.828 6  85419682.698 6        40.900
G23  24963712.992 6 131185216.066 6        39.000    24963723.047 3 102222282.05743        19.000
R11  22893244.977 7 122334495.961 7        42.500    22893242.984 6 122334547.970 6        40.900    22893252.211 6  95149193.635 6        36.000    22893251.980 5  95149189.643 5        35.500
R19  21368762.836 8 114308441.546 8        49.700    21368762.023 7 114308533.544 7        47.500    21368767.051 7  88906666.186 7        44.400    21368768.039 7  88906664.195 7        43.600
R01  22896775.453 7 122396401.712 7        43.900    22896774.898 7 122396394.720 7        42.500    22896783.777 5  95197221.086 5        35.200    22896784.543 5  95197210.090 5        35.800
G06  22752572.859 7 119565656.874 7        43.700    22752585.082 4  93168150.49144        29.600
J01  37301639.938 6 196021573.305 6        39.200    37301639.805 6 196021312.296 6        41.100    37301652.965 6 152744151.367 6        36.900    37301660.188 6 146379848.554 6        41.600    37301645.75815 159108361.95615        32.100
E12  25575857.523 7 134402107.564 7        45.500    25575865.797 7 100365294.172 7        45.100    25575862.090 7 102983493.047 7        43.900    25575863.922 8 101674397.718 8        51.000
C01  36697353.664 7 191092758.494 7        44.500    36697347.152 8 147765020.888 8        48.100    36697341.590 7 155278518.722 7        47.800
C02  39033532.289 5 203257866.403 5        35.800    39033530.250 6 157171867.658 6        40.900    39033524.879 6 165163647.277 6        39.600
C03  37219723.570 7 193812846.721 7        42.600    37219720.473 7 149868356.839 7        46.900    37219714.570 7 157488803.155 7        47.300
C04  37510084.875 6 195324872.348 6        40.900    37510082.098 7 151037564.517 7        45.500    37510076.027 7 158717458.673 7        45.400
C07  36045576.336 8 187698781.684 8        48.000    36045572.016 8 145140579.478 8        50.100    36045563.082 8 152520614.125 8        50.000
C10  37324306.813 7 194357470.391 7        45.500    37324305.148 7 150289530.687 7        46.000    37324295.301 7 157931322.464 7        45.900
C06  40992982.773 5 213461206.854 5        32.400    40992989.855 5 165061760.006 5        34.900    40992979.750 5 173454683.351 5        34.700
C14  25522820.664 6 132904026.290 6        38.000    25522823.371 7 102769823.250 7        42.000    25522812.965 6 107995370.789 6        41.800
C08  37455578.492 7 195041067.195 7        45.000    37455575.828 7 150818150.445 7        46.200    37455567.273 7 158486821.788 7        46.700
C09  40455293.688 6 210661334.929 6        37.200    40455299.262 6 162896735.933 6        38.100    40455288.621 6 171179572.114 6        37.700
> 2013  6 15  4  2 30.0000000  0 33
R21  22466099.539 7 120221177.183 7        45.300    22466099.043 7 120220902.212 7        43.700    22466106.734 5  93505060.306 5        35.000    22466107.707 5  93505068.301 5        34.700
R08  21726176.781 8 116342921.489 8        48.600    21726176.254 7 116342831.498 7        47.200    21726183.035 7  90488870.019 7        43.900    21726183.016 7  90488862.024 7        43.100
G21  25065642.922 6 131720867.597 6        36.500    25065657.195 2 102639680.58042        16.900
R09  21838818.563 7 116617845.071 7        47.900    21838817.832 7 116618088.088 7        46.600    21838824.582 7  90702973.157 7        42.300    21838825.965 6  90702969.155 6        41.800
G16  21723826.555 8 114159585.161 8        49.700    21723835.355 6  88955589.99246        37.200
G31  20897178.852 8 109815671.006 8        51.500    20897186.797 7  85570566.82847        43.600    20897186.277 8  85570568.822 8        49.900
G25  25111550.477 5 131962081.059 5        33.900    25111564.938 2 102827647.39642        17.400    25111565.469 5 102827647.392 5        35.200    25111566.844 7  98543155.581 7        43.400
G03  24739481.734 6 130006882.682 6        36.400    24739499.016 2 101304155.56842        17.800
G32  24250518.625 6 127437323.920 6        41.300    24250531.883 3  99301871.33343        23.500
G20  24921371.250 6 130962664.319 6        38.400    24921382.949 3 102048874.82343        20.100
R20  20241506.563 7 108240561.794 7        46.900    20241506.578 7 108240511.799 7        45.800    20241514.938 8  84187158.589 8        48.200    20241514.754 8  84187153.599 8        48.200
G14  22055893.672 7 115904465.555 7        44.700    22055903.543 5  90315265.55445        33.600
R07  23482083.063 7 125701416.700 7        42.300    23482082.727 6 125701376.700 6        40.600    23482096.477 6  97767744.104 6        37.600    23482096.176 6  97767738.109 6        38.000
G29  22422714.703 7 117832216.983 7        46.200    22422724.918 5  91817386.59145        34.900    22422724.922 7  91817380.586 7        44.000
R10  20599142.781 8 109805003.347 8        52.700    20599141.344 8 109805068.340 8        50.400    20599150.359 7  85404015.759 7        42.100    20599150.332 6  85404007.762 6        41.300
G23  24943692.828 6 131080008.506 6        40.000    24943702.734 3 102140302.27943        21.300
R11  22881103.109 7 122269620.404 7        42.300    22881102.527 6 122269672.395 6        40.400    22881111.805 6  95098734.966 6        36.300    22881112.070 5  95098730.970 5        35.300
R19  21378893.047 8 114362627.261 8        50.000    21378891.297 8 114362719.267 8        48.200    21378896.398 7  88948810.623 7        44.300    21378896.785 7  88948808.626 7        43.500
R01  22890794.430 7 122364430.365 7        43.700    22890792.820 7 122364423.395 7        42.800    22890801.816 6  95172354.479 6        36.700    22890803.340 5  95172343.488 5        35.500
G06  22732418.297 7 119459746.644 7        42.800    22732430.461 4  93085623.16644        29.700
J01  37301235.203 6 196019450.216 6        38.500    37301235.586 6 196019189.207 6        40.200    37301248.871 6 152742497.007 6        36.100    37301255.574 7 146378263.124 7        42.100    37301241.20315 159106638.63015        31.500
E12  25559699.617 7 134317199.118 7        45.400    25559708.164 7 100301888.607 7        45.300    25559704.648 7 102918433.414 7        44.000    25559706.414 8 101610165.120 8        51.000
C01  36697366.078 7 191092822.357 7        44.600    36697359.355 7 147765070.257 7        47.300    36697353.832 7 155278570.609 7        47.400
C02  39033620.602 6 203258327.844 6        36.100    39033618.816 6 157172224.452 6        40.600    39033613.391 6 165164022.218 6        39.100
C03  37219617.141 7 193812289.704 7        42.600    37219613.711 7 149867926.107 7        46.300    37219607.637 7 157488350.522 7        47.200
C04  37510082.242 6 195324858.555 6        40.900    37510079.742 7 151037553.836 7        45.500    37510073.316 7 158717447.451 7        45.800
C07  36042919.641 8 187684948.073 8        48.200    36042915.523 8 145129882.454 8        49.700    36042906.465 8 152509373.182 8        49.700
C10  37320604.609 7 194338192.650 7        46.000    37320603.121 7 150274623.910 7        45.800    37320593.145 7 157915657.711 7        46.200
C06  41000647.719 5 213501125.421 5        32.600    41000655.402 5 165092627.577 5        34.700    41000645.293 5 173487120.468 5        34.600
C14  25526620.719 6 132923808.607 6        38.400    25526622.105 6 102785120.125 6        41.400    25526611.656 6 108011445.493 6        41.600
C08  37449119.031 7 195007432.934 7        45.600    37449116.793 7 150792142.315 7        46.400    37449107.922 7 158459491.207 7        46.800
C09  40465880.648 5 210716468.788 5        35.000    40465887.465 6 162939368.682 6        37.400    40465876.578 6 171224372.672 6        37.600
C05  40899883.92215 212976404.88315        32.300    40899887.16415 164686899.44215        33.400    40899880.40616 173060782.56016        36.100
> 2013  6 15  4  3  0.0000000  0 33
R21  22442303.820 7 120093843.303 7        44.800    22442303.090 7 120093568.300 7        43.700    22442311.324 6  93406023.015 6        36.200    22442312.254 5  93406031.011 5        35.400
R08  21738642.211 8 116409668.255 8        48.700    21738640.629 7 116409578.265 7        47.000    21738647.547 7  90540784.068 7        43.900    21738647.820 7  90540776.068 7        42.600
G21  25056322.766 6 131671883.047 6        37.500    25056335.461 2 102601510.90242        16.900
R09  21846864.867 7 116660811.119 7        47.400    21846863.668 7 116661054.118 7        47.000    21846870.238 7  90736391.122 7        42.800    21846871.395 7  90736387.126 7        42.100
G16  21714739.422 8 114111832.215 8        49.400    21714748.266 6  88918379.94846        36.800
G31  20896986.953 8 109814663.246 8        51.300    20896995.016 7  85569781.55947        43.900    20896994.660 8  85569783.560 8        49.500
G25  25128283.914 5 132050009.322 5        35.200    25128297.918 2 102896162.90642        16.300    25128297.520 6 102896162.902 6        37.900    25128300.176 7  98608816.248 7        43.200
G03  24717157.664 5 129889574.816 5        34.800    24717175.457 2 101212747.31542        16.900
G32  24258799.289 6 127480833.390 6        41.300    24258812.160 4  99335774.70044        24.100
G20  24925771.031 6 130985785.933 6        38.400    24925783.730 3 102066891.57643        19.900
R20  20229581.117 7 108176784.064 7        47.100    20229579.844 7 108176734.084 7        45.800    20229587.996 8  84137553.731 8        48.100    20229587.926 7  84137548.741 7        47.300
G14  22073396.969 7 115996446.015 7        44.400    22073407.090 5  90386938.54645        32.300
R07  23504030.305 6 125818894.339 6        39.400    23504028.563 6 125818854.380 6        38.400    23504042.750 6  97859115.071 6        39.500    23504042.438 6  97859109.076 6        39.300
G29  22434952.484 7 117896526.642 7        46.700    22434962.922 5  91867497.99045        34.000    22434962.625 7  91867491.992 7        43.700
R10  20595379.438 8 109784942.505 8        52.400    20595378.703 8 109785007.491 8        50.900    20595387.770 6  85388412.880 6        41.800    20595387.566 6  85388404.884 6        41.800
G23  24923698.188 6 130974937.684 6        40.400    24923708.082 3 102058429.03043        19.000
R11  22868954.203 7 122204700.286 7        42.900    22868953.387 6 122204752.315 6        41.600    22868961.906 5  95048241.615 5        35.200    22868962.426 5  95048237.616 5        34.800
R19  21389157.617 8 114417537.429 8        49.800    21389156.336 8 114417629.434 8        48.000    21389161.426 7  88991518.524 7        44.600    21389161.906 7  88991516.527 7        44.200
R01  22884943.672 7 122333161.632 7        42.900    22884943.469 6 122333154.622 6        41.400    22884951.984 5  95148034.349 5        35.700    22884953.316 5  95148023.353 5        35.300
G06  22712304.875 7 119354050.039 7        44.200    22712317.219 4  93003262.30044        29.400
J01  37300820.672 6 196017270.166 6        37.900    37300821.082 6 196017009.158 6        40.300    37300833.766 6 152740798.283 6        36.300    37300841.707 7 146376635.168 7        42.100    37300826.45715 159104869.15915        32.500
E12  25543562.945 7 134232400.648 7        45.600    25543571.156 7 100238565.164 7        45.100    25543567.734 7 102853458.043 7        44.200    25543569.500 8 101546015.709 8        50.900
C01  36697378.883 7 191092889.542 7        44.500    36697372.063 8 147765122.199 8        48.700    36697366.633 7 155278625.205 7        47.500
C02  39033709.852 5 203258791.930 5        35.700    39033708.129 6 157172583.291 6        41.400    39033702.629 6 165164399.305 6        39.200
C03  37219510.281 7 193811735.236 7        42.600    37219507.441 7 149867497.346 7        46.900    37219501.277 8 157487899.969 8        48.100
C04  37510080.078 6 195324846.927 6        40.900    37510077.836 7 151037544.831 7        45.500    37510071.426 7 158717437.992 7        45.800
C07  36040263.516 8 187671118.791 8        48.200    36040259.078 8 145119188.772 8        50.000    36040250.383 8 152498135.758 8        50.200
C10  37316896.477 7 194318885.450 7        45.800    37316895.211 7 150259694.360 7        46.000    37316885.305 7 157899969.037 7        46.400
C06  41008289.438 5 213540915.465 5        32.500    41008296.824 5 165123395.790 5        34.200    41008286.730 5 173519453.152 5        34.900
C14  25530493.094 6 132943973.000 6        39.000    25530494.836 7 102800712.461 7        42.200    25530483.977 6 108027830.664 6        41.300
C08  37442683.594 7 194973920.226 7        45.400    37442680.707 7 150766228.176 7        46.300    37442672.203 7 158432259.406 7        47.000
C09  40476457.922 5 210771546.649 5        35.500    40476465.129 6 162981958.122 6        38.200    40476453.727 6 171269127.740 6        37.600
C05  40899789.56315 212975890.08915        32.400    40899792.90215 164686520.60515        34.100    40899785.75015 173060379.75015        35.200
> 2013  6 15  4  3 30.0000000  0 33
R21  22418536.563 7 119966658.584 7        44.900    22418535.598 7 119966383.591 7        43.100    22418544.215 6  93307101.744 6        36.500    22418544.578 5  93307109.748 5        35.300
R08  21751204.859 8 116476941.685 8        48.500    21751203.980 7 116476851.709 7        47.100    21751211.426 7  90593107.742 7        44.100    21751211.297 7  90593099.744 7        43.800
G21  25047003.617 5 131622918.831 5        35.700    25047017.699 2 102563357.04742        15.600
R09  21854933.328 8 116703897.724 8        48.800    21854933.188 7 116704140.731 7        47.000    21854939.582 7  90769902.856 7        43.000    21854941.004 6  90769898.860 6        41.900
G16  21705715.602 8 114064411.321 8        49.100    21705724.363 6  88881428.63346        36.900
G31  20896832.367 8 109813851.063 8        52.600    20896840.219 7  85569148.68447        44.400    20896840.133 8  85569150.685 8        49.300
G25  25144997.828 5 132137844.141 5        34.500    25145012.305 2 102964605.46842        17.400    25145012.207 6 102964605.500 6        38.200    25145014.973 7  98674407.054 7        44.200
G03  24694839.305 6 129772284.793 6        37.900    24694855.508 3 101121352.94243        19.300
G32  24267131.563 6 127524620.796 6        41.100    24267144.348 4  99369894.65544        25.300
G20  24930242.102 6 131009282.386 6        39.200    24930254.891 3 102085200.40443        19.600
R20  20217783.219 7 108113698.792 7        47.300    20217782.531 7 108113648.812 7        46.400    20217790.984 8  84088487.449 8        48.100    20217790.641 7  84088482.452 7        47.700
G14  22090962.367 7 116088755.148 7        45.000    22090972.879 5  90458867.64945        32.500
R07  23525965.500 7 125936316.235 7        42.400    23525965.164 6 125936276.236 6        41.000    23525979.133 6  97950442.691 6        39.700    23525978.980 6  97950436.689 6        39.400
G29  22447277.117 7 117961292.114 7        47.200    22447287.258 5  91917964.56845        34.200    22447286.820 7  91917958.565 7        43.900
R10  20591633.500 8 109764973.761 8        52.900    20591632.063 8 109765038.746 8        50.300    20591641.563 7  85372881.626 7        42.300    20591641.273 7  85372873.637 7        42.000
G23  24903729.828 6 130870005.152 6        39.100    24903740.430 2 101976663.47842        17.800
R11  22856797.852 7 122139734.224 7        42.900    22856796.449 7 122139786.238 7        42.100    22856804.449 5  94997712.533 5        35.300    22856804.797 5  94997708.538 5        34.300
R19  21399557.273 8 114473168.364 8        49.100    21399555.758 8 114473260.392 8        48.400    21399560.859 7  89034787.020 7        44.400    21399561.477 7  89034785.025 7        44.300
R01  22879225.773 7 122302594.755 7        43.400    22879224.984 7 122302587.759 7        42.600    22879233.285 6  95124260.093 6        36.100    22879235.852 5  95124249.105 5        35.300
G06  22692232.320 7 119248568.254 7        44.300    22692244.016 5  92921068.81745        30.000
J01  37300394.563 6 196015031.902 6        38.300    37300394.672 6 196014770.886 6        40.100    37300408.012 6 152739054.182 6        36.800    37300415.301 7 146374963.733 7        42.200    37300400.695 5 159103052.422 5        32.200
E12  25527447.172 7 134147712.806 7        46.200    25527455.066 7 100175324.323 7        44.700    25527452.395 7 102788567.445 7        44.400    25527453.945 8 101481949.990 8        50.900
C01  36697392.430 7 191092958.749 7        44.400    36697385.637 8 147765175.710 8        48.200    36697380.109 7 155278681.438 7        47.100
C02  39033799.383 6 203259257.432 6        36.100    39033797.559 6 157172943.213 6        41.700    39033792.324 6 165164777.535 6        39.200
C03  37219403.820 7 193811181.976 7        42.500    37219401.012 7 149867069.519 7        47.300    37219395.234 7 157487450.387 7        47.500
C04  37510078.289 6 195324836.137 6        40.800    37510075.426 7 151037536.478 7        45.400    37510069.285 7 158717429.224 7        45.600
C07  36037608.680 7 187657293.153 7        47.900    36037604.254 8 145108497.908 8        49.800    36037595.590 8 152486901.292 8        50.700
C10  37313182.844 7 194299547.783 7        45.900    37313181.824 7 150244741.257 7        46.400    37313171.711 7 157884255.597 7        46.100
C06  41015906.180 5 213580575.258 5        32.600    41015913.145 5 165154063.269 5        34.900    41015903.141 6 173551680.004 6        36.100
C14  25534438.547 6 132964516.688 6        38.800    25534440.012 7 102816598.058 7        42.100    25534429.430 6 108044524.049 6        41.200
C08  37436270.719 7 194940528.058 7        45.000    37436268.133 7 150740407.233 7        46.200    37436259.492 7 158405125.525 7        47.500
C09  40487025.344 6 210826566.278 6        37.500    40487031.441 6 163024502.543 6        38.100    40487019.754 6 171313835.517 6        36.600
C05  40899696.10915 212975415.12215        33.100    40899698.84015 164686153.53915        35.800    40899692.25015 173060062.17815        35.800
> 2013  6 15  4  4  0.0000000  0 32
R21  22394797.844 7 119839628.320 7        44.300    22394796.996 7 119839353.316 7        43.300    22394806.004 6  93208300.592 6        36.300    22394806.262 6  93208308.603 6        36.000
R08  21763864.945 8 116544738.933 8        48.300    21763863.715 7 116544648.957 7        46.200    21763871.504 7  90645838.844 7        44.900    21763872.109 7  90645830.844 7        43.900
G21  25037691.797 5 131573978.571 5        34.400    25037705.098 2 102525221.87542        17.800
R09  21863025.320 8 116747106.515 8        48.300    21863024.355 7 116747349.508 7        46.300    21863030.957 7  90803509.605 7        42.000    21863032.238 6  90803505.610 6        41.400
G16  21696754.805 8 114017323.104 8        49.700    21696763.395 6  88844736.55946        37.400
G31  20896715.234 8 109813236.397 8        51.200    20896723.277 7  85568669.72147        43.900    20896723.301 8  85568671.722 8        49.400
G25  25161691.64114 132225585.66114        29.400    25161709.37913 103032975.42353        18.300    25161708.99216 103032975.48016        37.100    25161710.93417  98739928.27717        42.700
G03  24672522.984 6 129655016.096 6        38.200    24672540.223 3 101029975.17543        20.600
G32  24275516.281 6 127568684.688 6        41.900    24275530.063 3  99404230.04243        22.800
G20  24934784.742 5 131033152.460 5        34.400    24934797.328 3 102103800.34243        19.900
R20  20206116.266 8 108051310.372 8        48.100    20206115.695 7 108051260.384 7        45.400    20206124.188 7  84039963.159 7        47.600    20206123.738 7  84039958.162 7        47.700
G14  22108590.523 7 116181391.686 7        44.800    22108600.824 5  90531051.87645        31.600
R07  23547890.680 7 126053679.275 7        43.000    23547889.289 6 126053639.268 6        41.500    23547903.598 6  98041724.583 6        38.900    23547903.555 6  98041718.581 6        38.000
G29  22459688.750 7 118026511.948 7        45.900    22459698.168 5  91968785.19645        33.700    22459697.938 7  91968779.194 7        43.800
R10  20587905.047 8 109745099.315 8        51.000    20587904.078 8 109745164.315 8        50.800    20587912.656 6  85357423.731 6        41.600    20587912.875 6  85357415.741 6        41.500
G23  24883789.320 6 130765214.505 6        39.200    24883798.488 3 101895008.41543        19.000
R11  22844631.703 7 122074722.942 7        43.700    22844630.066 6 122074774.940 6        41.600    22844638.816 5  94947148.293 5        35.700    22844638.688 5  94947144.302 5        34.300
R19  21410091.117 8 114529518.447 8        49.500    21410090.305 8 114529610.469 8        48.100    21410095.359 7  89078614.847 7        44.600    21410095.820 7  89078612.851 7        44.300
R01  22873640.000 7 122272731.626 7        42.500    22873638.625 6 122272724.599 6        41.300    22873647.781 6  95101033.198 6        37.300    22873649.527 6  95101022.199 6        36.200
G06  22672201.516 7 119143304.897 7        44.900    22672213.125 4  92839045.54144        29.800
J01  37299957.969 6 196012736.464 6        38.800    37299957.813 6 196012475.457 6        39.900    37299970.934 6 152737265.531 6        37.400    37299978.402 6 146373249.613 6        41.900    37299963.328 5 159101189.158 5        31.500
E12  25511353.109 7 134063138.405 7        46.300    25511361.402 7 100112168.186 7        45.000    25511358.070 7 102723763.754 7        44.000    25511359.992 8 101417970.078 8        51.000
C01  36697406.273 7 191093030.910 7        44.500    36697399.480 8 147765231.499 8        48.400    36697393.930 7 155278740.069 7        47.000
C02  39033889.547 6 203259725.231 6        36.000    39033887.152 6 157173304.928 6        40.400    39033881.867 6 165165157.650 6        40.100
C03  37219297.992 7 193810630.932 7        42.700    37219295.063 7 149866643.402 7        47.400    37219289.148 7 157487002.602 7        47.800
C04  37510076.078 6 195324827.113 6        40.900    37510073.660 7 151037529.486 7        45.700    37510067.438 7 158717421.873 7        45.700
C07  36034954.859 7 187643472.459 7        47.900    36034950.164 8 145097810.878 8        49.800    36034941.391 8 152475670.845 8        50.400
C10  37309463.867 7 194280181.088 7        46.000    37309462.301 7 150229765.702 7        46.300    37309452.367 7 157868518.576 7        46.100
C06  41023497.586 5 213620105.327 5        32.900    41023504.785 5 165184630.464 5        34.000    41023495.156 5 173583801.433 5        35.500
C14  25538456.359 6 132985439.193 6        38.000    25538458.504 6 102832776.607 6        41.500    25538447.828 6 108061525.248 6        41.700
C08  37429881.438 7 194907257.521 7        45.800    37429878.996 7 150714680.357 7        46.400    37429870.316 7 158378090.491 7        47.300
C09  40497580.148 6 210881528.186 6        38.300    40497586.574 6 163067002.367 6        37.900    40497574.883 6 171358496.412 6        37.500
> 2013  6 15  4  4 30.0000000  0 32
R21  22371088.930 7 119712755.806 7        45.200    22371087.492 7 119712480.792 7        43.600    22371095.879 5  93109622.122 5        35.500    22371096.094 5  93109630.126 5        35.100
R08  21776623.352 8 116613055.518 8        49.200    21776622.238 7 116612965.537 7        47.600    21776629.629 7  90698973.863 7        43.500    21776629.512 7  90698965.870 7        43.600
G21  25028383.211 5 131525064.272 5        33.300    25028396.594 2 102487106.96242        16.900
R09  21871140.578 8 116790438.465 8        48.400    21871139.262 7 116790681.466 7        46.500    21871145.582 7  90837212.172 7        42.100    21871146.734 6  90837208.177 6        41.200
G16  21687857.484 8 113970566.851 8        49.600    21687866.387 6  88808303.15646        37.000
G31  20896636.039 8 109812820.098 8        50.700    20896644.254 7  85568345.32747        43.900    20896643.988 8  85568347.328 8        49.800
G25  25178373.00815 132313233.08615        34.300    25178388.06312 103101272.06552        17.400    25178387.67616 103101272.07616        38.800    25178389.67617  98805379.16117        43.200
G03  24650211.969 6 129537770.310 6        37.500    24650228.594 3 100938615.31543        19.300
G32  24283953.977 6 127613022.227 6        41.000    24283966.457 4  99438778.66344        25.600
G20  24939397.313 6 131057393.761 6        38.300    24939409.316 3 102122689.54443        19.000
R20  20194580.719 7 107989621.503 7        47.600    20194579.680 7 107989571.521 7        45.800    20194587.641 7  83991982.961 7        47.700    20194587.723 8  83991977.971 8        48.200
G14  22126280.781 7 116274352.955 7        44.900    22126291.324 5  90603489.13845        32.800
R07  23569802.492 6 126170978.804 6        39.800    23569802.039 6 126170938.842 6        38.800    23569816.988 6  98132957.083 6        38.600    23569816.863 6  98132951.080 6        37.400
G29  22472184.859 7 118092183.732 7        45.900    22472194.941 5  92019957.97545        33.900    22472194.484 7  92019951.967 7        43.900
R10  20584194.867 8 109725319.552 8        52.300    20584193.313 8 109725384.544 8        51.300    20584201.410 6  85342039.472 6        41.800    20584201.598 6  85342031.476 6        41.700
G23  24863877.039 6 130660567.643 6        40.500    24863884.777 3 101813465.53143        19.600
R11  22832457.539 7 122009666.201 7        43.300    22832455.902 6 122009718.224 6        41.700    22832464.430 5  94896548.688 5        34.500    22832464.441 5  94896544.693 5        34.300
R19  21420759.195 8 114586585.189 8        49.100    21420758.266 7 114586677.187 7        47.800    21420763.074 7  89123000.069 7        45.200    21420763.719 7  89122998.080 7        44.500
R01  22868185.063 7 122243572.503 7        43.000    22868183.922 6 122243565.523 6        41.500    22868192.773 6  95078353.887 6        36.700    22868194.488 5  95078342.891 5        35.300
G06  22652212.430 7 119038262.513 7        44.400    22652224.051 5  92757194.45745        30.000
J01  37299510.219 6 196010383.658 6        36.800    37299510.605 6 196010122.651 6        38.900    37299523.516 6 152735432.190 6        36.600    37299530.922 6 146371492.659 6        41.800    37299516.668 5 159099279.451 5        32.600
E12  25495281.016 7 133978678.960 7        45.100    25495289.449 7 100049097.907 7        45.400    25495286.168 7 102659048.145 7        44.500    25495287.859 8 101354077.136 8        51.100
C01  36697420.375 7 191093105.834 7        44.300    36697414.211 8 147765289.417 8        48.100    36697408.578 7 155278800.927 7        47.100
C02  39033979.469 6 203260195.020 6        36.100    39033977.855 6 157173668.175 6        41.400    39033972.410 6 165165539.375 6        39.200
C03  37219192.891 7 193810081.735 7        42.500    37219189.543 7 149866218.720 7        47.700    37219183.707 7 157486556.328 7        47.600
C04  37510075.031 6 195324819.537 6        40.800    37510072.398 7 151037523.624 7        45.400    37510065.945 7 158717415.720 7        45.800
C07  36032301.289 7 187629656.849 7        47.200    36032296.902 8 145087127.771 8        49.700    36032288.164 8 152464444.524 8        50.400
C10  37305738.594 7 194260785.220 7        44.700    37305737.500 7 150214767.593 7        46.000    37305727.406 7 157852757.855 7        45.400
C06  41031064.227 5 213659504.983 5        32.400    41031070.633 5 165215096.809 5        33.500    41031061.586 5 173615816.896 5        35.200
C14  25542546.656 6 133006738.755 6        38.500    25542548.313 6 102849246.707 6        41.800    25542537.664 6 108078832.846 6        41.100
C08  37423515.883 7 194874108.634 7        45.100    37423513.238 7 150689047.536 7        46.000    37423504.660 7 158351154.310 7        47.600
C09  40508123.719 6 210936431.442 6        37.600    40508130.301 6 163109456.819 6        37.600    40508118.945 6 171403109.617 6        37.500
> 2013  6 15  4  5  0.0000000  0 33
R21  22347408.883 7 119586045.676 7        44.100    22347407.918 7 119585770.691 7        43.100    22347416.250 6  93011069.952 6        36.600    22347417.133 5  93011077.955 5        35.700
R08  21789477.477 8 116681887.268 8        48.100    21789476.246 7 116681797.278 7        46.700    21789483.664 7  90752509.575 7        44.600    21789484.426 7  90752501.581 7        43.600
G21  25019079.813 5 131476178.141 5        35.200    25019094.688 2 102449013.92742        16.300
R09  21879278.383 8 116833894.211 8        48.600    21879277.066 7 116834137.224 7        46.700    21879283.539 7  90871010.990 7        42.100    21879284.484 6  90871006.990 6        40.900
G16  21679022.820 8 113924141.993 8        49.900    21679032.004 6  88772127.98046        37.300
G31  20896595.023 8 109812602.767 8        51.500    20896603.445 7  85568175.97247        43.900    20896603.273 8  85568177.972 8        49.600
G25  25195033.39815 132400785.29015        33.400    25195048.53912 103169494.50952        17.800    25195047.83216 103169494.50516        37.800    25195049.85917  98870758.96917        42.800
G03  24627904.398 6 129420549.733 6        37.100    24627921.402 3 100847275.05343        19.000
G32  24292443.250 7 127657630.684 7        42.400    24292455.242 4  99473538.40044        25.400
G20  24944080.477 6 131082004.242 6        37.900    24944092.855 3 102141866.48643        18.600
R20  20183175.461 7 107928635.429 7        47.600    20183175.008 7 107928585.426 7        45.700    20183183.078 8  83944549.393 8        48.500    20183183.098 7  83944544.396 7        47.700
G14  22144032.320 7 116367635.990 7        44.900    22144042.781 5  90676177.11845        32.500
R07  23591703.047 6 126288210.796 6        40.900    23591703.180 6 126288170.822 6        39.600    23591717.613 6  98224136.976 6        38.700    23591717.395 6  98224130.974 6        38.500
G29  22484767.484 7 118158305.120 7        46.700    22484777.453 5  92071481.11345        34.400    22484777.262 7  92071475.103 7        44.000
R10  20580501.656 8 109705635.286 8        52.300    20580499.746 8 109705700.286 8        50.800    20580508.727 6  85326729.477 6        41.400    20580508.348 6  85326721.488 6        41.400
G23  24843990.094 6 130556067.167 6        38.100    24843999.758 3 101732036.64243        19.600
R11  22820273.492 7 121944563.337 7        43.700    22820272.559 7 121944615.319 7        42.500    22820280.746 5  94845913.193 5        35.400    22820281.367 5  94845909.201 5        34.900
R19  21431560.719 8 114644365.646 8        49.500    21431559.203 7 114644457.666 7        47.800    21431564.773 7  89167940.415 7        44.900    21431565.273 7  89167938.419 7        44.700
R01  22862861.125 7 122215117.938 7        43.300    22862861.039 6 122215110.921 6        41.700    22862869.859 6  95056222.518 6        36.400    22862871.371 5  95056211.530 5        35.100
G06  22632266.242 7 118933443.511 7        44.100    22632277.574 5  92675517.42845        30.300
J01  37299051.313 6 196007973.212 6        37.800    37299051.316 6 196007712.206 6        39.600    37299064.332 6 152733553.921 6        36.200    37299071.918 7 146369692.659 7        42.100    37299058.07815 159097322.89715        31.900
E12  25479230.727 7 133894336.164 7        46.200    25479239.754 7  99986114.728 7        45.200    25479236.422 7 102594421.921 7        44.600    25479237.945 8 101290272.435 8        51.300
C01  36697435.492 7 191093183.053 7        44.500    36697428.719 8 147765349.123 8        48.400    36697423.395 7 155278863.672 7        47.300
C02  39034070.234 6 203260666.495 6        36.000    39034068.180 6 157174032.740 6        41.800    39034062.719 6 165165922.479 6        39.900
C03  37219087.820 7 193809534.147 7        42.600    37219084.707 7 149865795.281 7        47.200    37219078.727 7 157486111.359 7        47.700
C04  37510073.180 6 195324813.190 6        40.900    37510071.332 7 151037518.707 7        44.900    37510064.824 7 158717410.552 7        45.800
C07  36029649.188 7 187615846.532 7        47.200    36029644.953 8 145076448.757 8        49.700    36029636.102 8 152453222.522 8        50.700
C10  37302008.281 7 194241360.539 7        45.700    37302007.406 7 150199747.189 7        45.800    37301997.621 7 157836973.695 7        46.200
C06  41038605.977 5 213698773.446 5        31.200    41038612.313 5 165245461.723 5        34.200    41038602.410 5 173647725.760 5        35.800
C14  25546708.883 6 133028413.559 6        36.900    25546711.184 6 102866006.993 6        41.600    25546700.426 6 108096445.357 6        41.100
C08  37417173.125 7 194841081.188 7        45.000    37417170.262 7 150663508.629 7        46.000    37417161.855 7 158324316.815 7        47.300
C09  40518655.773 6 210991275.164 6        36.600    40518662.301 6 163151865.218 6        38.000    40518651.070 6 171447674.421 6        36.400
C05  40899416.67215 212973944.91715        31.000    40899420.20715 164685017.63515        34.100    40899412.77715 173058869.97815        35.700
> 2013  6 15  4  5 30.0000000  0 32
R21  22323761.820 7 119459501.155 7        44.200    22323760.383 7 119459226.156 7        42.900    22323769.492 6  92912646.599 6        36.600    22323769.520 6  92912654.602 6        36.300
R08  21802426.031 8 116751229.729 8        48.800    21802425.270 7 116751139.752 7        47.000    21802432.926 7  90806442.514 7        44.000    21802432.973 7  90806434.514 7        43.200
G21  25009783.375 6 131427322.248 6        36.800    25009796.848 2 102410944.53642        16.900
R09  21887438.883 7 116877474.234 7        47.800    21887438.859 7 116877717.235 7        46.500    21887445.031 6  90904906.472 6        41.800    21887446.391 6  90904902.478 6        40.600
G16  21670251.766 8 113878047.890 8        51.000    21670260.594 6  88736210.53746        37.600
G31  20896591.688 8 109812585.321 8        51.600    20896599.746 7  85568162.37047        43.800    20896599.508 8  85568164.371 8        49.600
G25  25211677.758 6 132488241.354 6        37.100    25211690.773 3 103237642.00143        18.600    25211690.508 6 103237642.019 6        36.600    25211691.918 6  98936066.996 6        41.500
G03  24605603.234 6 129303356.427 6        38.700    24605619.035 3 100755956.03243        18.600
G32  24300982.445 7 127702507.272 7        42.000    24300995.973 4  99508507.04144        25.000
G20  24948834.336 6 131106981.557 6        38.300    24948845.832 3 102161329.23143        19.900
R20  20171902.656 7 107868354.774 7        47.600    20171901.969 7 107868304.779 7        46.300    20171910.051 8  83897664.472 8        48.400    20171910.113 7  83897659.482 7        47.900
G14  22161843.836 7 116461238.341 7        45.100    22161855.004 5  90749113.91045        32.700
R07  23613591.156 7 126405370.911 7        42.700    23613589.531 6 126405330.941 6        41.300    23613604.230 6  98315260.976 6        38.500    23613603.410 6  98315254.981 6        37.900
G29  22497434.953 7 118224873.383 7        45.800    22497445.426 5  92123352.46145        33.900    22497444.859 7  92123346.445 7        43.200
R10  20576826.898 8 109686047.140 8        52.300    20576825.695 8 109686112.146 8        50.500    20576835.051 7  85311494.266 7        42.000    20576834.816 6  85311486.270 6        41.100
G23  24824132.352 6 130451715.186 6        38.300    24824142.289 3 101650723.51343        18.600
R11  22808081.305 7 121879414.117 7        43.800    22808080.488 7 121879466.135 7        42.200    22808089.742 6  94795241.657 6        36.200    22808089.719 5  94795237.672 5        35.300
R19  21442495.008 8 114702857.181 8        48.300    21442494.313 7 114702949.187 7        47.500    21442500.035 7  89213433.808 7        45.700    21442500.621 7  89213431.813 7        44.200
R01  22857671.242 7 122187368.028 7        43.200    22857669.043 6 122187361.024 6        41.800    22857678.172 5  95034639.246 5        35.400    22857679.340 5  95034628.260 5        34.600
G06  22612362.820 7 118828850.213 7        44.100    22612373.926 4  92594016.25744        29.400
J01  37298582.203 6 196005504.894 6        36.900    37298581.703 6 196005243.880 6        39.900    37298595.137 5 152731630.561 5        35.900    37298602.418 7 146367849.432 7        42.000    37298588.57815 159095319.34715        33.300
E12  25463203.344 7 133810111.605 7        45.300    25463212.141 7  99923219.845 7        45.200    25463208.902 7 102529886.291 7        44.200    25463210.453 8 101226557.173 8        51.300
C01  36697450.656 7 191093262.403 7        44.500    36697444.156 8 147765410.468 8        48.600    36697438.527 7 155278928.136 7        47.600
C02  39034160.719 6 203261139.322 6        36.100    39034159.094 6 157174398.350 6        41.100    39034153.520 6 165166306.683 6        39.600
C03  37218982.820 7 193808987.722 7        42.600    37218979.563 7 149865372.747 7        47.000    37218973.594 8 157485667.337 8        48.100
C04  37510072.375 6 195324807.588 6        41.000    37510069.684 7 151037514.367 7        45.400    37510063.684 7 158717405.994 7        46.000
C07  36026998.109 7 187602041.549 7        47.300    36026993.785 8 145065773.870 8        50.000    36026984.996 8 152442004.836 8        50.200
C10  37298272.273 7 194221906.681 7        45.300    37298271.328 7 150184704.235 7        45.900    37298261.582 7 157821165.855 7        45.800
C06  41046120.21915 213737909.98615        31.000    41046127.62915 165275724.59915        33.800    41046117.11315 173679527.44515        35.100
C14  25550943.625 6 133050461.761 6        37.200    25550945.242 6 102883055.998 6        41.100    25550934.379 6 108114361.272 6        41.200
C08  37410853.836 7 194808175.031 7        45.100    37410851.344 7 150638063.505 7        46.900    37410842.656 7 158297577.872 7        46.800
C09  40529176.969 6 211046058.317 6        37.200    40529183.582 6 163194226.764 6        38.400    40529171.746 6 171492190.022 6        36.500
> 2013  6 15  4  6  0.0000000  0 33
R21  22300144.828 7 119333127.963 7        45.000    22300143.863 7 119332852.969 7        43.600    22300153.027 6  92814356.513 6        36.900    22300153.219 6  92814364.523 6        36.300
R08  21815470.500 8 116821079.666 8        49.000    21815470.559 7 116820989.676 7        46.900    21815477.320 7  90860770.140 7        43.600    21815477.414 7  90860762.140 7        43.200
G21  25000492.242 6 131378499.656 6        36.400    25000507.266 2 102372901.02242        16.900
R09  21895624.125 7 116921180.161 7        47.800    21895623.277 7 116921423.154 7        46.000    21895629.406 6  90938899.906 6        40.900    21895630.770 6  90938895.904 6        40.400
G16  21661543.305 8 113832284.810 8        49.700    21661552.516 6  88700551.04546        37.400
G31  20896626.391 8 109812769.364 8        52.100    20896634.242 7  85568305.76947        44.600    20896634.070 8  85568307.770 8        49.900
G25  25228300.953 5 132575601.346 5        34.300    25228314.477 2 103305714.66942        16.900    25228315.027 5 103305714.674 5        35.900    25228316.090 6  99001303.299 6        40.500
G03  24583307.984 6 129186193.044 6        37.300    24583323.781 3 100664660.27743        19.900
G32  24309572.992 7 127747650.168 7        42.400    24309586.586 4  99543683.22344        25.600
G20  24953655.773 6 131132324.023 6        37.700    24953668.996 3 102181076.50943        19.300
R20  20160763.508 7 107808783.761 7        46.800    20160761.762 7 107808733.751 7        46.400    20160770.223 8  83851331.499 8        48.500    20160769.727 8  83851326.501 8        48.000
G14  22179716.891 7 116555158.441 7        45.100    22179727.793 5  90822298.29845        32.700
R07  23635463.609 6 126522455.967 6        41.600    23635463.273 6 126522415.986 6        40.900    23635476.840 6  98406326.599 6        39.000    23635476.676 6  98406320.593 6        38.500
G29  22510187.422 7 118291886.913 7        46.700    22510197.395 5  92175570.76445        34.300    22510196.898 7  92175564.753 7        43.100
R10  20573170.688 8 109666556.635 8        52.200    20573169.250 8 109666621.635 8        50.800    20573177.645 7  85296334.991 7        42.100    20573178.254 6  85296326.995 6        41.600
G23  24804304.641 6 130347515.046 6        40.800    24804313.910 3 101569528.66843        21.700
R11  22795881.531 7 121814218.826 7        43.300    22795879.656 7 121814270.827 7        42.100    22795890.207 6  94744534.298 6        36.100    22795889.309 5  94744530.298 5        35.600
R19  21453562.328 8 114762057.843 8        48.600    21453561.164 7 114762149.842 7        47.600    21453566.211 7  89259478.746 7        44.900    21453566.879 7  89259476.744 7        43.700
R01  22852612.188 7 122160324.150 7        43.300    22852610.813 6 122160317.128 6        41.500    22852619.082 5  95013605.101 5        35.200    22852619.996 5  95013594.112 5        34.500
G06  22592502.156 7 118724486.020 7        43.800    22592514.250 5  92512693.60945        30.500
J01  37298100.719 6 196002979.492 6        38.300    37298100.938 6 196002718.494 6        40.200    37298114.648 6 152729662.721 6        36.300    37298122.098 7 146365963.583 7        43.000    37298107.55115 159093247.59415        32.600
E12  25447199.016 7 133726007.714 7        45.300    25447207.445 7  99860415.070 7        45.200    25447204.539 7 102465443.126 7        44.600    25447205.938 8 101162933.206 8        51.400
C01  36697466.305 7 191093344.397 7        44.500    36697459.785 8 147765473.862 8        48.100    36697454.387 7 155278994.755 7        47.800
C02  39034251.352 5 203261614.123 5        35.900    39034250.109 6 157174765.483 6        41.600    39034244.520 6 165166692.482 6        39.900
C03  37218878.391 7 193808443.173 7        42.600    37218875.035 7 149864951.654 7        47.600    37218869.027 7 157485224.832 7        47.800
C04  37510071.320 6 195324803.473 6        41.000    37510069.574 7 151037511.169 7        45.800    37510063.152 7 158717402.642 7        46.300
C07  36024348.555 7 187588243.135 7        47.700    36024343.969 8 145055104.063 8        50.000    36024335.074 8 152430792.499 8        50.000
C10  37294531.031 7 194202424.957 7        45.800    37294530.078 7 150169639.730 7        46.300    37294520.438 7 157805335.358 7        46.200
C06  41053611.266 5 213776914.699 5        32.000    41053618.199 5 165305885.543 5        34.600    41053607.488 5 173711221.958 5        34.600
C14  25555248.422 6 133072882.489 6        37.300    25555250.969 6 102900393.062 6        41.200    25555239.977 6 108132579.895 6        40.900
C08  37404557.750 7 194775391.119 7        45.600    37404555.332 7 150612712.914 7        46.800    37404546.516 7 158270938.261 7        46.900
C09  40539685.781 6 211100781.000 6        37.300    40539692.242 6 163236541.568 6        37.500    40539680.773 6 171536656.514 6        36.400
C05  40899230.19515 212973019.97315        32.600    40899234.36715 164684277.66915        34.500    40899227.19915 173058020.95215        35.400
> 2013  6 15  4  6 30.0000000  0 33
R21  22276562.586 7 119206930.143 7        45.600    22276561.621 7 119206655.144 7        44.500    22276570.121 6  92716202.829 6        36.000    22276570.059 5  92716210.825 5        35.600
R08  21828608.836 8 116891433.126 8        48.600    21828607.020 7 116891343.137 7        47.200    21828614.770 7  90915489.407 7        44.100    21828614.512 7  90915481.407 7        43.300
G21  24991209.086 6 131329712.943 6        36.100    24991223.668 3 102334885.49643        18.300
R09  21903832.586 8 116965012.968 8        48.100    21903832.211 7 116965255.976 7        46.300    21903838.219 6  90972992.014 6        41.200    21903839.652 6  90972988.012 6        40.800
G16  21652897.547 8 113786852.324 8        50.200    21652906.516 6  88665149.14346        37.700
G31  20896700.406 8 109813156.140 8        52.100    20896708.344 7  85568607.15847        44.000    20896708.191 8  85568609.151 8        49.600
G25  25244906.844 5 132662864.787 5        35.700    25244920.172 2 103373712.09842        15.600    25244920.813 5 103373712.154 5        35.000    25244922.488 6  99066467.527 6        40.500
G03  24561017.188 5 129069062.222 5        35.200    24561035.047 3 100573390.00543        19.300
G32  24318213.258 6 127793057.046 6        41.000    24318227.109 3  99579065.06543        23.600
G20  24958548.469 5 131158030.291 5        35.200    24958560.672 3 102201107.26143        19.900
R20  20149756.109 8 107749925.467 8        48.100    20149755.422 7 107749875.479 7        46.000    20149763.629 8  83805552.863 8        48.200    20149763.367 7  83805547.872 7        47.800
G14  22197649.328 7 116649394.085 7        45.700    22197660.047 5  90895728.56245        33.000
R07  23657321.258 6 126639461.985 6        40.600    23657320.805 6 126639422.005 6        39.200    23657335.063 6  98497330.730 6        37.200    23657334.660 6  98497324.734 6        37.200
G29  22523024.008 7 118359344.065 7        46.500    22523034.008 5  92228134.76545        34.100    22523033.789 7  92228128.747 7        43.000
R10  20569532.836 8 109647165.271 8        52.300    20569531.750 8 109647230.257 8        51.000    20569540.473 6  85281252.820 6        41.400    20569540.867 6  85281244.823 6        41.400
G23  24784504.758 6 130243469.625 6        39.000    24784514.590 3 101488454.41943        19.600
R11  22783672.508 7 121748978.054 7        43.500    22783670.988 6 121749030.042 6        41.300    22783680.172 5  94693791.541 5        35.400    22783679.973 5  94693787.542 5        34.500
R19  21464760.719 8 114821965.249 8        48.500    21464759.906 7 114822057.263 7        47.100    21464765.109 7  89306073.366 7        44.300    21464765.652 7  89306071.370 7        44.000
R01  22847685.016 7 122133986.794 7        43.800    22847684.227 7 122133979.818 7        42.600    22847692.836 5  94993120.463 5        35.400    22847693.816 5  94993109.474 5        34.600
G06  22572686.586 7 118620353.958 7        44.600    22572698.266 5  92431551.84145        30.400
J01  37297609.938 6 196000397.266 6        37.500    37297609.996 6 196000136.253 6        40.100    37297622.809 6 152727650.590 6        36.400    37297631.230 7 146364035.293 7        42.900    37297616.391 5 159091151.501 5        33.300
E12  25431217.711 7 133642026.615 7        45.300    25431226.609 7  99797701.988 7        45.200    25431223.281 7 102401094.035 7        44.600    25431224.797 8 101099402.115 8        51.400
C01  36697482.883 7 191093429.229 7        44.200    36697476.316 8 147765539.441 8        48.100    36697470.699 7 155279063.668 7        47.400
C02  39034343.297 6 203262091.025 6        36.300    39034341.527 6 157175134.242 6        41.600    39034336.109 6 165167080.009 6        39.400
C03  37218773.883 7 193807900.663 7        42.600    37218771.129 7 149864532.141 7        46.500    37218764.996 7 157484783.996 7        47.700
C04  37510071.102 6 195324801.018 6        40.800    37510068.645 7 151037509.260 7        45.300    37510062.320 7 158717400.635 7        46.000
C07  36021699.430 7 187574451.730 7        47.200    36021695.359 8 145044439.676 8        50.100    36021686.578 8 152419585.859 8        50.300
C10  37290785.133 7 194182915.852 7        45.100    37290783.160 7 150154554.060 7        46.200    37290773.414 7 157789482.614 7        45.700
C06  41061077.06315 213815787.45615        32.000    41061083.86715 165335944.42015        34.100    41061073.32015 173742809.28515        34.800
C14  25559626.430 6 133095674.457 6        37.100    25559627.898 6 102918017.183 6        41.300    25559617.277 6 108151100.172 6        40.900
C08  37398285.836 7 194742729.716 7        45.100    37398283.426 7 150587457.052 7        45.800    37398274.570 7 158244398.201 7        47.300
C09  40550182.852 5 211155442.698 5        35.900    40550189.910 6 163278809.197 6        36.300    40550178.227 6 171581073.433 6        36.800
C05  40899139.250 5                        31.300
> 2013  6 15  4  7  0.0000000  0 32
R21  22253012.180 7 119080912.150 7        45.100    22253010.977 7 119080637.159 7        44.000    22253018.563 5  92618188.984 5        35.700    22253019.516 5  92618196.981 5        35.100
R08  21841840.172 8 116962286.204 8        48.600    21841838.824 7 116962196.212 7        47.200    21841845.930 7  90970597.254 7        43.400    21841845.637 7  90970589.254 7        42.100
G21  24981931.438 6 131280964.409 6        36.300    24981947.238 2 102296899.67742        17.400
R09  21912065.234 8 117008973.837 8        48.000    21912064.738 7 117009216.838 7        46.400    21912070.391 6  91007183.724 6        41.400    21912072.059 6  91007179.724 6        40.900
G16  21644314.844 8 113741749.991 8        50.200    21644323.703 6  88630004.51746        37.200
G31  20896812.719 8 109813746.906 8        51.500    20896820.590 7  85569067.48447        43.700    20896820.535 8  85569069.478 8        49.600
G25  25261492.938 5 132750031.084 5        34.700    25261508.047 2 103441633.90242        16.900    25261507.926 6 103441633.876 6        36.600    25261509.191 6  99131559.163 6        41.800
G03  24538735.094 6 128951966.484 6        38.100    24538751.750 3 100482147.05343        22.000
G32  24326904.508 6 127838725.546 6        41.600    24326917.180 3  99614650.79543        23.200
G20  24963509.078 5 131184098.365 5        33.900    24963521.586 3 102221419.91443        18.600
R20  20138882.922 8 107691783.352 8        48.200    20138881.883 7 107691733.357 7        46.400    20138890.563 8  83760331.260 8        48.200    20138890.199 7  83760326.262 7        47.800
G14  22215641.422 7 116743942.697 7        45.200    22215652.215 5  90969402.70445        32.700
R07  23679163.555 6 126756385.072 6        41.000    23679162.398 6 126756345.076 6        40.000    23679176.934 6  98588270.391 6        36.900    23679176.859 6  98588264.392 6        36.300
G29  22535944.938 7 118427242.003 7        47.100    22535954.801 5  92281042.22345        34.100    22535954.402 7  92281036.206 7        42.800
R10  20565913.953 8 109627873.480 8        52.800    20565912.750 8 109627938.480 8        50.700    20565921.512 7  85266248.094 7        42.200    20565921.559 6  85266240.098 6        41.400
G23  24764734.094 6 130139581.954 6        38.800    24764744.699 3 101407503.02143        18.600
R11  22771455.047 7 121683691.207 7        43.800    22771452.820 6 121683743.211 6        41.600    22771461.258 5  94643012.950 5        35.600    22771461.598 5  94643008.959 5        33.700
R19  21476091.383 8 114882576.597 8        48.400    21476090.453 7 114882668.618 7        46.600    21476095.820 7  89353215.501 7        43.800    21476096.020 7  89353213.505 7        43.800
R01  22842890.141 7 122108356.505 7        45.000    22842889.234 7 122108349.497 7        43.400    22842898.230 6  94973185.779 6        36.400    22842898.863 5  94973174.796 5        35.100
G06  22552915.031 7 118516456.569 7        44.600    22552927.148 5  92350592.93445        31.300
J01  37297107.703 6 195997758.315 6        38.100    37297108.047 6 195997497.309 6        40.500    37297121.230 6 152725594.278 6        36.300    37297129.105 7 146362064.658 7        43.000    37297114.61715 159089009.72815        33.000
E12  25415260.359 7 133558170.311 7        45.300    25415269.418 7  99735082.096 7        45.500    25415266.273 7 102336840.581 7        44.700    25415267.438 8 101035965.446 8        51.700
C01  36697499.641 7 191093516.929 7        44.200    36697492.930 8 147765607.251 8        48.300    36697487.348 7 155279134.928 7        46.900
C02  39034435.328 5 203262570.152 5        35.800    39034433.590 6 157175504.728 6        41.600    39034428.203 6 165167469.324 6        40.100
C03  37218670.250 7 193807360.289 7        42.500    37218667.148 7 149864114.289 7        47.100    37218661.258 7 157484344.901 7        47.500
C04  37510071.133 6 195324800.171 6        40.800    37510068.797 7 151037508.596 7        45.700    37510062.621 7 158717399.934 7        46.000
C07  36019052.477 7 187560668.004 7        45.900    36019048.602 8 145033781.217 8        49.400    36019039.617 8 152408385.448 8        50.300
C10  37287033.516 7 194163379.778 7        44.500    37287032.047 7 150139447.526 7        46.300    37287022.398 7 157773607.953 7        46.400
C06  41068516.094 5 213854527.801 5        31.800    41068523.348 5 165365900.928 5        35.100    41068512.641 5 173774288.999 5        35.300
C14  25564073.836 6 133118836.126 6        37.400    25564075.914 6 102935927.192 6        41.100    25564065.000 6 108169920.869 6        40.600
C08  37392037.359 7 194710190.958 7        44.000    37392034.551 7 150562296.030 7        46.200    37392025.863 7 158217957.806 7        46.800
C09  40560668.242 5 211210042.914 5        35.700    40560675.039 5 163321029.298 5        35.800    40560664.379 6 171625440.368 6        37.700
> 2013  6 15  4  7 30.0000000  0 32
R21  22229498.008 7 118955078.146 7        45.600    22229496.336 7 118954803.146 7        44.700    22229504.121 6  92520318.255 6        36.600    22229504.992 6  92520326.256 6        36.000
R08  21855163.984 8 117033634.558 8        48.100    21855162.637 7 117033544.568 7        47.000    21855169.832 7  91026090.327 7        42.900    21855170.145 7  91026082.327 7        42.700
G21  24972663.438 6 131232256.606 6        37.200    24972678.625 2 102258945.66042        17.400
R09  21920321.914 8 117053063.700 8        48.000    21920321.184 7 117053306.709 7        46.100    21920327.660 6  91041475.760 6        41.800    21920328.922 6  91041471.764 6        40.900
G16  21635795.141 8 113696977.580 8        50.300    21635803.695 6  88595116.96046        37.800
G31  20896964.359 8 109814542.430 8        51.500    20896972.348 7  85569687.36147        43.800    20896972.285 8  85569689.361 8        49.800
G25  25278061.219 5 132837099.424 5        31.200    25278076.621 2 103509479.29342        15.600    25278076.910 6 103509479.291 6        36.000    25278078.410 6  99196577.681 6        41.100
G03  24516459.883 6 128834907.793 6        38.800    24516475.340 3 100390932.91743        20.100
G32  24335643.711 6 127884653.039 6        41.000    24335657.215 4  99650438.33644        24.900
G20  24968538.164 6 131210525.834 6        36.600    24968550.809 3 102242012.66843        18.300
R20  20128144.133 7 107634360.183 7        47.800    20128143.211 7 107634310.187 7        46.400    20128151.832 7  83715668.825 7        47.900    20128151.426 7  83715663.828 7        47.600
G14  22233692.375 7 116838801.812 7        45.800    22233703.469 5  91043318.79145        32.600
R07  23700990.914 6 126873221.242 6        40.700    23700990.109 6 126873181.242 6        39.400    23701005.121 6  98679142.491 6        37.100    23701004.148 6  98679136.486 6        36.500
G29  22548949.078 7 118495579.011 7        46.800    22548958.691 5  92334291.79545        34.200    22548958.504 7  92334285.777 7        42.600
R10  20562313.352 8 109608682.622 8        52.500    20562312.500 8 109608747.615 8        50.800    20562321.035 6  85251321.868 6        41.700    20562321.410 6  85251313.878 6        41.500
G23  24744996.188 6 130035853.782 6        39.700    24745006.074 3 101326675.99643        20.400
R11  22759229.469 7 121618358.495 7        43.800    22759228.184 7 121618410.473 7        42.100    22759237.086 5  94592198.698 5        35.400    22759236.813 5  94592194.691 5        34.200
R19  21487552.969 8 114943889.602 8        48.600    21487551.688 7 114943981.616 7        46.800    21487557.852 7  89400903.363 7        44.000    21487557.770 7  89400901.367 7        43.600
R01  22838228.305 7 122083433.729 7        43.900    22838226.578 7 122083426.735 7        42.500    22838235.441 5  94953801.379 5        35.900    22838236.805 5  94953790.384 5        35.400
G06  22533189.570 7 118412796.545 7        45.000    22533201.754 5  92269818.98145        30.400
J01  37296595.063 5 195995062.633 5        35.300    37296595.211 6 195994801.621 6        39.800    37296608.113 6 152723493.758 6        36.200    37296616.203 7 146360051.656 7        42.400    37296602.24215 159086821.56415        31.900
E12  25399327.422 7 133474440.531 7        46.000    25399336.590 7  99672556.685 7        45.600    25399332.746 7 102272684.063 7        44.700    25399334.254 8 100972624.480 8        51.700
C01  36697516.906 7 191093607.369 7        44.200    36697510.113 8 147765677.174 8        48.400    36697504.605 7 155279208.411 7        47.100
C02  39034527.828 6 203263051.413 6        36.100    39034525.805 6 157175876.872 6        41.800    39034520.578 6 165167860.387 6        39.800
C03  37218566.508 7 193806821.870 7        42.500    37218563.695 7 149863697.945 7        47.200    37218557.598 7 157483907.387 7        47.500
C04  37510071.109 6 195324800.922 6        40.600    37510069.145 7 151037509.165 7        45.600    37510062.688 7 158717400.544 7        45.600
C07  36016407.508 7 187546892.277 7        46.100    36016403.195 8 145023128.949 8        50.200    36016394.285 8 152397191.538 8        50.400
C10  37283276.398 7 194143816.862 7        45.000    37283275.063 7 150124320.237 7        46.400    37283265.289 7 157757711.478 7        46.800
C06  41075929.641 5 213893135.299 5        32.200    41075937.113 5 165395754.723 5        34.200    41075926.754 5 173805660.771 5        35.200
C14  25568592.359 6 133142365.825 6        37.400    25568594.660 6 102954121.770 6        39.800    25568583.578 6 108189040.611 6        39.800
C08  37385812.031 7 194677775.212 7        44.500    37385809.195 7 150537230.126 7        46.600    37385800.578 7 158191617.362 7        46.700
C09  40571142.266 5 211264580.928 5        35.800    40571148.418 6 163363201.292 6        36.200    40571137.797 6 171669756.734 6        38.100
> 2013  6 15  4  8  0.0000000  0 32
R21  22206017.867 7 118829431.784 7        45.900    22206016.313 7 118829156.803 7        44.900    22206023.680 6  92422593.434 6        37.200    22206025.039 6  92422601.437 6        36.400
R08  21868579.367 7 117105473.432 7        47.700    21868577.785 7 117105383.423 7        47.100    21868585.445 7  91081964.917 7        43.400    21868585.156 7  91081956.917 7        42.700
G21  24963402.852 5 131183591.025 5        35.000    24963416.191 2 102221024.50742        15.600
R09  21928603.031 8 117097282.776 8        48.600    21928602.301 7 117097525.779 7        46.800    21928608.469 7  91075868.289 7        42.500    21928609.992 6  91075864.289 6        41.600
G16  21627337.492 8 113652533.936 8        49.900    21627346.199 6  88560485.58146        37.500
G31  20897154.313 8 109815542.940 8        53.100    20897162.613 7  85570466.96847        44.300    20897162.371 8  85570468.969 8        50.200
G25  25294611.141 5 132924068.703 5        31.800    25294626.520 2 103577247.48042        15.600    25294626.492 6 103577247.513 6        36.900    25294628.309 7  99261522.196 7        42.200
G03  24494190.836 6 128717887.928 6        37.800    24494206.102 2 100299748.98142        17.800
G32  24344432.625 6 127930836.198 6        41.100    24344445.832 3  99686425.09043        22.500
G20  24973635.211 6 131237310.125 6        36.000    24973647.695 3 102262883.43943        18.300
R20  20117540.305 7 107577658.391 7        47.500    20117539.852 7 107577608.411 7        46.500    20117547.992 8  83671567.467 8        48.100    20117547.699 7  83671562.470 7        47.600
G14  22251802.273 7 116933968.066 7        45.500    22251812.996 5  91117474.21745        32.600
R07  23722799.273 6 126989966.091 6        40.500    23722798.000 6 126989926.110 6        38.600    23722813.605 6  98769943.520 6        38.600    23722813.383 6  98769937.517 6        38.300
G29  22562036.133 7 118564351.220 7        47.100    22562045.250 5  92387880.49345        34.400    22562045.250 7  92387874.488 7        42.300
R10  20558732.469 8 109589592.489 8        51.900    20558730.914 8 109589657.496 8        50.700    20558739.773 7  85236473.996 7        42.000    20558739.883 6  85236466.000 6        40.900
G23  24725288.141 6 129932287.345 6        38.600    24725298.059 3 101245974.96443        21.300
R11  22746993.242 7 121552979.128 7        44.300    22746992.074 6 121553031.108 6        41.700    22747000.723 5  94541348.139 5        35.100    22747000.938 5  94541344.140 5        33.900
R19  21499145.758 8 115005900.619 8        48.700    21499144.945 7 115005992.627 7        47.000    21499150.398 7  89449134.125 7        43.900    21499150.621 7  89449132.123 7        43.400
R01  22833697.742 7 122059218.006 7        43.600    22833696.133 6 122059211.002 6        41.900    22833705.367 6  94934966.912 6        36.500    22833706.738 5  94934955.924 5        35.500
G06  22513509.195 7 118309375.878 7        44.900    22513521.156 5  92189231.54545        30.900
J01  37296071.344 6 195992309.595 6        36.900    37296070.648 6 195992048.591 6        40.100    37296083.859 6 152721348.540 6        36.100    37296091.902 7 146357995.825 7        43.100    37296078.063 5 159084587.130 5        33.400
E12  25383418.086 7 133390838.375 7        46.000    25383427.395 7  99610126.577 7        46.000    25383423.691 7 102208625.332 7        45.100    25383425.168 8 100909380.056 8        51.700
C01  36697534.797 7 191093699.772 7        44.100    36697528.078 8 147765748.611 8        48.300    36697522.793 7 155279283.482 7        46.800
C02  39034620.734 6 203263533.911 6        36.000    39034618.379 6 157176249.958 6        41.400    39034612.949 6 165168252.448 6        39.600
C03  37218463.742 7 193806284.682 7        42.400    37218460.609 7 149863282.551 7        47.000    37218454.539 7 157483470.876 7        47.700
C04  37510071.813 6 195324802.507 6        40.600    37510069.617 7 151037510.378 7        44.700    37510062.875 7 158717401.814 7        46.100
C07  36013763.133 7 187533124.116 7        45.800    36013759.027 8 145012482.552 8        50.200    36013750.219 8 152386003.790 8        50.200
C10  37279514.313 7 194124226.814 7        44.700    37279512.926 7 150109171.973 7        46.700    37279503.047 7 157741792.963 7        46.100
C06  41083317.352 5 213931608.603 5        30.700    41083325.402 5 165425504.751 5        32.600    41083314.516 5 173836923.511 5        33.700
C14  25573181.813 6 133166261.261 6        36.800    25573183.273 6 102972599.163 6        40.800    25573172.961 6 108208457.546 6        41.300
C08  37379610.289 7 194645481.848 7        44.100    37379607.563 7 150512258.853 7        46.300    37379599.047 7 158165376.361 7        46.800
C09  40581604.086 5 211319055.299 5        35.800    40581610.438 5 163405324.083 5        35.800    40581599.375 6 171714021.391 6        38.300
> 2013  6 15  4  8 30.0000000  0 32
R21  22182572.875 7 118703977.379 7        45.200    22182571.438 7 118703702.394 7        44.500    22182580.086 6  92325017.951 6        36.900    22182580.684 5  92325025.947 5        35.600
R08  21882085.625 8 117177799.003 8        48.200    21882084.629 7 117177709.020 7        47.000    21882091.805 7  91138218.038 7        43.000    21882092.313 7  91138210.038 7        42.100
G21  24954149.625 6 131134970.661 6        36.000    24954164.270 2 102183138.61142        16.300
R09  21936907.734 7 117141632.120 7        47.900    21936907.121 7 117141875.126 7        46.500    21936913.473 7  91110362.133 7        42.500    21936915.602 7  91110358.138 7        42.000
G16  21618942.883 8 113608418.673 8        50.500    21618951.305 6  88526110.08746        37.500
G31  20897384.328 8 109816750.028 8        53.000    20897392.582 7  85571407.54547        43.900    20897392.250 8  85571409.546 8        49.600
G25  25311140.680 5                        31.200
G03  24471929.367 6 128600909.470 6        36.900    24471945.941 3 100208597.37043        20.100
G32  24353269.156 6 127977272.888 6        40.500    24353282.379 3  99722609.39343        22.200
G20  24978799.383 5 131264449.444 5        34.100    24978812.719 3 102284030.84043        18.300
R20  20107072.820 7 107521681.161 7        47.800    20107071.430 7 107521631.166 7        46.200    20107079.813 7  83628029.653 7        47.900    20107079.371 7  83628024.656 7        47.700
G14  22269970.219 7 117029439.755 7        45.800    22269981.113 5  91191867.63245        31.900
R07  23744590.828 6 127106615.686 6        39.700    23744590.258 6 127106575.682 6        38.800    23744605.871 6  98860670.449 6        38.300    23744605.133 6  98860664.440 6        38.500
G29  22575205.547 7 118633556.959 7        47.300    22575214.926 5  92441807.01545        35.300    22575214.492 7  92441801.003 7        42.400
R10  20555170.531 8 109570605.039 8        51.700    20555169.211 8 109570670.039 8        50.200    20555177.965 6  85221705.993 6        41.200    20555178.051 7  85221697.997 7        42.000
G23  24705611.570 6 129828885.720 6        39.100    24705621.457 3 101165402.38843        20.900
R11  22734749.836 7 121487553.081 7        43.100    22734748.668 7 121487605.078 7        42.200    22734757.656 5  94490461.290 5        35.200    22734756.656 5  94490457.291 5        34.100
R19  21510868.070 8 115068607.260 8        49.100    21510867.258 7 115068699.282 7        46.700    21510873.266 7  89497905.927 7        43.900    21510873.488 7  89497903.924 7        43.400
R01  22829299.953 7 122035710.133 7        42.800    22829299.047 7 122035703.137 7        42.500    22829306.949 5  94916682.973 5        35.800    22829308.898 5  94916671.985 5        35.000
G06  22493874.914 7 118206197.480 7        45.500    22493886.930 5  92108832.89345        31.300
J01  37295536.422 6 195989499.607 6        36.600    37295536.160 6 195989238.603 6        40.000    37295548.953 6 152719158.958 6        36.000    37295557.023 7 146355897.478 7        42.800    37295543.004 5 159082306.149 5        32.800
E12  25367533.742 7 133307366.044 7        45.200    25367543.023 7  99547793.413 7        45.600    25367538.941 7 102144666.072 7        44.700    25367540.676 8 100846233.853 8        51.900
C01  36697553.203 7 191093794.594 7        44.500    36697546.430 8 147765821.930 8        48.900    36697540.926 7 155279360.528 7        47.500
C02  39034712.820 5 203264018.053 5        35.900    39034711.324 6 157176624.329 6        41.700    39034706.031 6 165168645.851 6        39.400
C03  37218360.594 7 193805748.998 7        42.700    37218357.516 7 149862868.316 7        47.600    37218351.754 7 157483035.581 7        47.800
C04  37510072.078 6 195324805.148 6        40.700    37510069.980 7 151037512.406 7        45.000    37510063.488 7 158717403.956 7        45.900
C07  36011120.836 7 187519364.423 7        47.200    36011116.703 8 145001842.681 8        50.100    36011107.859 8 152374822.912 8        50.000
C10  37275747.484 7 194104610.196 7        45.900    37275746.250 7 150094003.156 7        46.000    37275736.156 7 157725852.849 7        46.400
C06  41090680.586 5 213969947.749 5        32.000    41090687.590 5 165455151.042 5        34.600    41090676.996 5 173868077.243 5        34.100
C14  25577840.539 6 133190521.134 6        37.300    25577842.586 6 102991358.343 6        40.100    25577832.625 6 108228170.605 6        41.100
C08  37373432.555 7 194613311.179 7        45.400    37373429.402 7 150487382.461 7        46.300    37373421.246 7 158139235.071 7        46.900
C09  40592053.398 5 211373465.732 5        35.900    40592059.926 6 163447397.442 6        36.600    40592048.266 6 171758234.099 6        37.800
> 2013  6 15  4  9  0.0000000  0 33
R21  22159165.734 7 118578720.317 7        46.000    22159165.238 7 118578445.328 7        45.200    22159172.508 6  92227595.929 6        36.600    22159173.156 5  92227603.930 5        35.400
R08  21895682.094 8 117250607.714 8        48.300    21895680.746 7 117250517.725 7        46.500    21895688.313 7  91194846.954 7        43.700    21895688.828 7  91194838.954 7        42.700
G21  24944906.188 5 131086398.324 5        34.500    24944920.641 2 102145290.20442        15.600
R09  21945238.398 8 117186113.568 8        48.900    21945236.965 7 117186356.568 7        46.300    21945244.000 7  91144958.749 7        42.600    21945245.289 6  91144954.754 6        41.800
G16  21610610.641 8 113564632.284 8        50.900    21610619.094 6  88491990.85646        37.700
G31  20897653.484 8 109818165.404 8        52.100    20897661.789 7  85572510.42247        44.100    20897661.188 8  85572512.423 8        49.800
G25  25327654.85915 133097708.76115        31.800    25327669.28912 103712551.33852        16.900    25327669.30515 103712551.32715        35.100    25327670.78516  99391188.30616        41.500
G03  24449678.117 6 128483975.328 6        38.700    24449693.941 3 100117480.26643        21.500
G32  24362153.094 6 128023961.051 6        40.600    24362166.563 3  99758989.67143        22.300
G20  24984030.500 6 131291942.239 6        36.400    24984044.246 3 102305453.73643        19.000
R20  20096741.609 7 107466432.281 7        47.900    20096740.570 7 107466382.293 7        46.300    20096748.492 8  83585058.334 8        48.200    20096747.941 8  83585053.337 8        48.000
G14  22288195.547 7 117125214.853 7        46.100    22288205.871 5  91266497.47245        31.700
R07  23766363.430 6 127223166.564 6        40.700    23766362.508 6 127223126.564 6        39.100    23766378.422 6  98951320.607 6        38.300    23766378.211 6  98951314.612 6        36.500
G29  22588457.188 7 118703194.705 7        47.300    22588466.242 5  92496070.15845        33.600    22588466.383 7  92496064.152 7        42.200
R10  20551627.867 8 109551721.956 8        52.500    20551626.313 8 109551786.964 8        50.800    20551634.945 7  85207019.150 7        42.200    20551635.066 6  85207011.154 6        41.000
G23  24685965.344 6 129725651.941 6        39.900    24685976.574 3 101084960.54043        19.900
R11  22722497.469 7 121422081.091 7        43.100    22722495.949 6 121422133.099 6        41.700    22722504.418 6  94439538.700 6        36.500    22722504.836 5  94439534.701 5        35.600
R19  21522720.047 8 115132007.491 8        48.500    21522719.117 7 115132099.503 7        47.000    21522724.555 7  89547217.190 7        43.400    21522724.840 7  89547215.194 7        43.100
R01  22825036.500 7 122012911.025 7        45.000    22825034.773 7 122012904.013 7        43.700    22825042.723 5  94898950.311 5        35.600    22825044.371 5  94898939.322 5        34.900
G06  22474287.227 7 118103264.738 7        45.800    22474299.582 5  92028625.65545        31.100
J01  37294990.844 6 195986633.317 6        36.700    37294990.906 6 195986372.321 6        39.800    37295004.129 5 152716925.500 5        35.400    37295011.766 7 146353757.099 7        42.600    37294997.75015 159079979.59115        33.700
E12  25351674.664 7 133224026.054 7        45.100    25351683.625 7  99485559.084 7        45.500    25351680.344 7 102080808.238 7        44.800    25351681.445 8 100783187.767 8        51.900
C01  36697571.688 7 191093892.300 7        44.400    36697564.922 8 147765897.463 8        48.100    36697559.438 7 155279439.909 7        47.300
C02  39034806.688 5 203264504.407 5        35.800    39034805.086 6 157177000.416 6        40.900    39034799.848 6 165169041.066 6        39.700
C03  37218258.242 7 193805215.405 7        42.400    37218255.309 7 149862455.708 7        46.800    37218249.242 7 157482601.995 7        47.300
C04  37510072.891 6 195324809.533 6        40.700    37510070.281 7 151037515.793 7        44.600    37510064.301 7 158717407.510 7        45.300
C07  36008480.305 7 187505614.172 7        47.300    36008476.273 8 144991210.112 8        49.500    36008467.313 8 152363649.705 8        49.800
C10  37271975.242 7 194084968.154 7        45.900    37271974.078 7 150078814.695 7        46.300    37271963.871 7 157709892.099 7        46.200
C06  41098017.71115 214008152.88415        31.900    41098025.01615 165484693.69115        33.800    41098014.25415 173899122.05515        34.300
C14  25582569.336 6 133215144.471 6        37.300    25582571.000 6 103010398.594 6        40.200    25582561.320 6 108248179.026 6        41.600
C08  37367278.305 7 194581264.114 7        45.700    37367275.207 7 150462601.653 7        46.600    37367267.004 8 158113194.218 8        48.100
C09  40602489.883 5 211427812.268 5        35.800    40602496.965 6 163489421.376 6        37.300    40602484.793 6 171802394.887 6        37.000
C05  40898681.31315 212970102.54815        32.200    40898684.55915 164682044.70215        32.500    40898677.59015 173055679.63415        34.900
> 2013  6 15  4  9 30.0000000  0 32
R21  22135795.563 7 118453664.202 7        46.800    22135795.184 7 118453389.210 7        45.100    22135802.766 6  92130330.176 6        36.200    22135802.734 5  92130338.179 5        35.600
R08  21909368.328 7 117323895.083 7        47.900    21909367.449 7 117323805.100 7        46.400    21909374.840 7  91251848.144 7        43.500    21909375.695 7  91251840.143 7        42.600
G21  24935673.555 6 131037875.919 6        36.100    24935686.910 2 102107480.61142        15.600
R09  21953592.641 8 117230727.416 8        48.200    21953591.910 7 117230970.415 7        46.500    21953598.430 7  91179658.317 7        43.100    21953600.512 6  91179654.330 6        41.300
G16  21602340.813 8 113521173.441 8        50.300    21602349.461 6  88458126.85746        38.100
G31  20897962.508 8 109819789.394 8        53.000    20897970.738 7  85573775.87247        44.300    20897970.465 8  85573777.866 8        49.600
G25  25344147.164 5 133184378.564 5        35.000    25344161.914 2 103780086.10642        17.800    25344161.770 5 103780086.123 5        35.700    25344164.465 7  99455909.148 7        42.700
G03  24427434.438 6 128367087.354 6        38.900    24427450.660 3 100026399.13543        21.500
G32  24371085.234 6 128070897.939 6        40.000    24371098.641 3  99795563.76443        22.800
G20  24989330.508 5 131319786.378 5        35.800    24989342.301 2 102327150.30742        17.400
R20  20086546.055 7 107411914.029 7        47.900    20086545.250 7 107411864.042 7        46.400    20086553.184 8  83542655.277 8        48.700    20086553.008 8  83542650.280 8        48.000
G14  22306478.016 7 117221290.381 7        45.500    22306488.762 5  91341361.41445        31.200
R07  23788118.328 6 127339614.607 6        40.300    23788116.703 6 127339574.604 6        39.400    23788132.637 6  99041890.833 6        36.500    23788132.074 6  99041884.827 6        36.600
G29  22601790.367 7 118773261.676 7        47.600    22601800.082 5  92550667.76345        34.100    22601799.863 7  92550661.753 7        43.000
R10  20548105.117 8 109532943.588 8        52.600    20548104.031 8 109533008.588 8        50.500    20548113.039 7  85192413.749 7        42.100    20548113.059 6  85192405.752 6        41.600
G23  24666354.313 6 129622588.361 6        40.400    24666363.816 3 101004651.36343        20.400
R11  22710236.766 7 121356562.670 7        43.200    22710234.422 7 121356614.678 7        42.000    22710244.156 6  94388580.017 6        36.100    22710243.898 5  94388576.021 5        35.700
R19  21534700.930 8 115196097.892 8        48.800    21534699.883 7 115196189.905 7        47.200    21534704.563 7  89597065.248 7        42.900    21534705.371 7  89597063.246 7        43.000
R01  22820903.297 7 121990820.570 7        44.600    22820902.508 7 121990813.577 7        43.000    22820911.086 6  94881768.822 6        36.500    22820911.984 5  94881757.834 5        34.900
G06  22454747.141 7 118000579.831 7        45.600    22454759.219 5  91948611.52845        31.400
J01  37294434.281 6 195983710.444 6        38.100    37294434.852 6 195983449.433 6        39.700    37294447.234 5 152714647.964 5        35.300    37294455.820 7 146351574.455 7        43.700    37294441.50815 159077607.24315        33.200
E12  25335841.352 7 133140819.763 7        45.900    25335850.113 7  99423424.589 7        45.800    25335846.410 7 102017052.837 7        44.400    25335848.059 8 100720242.823 8        51.900
C01  36697590.852 7 191093992.462 7        44.400    36697584.207 8 147765974.911 8        48.200    36697578.770 7 155279521.296 7        47.300
C02  39034900.695 6 203264992.450 6        36.200    39034899.016 6 157177377.800 6        41.100    39034893.422 6 165169437.634 6        39.900
C03  37218155.750 7 193804683.487 7        42.600    37218153.039 7 149862044.395 7        47.500    37218147.078 7 157482169.766 7        47.600
C04  37510073.813 6 195324815.069 6        40.900    37510071.957 7 151037520.059 7        45.400    37510065.191 7 158717411.998 7        45.400
C07  36005841.477 7 187491873.451 7        47.400    36005837.430 8 144980584.906 8        49.800    36005828.551 8 152352484.237 8        50.300
C10  37268198.281 7 194065300.414 7        46.000    37268197.148 7 150063606.361 7        46.800    37268186.922 7 157693910.455 7        46.100
C06  41105328.79715 214046223.10915        33.300    41105335.66415 165514132.02815        34.300    41105325.07415 173930057.26015        34.600
C14  25587367.547 6 133240129.117 6        38.300    25587369.195 6 103029718.220 6        40.700    25587359.359 6 108268481.042 6        41.700
C08  37361147.070 7 194549340.384 7        45.700    37361144.551 7 150437916.216 7        46.200    37361136.375 7 158087253.580 7        47.500
C09  40612914.977 6 211482093.739 6        37.400    40612921.730 6 163531394.963 6        38.400    40612908.680 5 171846502.815 5        35.200
> 2013  6 15  4 10  0.0000000  0 31
R21  22112465.000 7 118328813.673 7        45.600    22112463.797 7 118328538.678 7        44.600    22112471.027 6  92033224.361 6        37.100    22112471.609 5  92033232.357 5        35.800
R08  21923142.594 7 117397657.142 7        47.900    21923141.012 7 117397567.146 7        46.100    21923149.027 7  91309218.520 7        43.000    21923148.793 7  91309210.522 7        42.600
G21  24926449.664 6 130989406.346 6        37.200    24926463.176 2 102069712.17842        15.600
R09  21961973.227 8 117275475.284 8        48.100    21961972.262 7 117275718.263 7        46.700    21961978.074 6  91214462.142 6        41.400    21961979.719 6  91214458.147 6        40.900
G16  21594133.195 8 113478042.354 8        50.900    21594141.531 6  88424518.26546        38.600
G31  20898311.453 8 109821623.775 8        52.600    20898319.504 7  85575205.25347        44.900    20898319.633 8  85575207.254 8        49.500
G25  25360619.789 5 133270947.657 5        34.100    25360634.664 2 103847542.54642        14.800    25360634.469 5 103847542.481 5        32.900    25360637.922 6  99520554.831 6        40.400
G03  24405199.188 6 128250248.055 6        37.500    24405216.000 3  99935355.91743        19.900
G32  24380064.266 6 128118081.253 6        40.900    24380076.809 3  99832329.84243        21.700
G20  24994695.242 5 131347979.644 5        34.400    24994708.309 2 102349118.91842        17.800
R20  20076487.781 7 107358129.945 7        47.900    20076486.977 7 107358079.950 7        46.400    20076495.195 8  83500823.244 8        48.200    20076494.934 8  83500818.246 8        48.300
G14  22324817.188 7 117317664.380 7        46.000    22324827.895 5  91416457.92845        30.400
R07  23809851.234 6 127455956.425 6        40.500    23809850.078 6 127455916.444 6        39.200    23809866.434 6  99132378.448 6        38.000    23809866.035 6  99132372.450 6        37.300
G29  22615204.859 7 118843755.901 7        47.300    22615215.203 5  92605598.28145        35.200    22615214.594 7  92605592.270 7        43.800
R10  20544602.297 8 109514271.084 8        52.600    20544601.094 8 109514336.084 8        50.500    20544610.168 6  85177890.695 6        41.500    20544609.930 6  85177882.698 6        41.800
G23  24646775.273 6 129519697.780 6        40.400    24646784.656 3 100924476.97243        19.900
R11  22697967.492 7 121290997.989 7        43.700    22697965.855 7 121291049.980 7        42.100    22697975.227 6  94337585.336 6        36.900    22697974.961 5  94337581.344 5        35.900
R19  21546810.992 8 115260876.420 8        49.100    21546809.945 7 115260968.413 7        47.200    21546814.652 7  89647448.522 7        43.200    21546815.250 7  89647446.525 7        42.300
R01  22816902.914 7 121969439.296 7        44.500    22816901.773 7 121969432.318 7        43.700    22816910.578 5  94865138.922 5        35.900    22816911.559 5  94865127.929 5        35.800
G06  22435254.352 7 117898145.830 7        46.600    22435266.410 5  91868792.90845        31.900
J01  37293867.344 6 195980731.344 6        36.600    37293867.723 6 195980470.341 6        39.000    37293880.219 6 152712326.606 6        36.000    37293888.680 7 146349349.834 7        43.200    37293874.43015 159075189.22715        32.800
E12  25320033.531 7 133057749.476 7        46.000    25320042.453 7  99361391.648 7        46.000    25320038.141 7 101953401.635 7        44.600    25320040.270 8 100657400.749 8        51.700
C01  36697610.563 7 191094095.368 7        44.500    36697604.090 7 147766054.477 7        47.800    36697598.582 7 155279604.918 7        46.600
C02  39034995.078 5 203265482.562 5        35.800    39034992.855 6 157177756.784 6        40.500    39034987.484 6 165169835.889 6        39.600
C03  37218054.047 7 193804153.568 7        42.600    37218051.098 7 149861634.624 7        47.200    37218045.242 8 157481739.167 8        48.000
C04  37510075.297 6 195324822.210 6        40.900    37510073.355 7 151037525.576 7        45.200    37510066.805 7 158717417.801 7        45.800
C07  36003204.539 7 187478142.991 7        47.200    36003200.336 8 144969967.636 8        49.700    36003191.426 8 152341327.107 8        50.300
C10  37264416.023 7 194045607.866 7        45.300    37264415.434 7 150048378.837 7        46.300    37264405.020 7 157677908.653 7        45.800
C14  25592234.969 6 133265473.944 6        39.000    25592236.777 6 103049316.376 6        41.500    25592227.152 6 108289075.719 6        41.800
C08  37355040.781 7 194517540.463 7        45.700    37355037.668 7 150413326.519 7        45.800    37355029.383 7 158061413.556 7        47.300
C09  40623326.547 6 211536309.982 6        36.700    40623333.605 6 163573318.131 6        38.100    40623319.973 5 171890557.770 5        33.800
> 2013  6 15  4 10 30.0000000  0 32
R21  22089172.734 7 118204173.286 7        45.900    22089171.770 7 118203898.301 7        45.300    22089179.660 6  91936281.993 6        37.200    22089180.141 6  91936289.995 6        36.200
R08  21937005.406 8 117471889.968 8        48.200    21937004.293 7 117471799.970 7        46.800    21937012.207 7  91366955.083 7        42.700    21937012.270 7  91366947.083 7        42.100
G21  24917236.641 6 130940991.961 6        37.000    24917250.418 2 102031986.81042        16.900
R09  21970378.328 7 117320357.771 7        47.500    21970376.660 7 117320600.785 7        45.800    21970383.371 6  91249370.661 6        41.300    21970384.848 6  91249366.666 6        40.700
G16  21585987.656 8 113435238.404 8        50.900    21585996.238 6  88391164.58246        38.400
G31  20898700.539 8 109823669.362 8        52.700    20898708.906 7  85576799.21247        43.400    20898708.418 8  85576801.213 8        49.800
G25  25377075.148 6 133357415.714 6        36.700    25377089.766 2 103914920.12642        15.600    25377089.910 5 103914920.107 5        35.900    25377092.492 7  99585125.050 7        42.400
G03  24382976.000 6 128133460.063 6        38.800    24382991.742 3  99844352.64143        21.500
G32  24389089.281 6 128165508.577 6        40.800    24389101.512 3  99869286.09343        21.300
G20  25000125.797 5 131376520.284 5        32.800    25000138.891 2 102371358.26242        17.400
R20  20066567.930 7 107305082.838 7        47.800    20066566.773 7 107305032.850 7        46.100    20066575.574 8  83459564.412 8        48.600    20066574.910 8  83459559.415 8        48.000
G14  22343212.773 7 117414334.313 7        46.000    22343223.605 5  91491785.06245        31.000
R07  23831564.828 6 127572188.141 6        38.500    23831564.023 6 127572148.182 6        37.900    23831580.355 6  99222780.405 6        38.100    23831579.961 6  99222774.415 6        37.100
G29  22628700.352 7 118914675.025 7        47.200    22628710.762 5  92660859.88945        34.800    22628710.418 7  92660853.879 7        43.700
R10  20541119.781 8 109495706.094 8        52.500    20541118.227 8 109495771.094 8        50.900    20541126.945 6  85163451.256 6        41.700    20541126.762 6  85163443.259 6        41.100
G23  24627228.234 6 129416982.933 6        39.700    24627237.781 3 100844439.51643        19.900
R11  22685689.016 7 121225387.351 7        44.300    22685687.023 7 121225439.349 7        42.600    22685696.289 6  94286554.902 6        36.600    22685696.016 6  94286550.911 6        36.200
R19  21559048.742 8 115326339.785 8        48.400    21559046.992 7 115326431.792 7        47.800    21559052.648 7  89698364.465 7        43.600    21559052.961 7  89698362.462 7        42.700
R01  22813035.258 7 121948767.601 7        44.700    22813035.172 7 121948760.605 7        42.600    22813043.645 6  94849060.942 6        36.600    22813045.023 5  94849049.953 5        34.900
G06  22415810.172 7 117795965.400 7        46.600    22415822.199 5  91789171.88245        31.000
J01  37293289.984 6 195977696.214 6        36.000    37293290.047 6 195977435.204 6        38.700    37293302.352 5 152709961.593 5        35.500    37293311.164 7 146347083.370 7        43.100    37293296.79315 159072725.53015        33.400
E12  25304251.695 7 132974817.084 7        45.700    25304260.707 7  99299461.693 7        46.000    25304256.723 7 101889856.100 7        44.300    25304258.598 8 100594663.001 8        51.900
C01  36697630.914 7 191094201.066 7        44.400    36697624.238 8 147766136.202 8        48.000    36697618.711 7 155279690.792 7        47.200
C02  39035088.930 6 203265974.750 6        36.000    39035087.406 6 157178137.381 6        41.700    39035082.008 6 165170235.842 6        39.400
C03  37217953.109 7 193803625.655 7        42.700    37217950.164 7 149861226.407 7        47.600    37217944.223 7 157481310.185 7        47.700
C04  37510076.953 6 195324830.916 6        40.900    37510074.758 7 151037532.303 7        45.300    37510068.387 7 158717424.864 7        45.100
C07  36000570.227 7 187464423.290 7        46.800    36000565.809 8 144959358.686 8        49.800    36000556.988 8 152330178.721 8        50.700
C10  37260630.164 7 194025890.783 7        45.800    37260628.414 7 150033132.342 7        46.000    37260618.367 7 157661886.911 7        46.300
C14  25597170.375 6 133291177.220 6        37.700    25597173.027 7 103069191.687 7        42.000    25597162.375 6 108309961.694 6        41.300
C08  37348957.563 7 194485864.521 7        45.300    37348954.848 7 150388832.676 7        46.000    37348946.258 7 158035674.267 7        47.400
C09  40633725.359 6 211590460.259 6        37.300    40633732.727 6 163615190.278 6        37.600    40633719.699 5 171934559.120 5        34.600
C05  40898410.33615 212968728.60115        33.000    40898414.19515 164681020.94415        34.400    40898406.19115 173054541.40015        35.400
> 2013  6 15  4 11  0.0000000  0 31
R21  22065920.352 7 118079746.404 7        46.100    22065919.270 7 118079471.407 7        45.000    22065926.738 5  91839505.654 5        35.500    22065926.496 5  91839513.657 5        35.100
R08  21950955.883 8 117546588.668 8        48.700    21950953.594 7 117546498.700 7        46.800    21950960.754 7  91425053.967 7        43.500    21950960.832 7  91425045.967 7        43.300
G21  24908034.523 6 130892634.655 6        37.700    24908048.234 2 101994305.91142        17.800
R09  21978807.547 7 117365375.573 7        46.900    21978807.523 7 117365618.593 7        45.700    21978814.320 6  91284384.427 6        41.300    21978815.637 6  91284380.429 6        40.800
G16  21577904.000 8 113392760.792 8        51.000    21577912.703 6  88358065.19046        38.300
G31  20899130.352 8 109825927.000 8        52.100    20899138.867 7  85578558.40147        44.400    20899138.617 8  85578560.402 8        49.900
G25  25393509.453 6 133443781.642 6        37.600    25393524.867 2 103982218.16942        16.900    25393524.512 5 103982218.150 5        34.800    25393527.008 7  99649618.990 7        42.200
G03  24360761.867 6 128016725.347 6        38.900    24360777.496 3  99753390.92543        21.700
G32  24398160.352 6 128213176.678 6        40.700    24398172.672 3  99906429.94043        20.400
G20  25005623.516 5 131405405.469 5        33.500    25005635.090 3 102393866.09643        18.300
R20  20056785.398 7 107252774.914 7        47.800    20056784.594 7 107252724.919 7        46.200    20056792.453 8  83418880.487 8        48.400    20056792.215 8  83418875.497 8        48.100
G14  22361663.977 7 117511297.185 7        45.200    22361675.242 5  91567340.44145        30.700
R07  23853257.336 6 127688305.547 6        39.800    23853255.711 6 127688265.575 6        39.100    23853271.891 6  99313093.492 6        37.300    23853271.559 6  99313087.482 6        36.900
G29  22642276.492 7 118986016.278 7        47.700    22642286.227 5  92716450.43045        34.600    22642285.922 7  92716444.428 7        43.400
R10  20537656.984 8 109477248.784 8        52.400    20537655.664 8 109477313.777 8        51.000    20537664.840 7  85149095.573 7        42.200    20537664.367 6  85149087.576 6        41.800
G23  24607716.875 6 129314446.288 6        41.000    24607726.441 3 100764540.93343        21.300
R11  22673402.172 7 121159730.176 7        44.700    22673401.004 7 121159782.170 7        42.400    22673409.320 6  94235488.290 6        37.600    22673409.867 5  94235484.291 5        35.600
R19  21571414.063 8 115392484.941 8        48.800    21571413.133 7 115392576.948 7        47.000    21571418.668 7  89749810.663 7        43.600    21571419.160 7  89749808.667 7        42.700
R01  22809301.188 7 121928805.121 7        43.700    22809300.750 7 121928798.101 7        42.700    22809309.254 5  94833534.547 5        35.800    22809310.117 5  94833523.559 5        34.900
G06  22396414.445 7 117694040.650 7        46.400    22396426.422 5  91709750.09645        32.400
J01  37292700.484 5 195974604.633 5        35.400    37292701.613 6 195974343.623 6        39.100    37292713.902 5 152707552.596 5        35.300    37292722.402 7 146344774.738 7        43.000    37292708.328 5 159070216.173 5        32.800
E12  25288496.617 7 132892023.920 7        45.700    25288505.438 7  99237635.707 7        46.000    25288501.453 7 101826417.251 7        44.400    25288503.430 8 100532030.583 8        52.000
C01  36697651.594 7 191094309.020 7        44.400    36697645.293 7 147766219.669 7        47.800    36697639.875 7 155279778.508 7        47.000
C02  39035184.008 5 203266468.459 5        35.700    39035182.160 6 157178519.164 6        40.500    39035176.781 6 165170637.029 6        39.500
C03  37217851.836 7 193803099.286 7        42.600    37217849.004 7 149860819.394 7        47.100    37217842.922 7 157480882.470 7        47.500
C04  37510079.227 6 195324840.678 6        40.900    37510076.895 7 151037539.856 7        45.200    37510070.340 7 158717432.808 7        45.800
C07  35997937.242 7 187450714.318 7        47.800    35997933.070 8 144948758.036 8        49.200    35997924.270 8 152319039.052 8        50.200
C10  37256838.789 7 194006149.047 7        46.200    37256837.695 7 150017866.770 7        46.100    37256827.680 7 157645845.125 7        46.500
C14  25602174.453 6 133317236.973 6        37.900    25602177.523 7 103089342.649 7        42.200    25602167.441 7 108331137.301 7        42.000
C08  37342898.219 7 194454312.166 7        45.400    37342895.434 7 150364434.427 7        45.300    37342886.684 7 158010035.416 7        46.800
C09  40644111.563 5 211644543.626 5        35.500    40644119.297 6 163657010.671 6        37.100    40644106.566 5 171978506.077 5        35.900
> 2013  6 15  4 11 30.0000000  0 31
R21  22042708.891 7 117955538.629 7        46.100    22042707.688 7 117955263.643 7        44.800    22042715.078 6  91742899.754 6        36.500    22042715.219 5  91742907.751 5        35.800
R08  21964990.555 8 117621750.169 8        48.300    21964990.027 7 117621660.187 7        46.700    21964997.391 7  91483512.815 7        43.200    21964997.574 7  91483504.813 7        42.900
G21  24898844.672 6 130844338.172 6        38.400    24898858.441 3 101956672.35143        18.300
R09  21987264.695 7 117410530.856 7        46.800    21987263.613 7 117410773.864 7        44.900    21987269.477 6  91319505.100 6        41.700    21987271.605 6  91319501.111 6        41.100
G16  21569883.219 8 113350609.957 8        51.200    21569892.078 6  88325220.42546        38.300
G31  20899600.867 8 109828398.591 8        51.200    20899609.316 7  85580484.30247        44.300    20899609.051 8  85580486.303 8        49.900
G25  25409925.07815 133530045.89015        35.300    25409941.33612 104049436.85552        16.300    25409940.45716 104049436.90316        36.000    25409942.36316  99714036.96016        41.800
G03  24338558.688 6 127900046.947 6        39.200    24338573.934 3  99662473.10243        21.700
G32  24407276.320 6 128261084.180 6        40.000    24407289.215 3  99943760.34943        21.100
G20  25011184.938 5 131434634.011 5        33.100    25011197.754 2 102416641.43442        17.400
R20  20047143.367 7 107201210.151 7        47.500    20047142.211 7 107201160.149 7        46.400    20047150.473 8  83378774.594 8        48.700    20047150.051 8  83378769.604 8        48.000
G14  22380171.039 7 117608551.936 7        44.700    22380182.016 4  91643123.24444        29.400
R07  23874927.250 6 127804305.742 6        41.500    23874926.328 6 127804265.751 6        39.200    23874941.676 6  99403315.418 6        37.000    23874941.785 6  99403309.423 6        36.600
G29  22655932.305 7 119057778.193 7        47.100    22655942.531 5  92772368.75545        34.300    22655941.859 7  92772362.749 7        43.400
R10  20534215.227 8 109458901.533 8        52.000    20534213.789 8 109458966.518 8        51.200    20534222.480 7  85134825.503 7        42.000    20534222.461 6  85134817.506 6        41.300
G23  24588238.836 6 129212091.185 6        40.400    24588248.340 3 100684783.79243        18.300
R11  22661107.297 7 121094027.570 7        43.800    22661105.895 7 121094079.601 7        42.700    22661114.336 6  94184386.317 6        36.400    22661114.680 6  94184382.325 6        36.300
R19  21583905.844 8 115459310.037 8        48.000    21583904.797 7 115459402.044 7        47.400    21583910.336 7  89801785.716 7        43.600    21583910.680 7  89801783.720 7        42.400
R01  22805700.453 7 121909552.972 7        44.300    22805698.961 7 121909545.977 7        42.600    22805708.555 6  94818560.655 6        36.200    22805708.730 6  94818549.662 6        36.500
G06  22377068.227 7 117592375.557 7        46.800    22377079.727 5  91630530.62945        30.900
J01  37292102.375 6 195971457.710 6        37.100    37292102.480 6 195971196.708 6        38.400    37292115.234 5 152705100.458 5        35.800    37292123.574 7 146342424.797 7        43.000    37292109.32015 159067661.73715        34.100
E12  25272768.523 7 132809372.946 7        46.500    25272777.418 7  99175915.893 7        45.900    25272773.570 7 101763087.348 7        44.500    25272775.398 8 100469505.726 8        52.100
C01  36697673.141 7 191094420.225 7        44.600    36697666.543 8 147766305.654 8        48.000    36697661.168 7 155279868.866 7        47.500
C02  39035279.711 5 203266964.845 5        35.900    39035277.813 6 157178903.003 6        40.700    39035272.082 6 165171040.385 6        39.500
C03  37217751.063 7 193802575.488 7        42.600    37217748.168 7 149860414.359 7        47.300    37217742.363 7 157480456.838 7        47.600
C04  37510081.180 6 195324852.635 6        40.900    37510078.906 7 151037549.087 7        46.400    37510072.555 7 158717442.512 7        45.800
C07  35995306.828 8 187437017.562 8        48.000    35995302.887 8 144938166.827 8        49.900    35995293.898 8 152307909.311 8        50.600
C10  37253043.109 7 193986384.140 7        45.900    37253042.039 7 150002583.310 7        46.200    37253032.039 7 157629784.529 7        46.100
C14  25607247.227 6 133343652.395 6        37.900    25607250.922 6 103109768.637 6        41.300    25607240.043 6 108352601.913 6        41.200
C08  37336862.984 7 194422884.816 7        45.800    37336859.969 7 150340132.819 7        46.300    37336850.961 7 157984498.126 7        46.600
C09  40654485.758 5 211698560.539 5        34.700    40654493.141 6 163698779.672 6        37.300    40654480.344 6 172022398.991 6        36.500
> 2013  6 15  4 12  0.0000000  0 31
R21  22019539.438 7 117831553.318 7        45.300    22019537.766 7 117831278.334 7        44.500    22019545.957 6  91646466.871 6        37.100    22019546.090 6  91646474.869 6        36.400
R08  21979111.344 8 117697368.975 8        48.200    21979110.816 7 117697278.979 7        46.600    21979118.512 7  91542327.321 7        43.800    21979118.621 7  91542319.321 7        43.000
G21  24889665.586 6 130796103.608 6        38.100    24889679.141 2 101919087.10242        17.400
R09  21995745.836 7 117455823.186 7        46.900    21995745.340 7 117456066.177 7        45.100    21995751.996 6  91354732.388 6        41.100    21995753.547 6  91354728.392 6        40.400
G16  21561924.172 8 113308784.162 8        50.600    21561932.695 6  88292628.94746        38.700
G31  20900111.813 8 109831083.841 8        51.000    20900119.605 7  85582576.69947        43.900    20900119.723 8  85582578.700 8        49.300
G25  25426321.586 6 133616206.636 6        36.900    25426337.258 3 104116575.12243        18.300    25426336.102 6 104116575.117 6        36.600    25426337.820 7  99778377.726 7        42.500
G03  24316366.320 6 127783425.934 6        38.300    24316380.902 3  99571599.94743        21.500
G32  24416437.875 6 128309227.189 6        40.200    24416451.016 3  99981274.26943        21.500
G20  25016811.59415 131464202.45015        34.200    25016825.15612 102439681.62052        16.900
R20  20037638.961 7 107150390.027 7        47.900    20037638.508 7 107150340.032 7        46.500    20037646.910 8  83339247.863 8        48.200    20037646.430 8  83339242.866 8        48.000
G14  22398733.109 7 117706094.153 7        45.000    22398743.984 5  91719130.06645        30.700
R07  23896576.453 6 127920183.681 6        40.600    23896574.711 6 127920143.700 6        39.200    23896589.535 6  99493442.318 6        37.200    23896589.500 5  99493436.308 5        35.500
G29  22669667.063 7 119129957.022 7        47.700    22669677.738 5  92828611.95445        35.100    22669677.305 7  92828605.944 7        44.100
R10  20530794.328 8 109440664.565 8        52.600    20530792.656 8 109440729.571 8        51.100    20530801.805 7  85120641.189 7        42.000    20530801.066 6  85120633.192 6        41.600
G23  24568796.023 6 129109919.089 6        40.500    24568805.777 3 100605169.24243        20.900
R11  22648801.672 7 121028278.138 7        44.900    22648801.090 7 121028330.166 7        42.700    22648810.387 6  94133247.940 6        36.500    22648810.246 6  94133243.949 6        36.200
R19  21596525.180 8 115526810.898 8        49.000    21596524.016 7 115526902.910 7        46.800    21596528.848 7  89854286.368 7        42.800    21596529.590 7  89854284.372 7        43.100
R01  22802231.969 7 121891010.194 7        44.000    22802230.477 7 121891003.198 7        43.000    22802238.719 6  94804138.473 6        36.600    22802240.492 5  94804127.480 5        35.600
G06  22357771.742 7 117490971.299 7        46.900    22357782.984 5  91551514.41345        31.700
J01  37291492.95316 195968254.38116        36.200    37291492.77716 195967993.38016        38.500    37291506.05515 152702604.38215        35.800    37291514.02017 146340032.72917        43.400    37291500.70715 159065061.83415        33.600
E12  25257067.516 7 132726864.729 7        46.100    25257076.863 7  99114302.695 7        46.600    25257072.645 7 101699866.835 7        45.200    25257074.465 8 100407088.871 8        52.300
C01  36697695.063 7 191094533.476 7        44.500    36697688.293 8 147766393.220 8        48.400    36697682.719 7 155279960.883 7        47.300
C02  39035374.453 6 203267462.493 6        36.100    39035373.121 6 157179287.816 6        41.600    39035367.605 6 165171444.760 6        39.300
C03  37217650.781 7 193802052.906 7        42.700    37217647.867 7 149860010.269 7        47.200    37217642.109 7 157480032.201 7        47.700
C04  37510083.680 6 195324865.340 6        41.000    37510081.180 7 151037558.906 7        45.900    37510074.992 7 158717452.826 7        45.600
C07  35992678.586 8 187423332.152 8        48.600    35992674.434 8 144927584.394 8        49.600    35992665.641 8 152296788.790 8        50.800
C10  37249242.578 7 193966595.128 7        46.200    37249241.582 7 149987281.197 7        46.400    37249231.762 7 157613704.342 7        46.100
C14  25612388.672 6 133370420.523 6        38.200    25612391.234 6 103130467.360 6        40.800    25612380.328 6 108374353.124 6        40.800
C08  37330851.648 7 194391581.170 7        46.000    37330848.781 7 150315926.877 7        46.000    37330839.781 7 157959061.362 7        47.500
C09  40664846.766 6 211752509.003 6        36.300    40664853.602 5 163740495.772 5        35.400    40664841.141 6 172066236.300 6        37.300
> 2013  6 15  4 12 30.0000000  0 31
R21  21996412.242 7 117707795.265 7        46.000    21996411.512 7 117707520.289 7        44.700    21996419.641 6  91550210.749 6        37.500    21996419.660 6  91550218.745 6        36.400
R08  21993318.734 7 117773441.657 7        47.600    21993317.621 7 117773351.663 7        46.500    21993325.328 7  91601494.862 7        43.700    21993325.547 7  91601486.862 7        42.900
G21  24880499.109 6 130747934.151 6        37.300    24880512.617 2 101881552.51942        17.400
R09  22004253.969 7 117501254.301 7        47.700    22004253.121 7 117501497.306 7        45.200    22004260.422 6  91390067.617 6        40.600    22004261.113 6  91390063.622 6        40.200
G16  21554026.719 8 113267283.556 8        51.500    21554035.305 6  88260290.85546        38.400
G31  20900663.734 8 109833984.758 8        52.100    20900672.090 7  85584837.15047        44.500    20900671.770 8  85584839.144 8        49.800
G03  24294185.125 6 127666865.526 6        39.200    24294200.199 3  99480773.95343        20.400
G32  24425644.859 6 128357603.980 6        41.600    24425657.785 3 100018970.34843        22.200
G20  25022503.883 5 131494109.735 5        35.900    25022515.793 3 102462985.88743        18.300
R20  20028275.344 7 107100318.214 7        47.800    20028274.891 7 107100268.218 7        45.700    20028283.043 8  83300303.150 8        48.700    20028282.914 8  83300298.152 8        48.800
G14  22417349.102 7 117803922.355 7        45.300    22417360.387 5  91795359.71845        30.700
R07  23918199.617 6 128035936.085 6        39.700    23918198.578 6 128035896.108 6        38.400    23918214.016 6  99583471.570 6        36.900    23918213.926 6  99583465.580 6        36.400
G29  22683481.586 7 119202551.196 7        47.200    22683492.125 5  92885178.79445        34.700    22683491.680 7  92885172.784 7        44.200
R10  20527393.750 8 109422539.297 8        51.800    20527392.195 8 109422604.291 8        51.000    20527400.715 6  85106543.755 6        41.400    20527400.809 6  85106535.766 6        41.500
G23  24549389.109 6 129007933.395 6        37.900    24549398.398 3 100525700.01843        19.000
R11  22636489.914 7 120962482.920 7        43.900    22636488.863 7 120962534.936 7        42.400    22636498.098 6  94082073.946 6        36.300    22636497.465 5  94082069.953 5        35.200
R19  21609269.492 8 115594985.466 8        49.100    21609268.094 7 115595077.472 7        47.900    21609273.730 7  89907311.020 7        43.300    21609273.863 7  89907309.023 7        42.600
R01  22798895.625 7 121873177.302 7        44.800    22798895.188 7 121873170.312 7        43.400    22798904.016 6  94790268.440 6        36.600    22798904.898 5  94790257.444 5        35.500
G06  22338524.984 7 117389831.394 7        46.200    22338536.531 5  91472704.18245        32.300
J01  37290872.359 5 195964995.439 5        34.500    37290872.914 6 195964734.438 6        37.900    37290885.922 5 152700064.967 5        35.300    37290894.168 7 146337599.135 7        43.000    37290880.266 5 159062416.504 5        32.900
E12  25241394.250 7 132644501.940 7        46.500    25241403.215 7  99052798.100 7        46.200    25241399.371 7 101636757.763 7        44.600    25241401.152 8 100344782.039 8        52.300
C01  36697717.289 7 191094649.586 7        44.500    36697710.520 8 147766482.990 8        48.000    36697705.125 7 155280055.226 7        47.500
C02  39035470.664 6 203267962.213 6        36.100    39035469.020 6 157179674.235 6        41.300    39035463.734 6 165171850.833 6        39.200
C03  37217550.695 7 193801532.384 7        42.600    37217547.996 7 149859607.769 7        46.400    37217542.141 7 157479609.235 7        47.600
C04  37510086.266 6 195324879.649 6        40.900    37510084.086 7 151037569.959 7        45.200    37510077.535 7 158717464.444 7        45.400
C07  35990053.180 8 187409659.438 8        48.700    35990048.680 8 144917011.781 8        49.500    35990040.031 8 152285678.591 8        50.700
C10  37245438.031 7 193946783.170 7        46.500    37245437.098 7 149971961.338 7        46.700    37245427.168 7 157597605.501 7        47.100
C14  25617596.648 6 133397540.669 6        37.900    25617599.602 6 103151438.280 6        41.100    25617588.492 6 108396390.367 6        40.700
C08  37324863.664 7 194360402.183 7        45.700    37324860.961 7 150291817.324 7        46.100    37324852.211 7 157933725.897 7        47.300
C09  40675193.719 6 211806389.138 6        36.100    40675200.027 5 163782159.034 5        35.400    40675188.789 6 172110018.076 6        37.500
C05  40898052.82015 212966855.15515        31.900    40898056.11315 164679521.32115        34.200    40898049.17215 173053027.62215        35.800
> 2013  6 15  4 13  0.0000000  0 30
R21  21973328.281 7 117584269.538 7        46.000    21973327.316 7 117583994.557 7        45.200    21973334.953 6  91454135.311 6        37.300    21973335.563 6  91454143.309 6        36.800
R08  22007608.516 7 117849964.173 7        47.600    22007607.402 7 117849874.183 7        46.200    22007614.797 7  91661012.275 7        43.200    22007615.375 7  91661004.275 7        43.000
G21  24871344.648 6 130699832.346 6        37.600    24871358.875 2 101844070.65942        17.400
R09  22012788.336 7 117546825.614 7        47.800    22012787.254 7 117547068.628 7        46.300    22012794.063 6  91425511.900 6        41.400    22012795.273 6  91425507.899 6        40.800
G16  21546191.461 8 113226107.898 8        50.600    21546199.848 6  88228205.96746        38.500
G31  20901256.906 8 109837102.680 8        52.400    20901265.461 7  85587266.68647        44.000    20901265.047 8  85587268.687 8        49.900
G03  24272016.391 6 127550368.242 6        40.000    24272031.594 3  99389997.15243        21.800
G32  24434894.891 7 128406212.331 7        42.200    24434907.602 3 100056846.88843        22.200
G20  25028258.031 5 131524353.799 5        34.900    25028272.230 3 102486552.50843        18.300
R20  20019052.523 7 107050997.603 7        47.800    20019051.250 7 107050947.600 7        46.300    20019059.633 8  83261942.699 8        48.400    20019059.738 8  83261937.702 8        48.500
G14  22436019.586 7 117902034.422 7        44.900    22436030.414 5  91871810.56745        31.000
R07  23939798.906 6 128151559.921 6        40.600    23939797.398 6 128151519.918 6        39.000    23939813.746 6  99673400.898 6        37.200    23939813.711 6  99673394.895 6        36.400
G29  22697374.688 7 119275558.793 7        47.200    22697384.586 5  92942067.79045        34.800    22697384.156 7  92942061.783 7        43.900
R10  20524014.305 8 109404527.140 8        52.500    20524013.219 8 109404592.132 8        51.000    20524022.059 7  85092534.306 7        42.200    20524021.816 6  85092526.309 6        41.200
G23  24530017.523 6 128906137.279 6        40.200    24530026.207 3 100446378.39843        18.600
R11  22624168.086 7 120896642.184 7        42.600    22624166.918 6 120896694.185 6        41.600    22624176.352 6  94030864.580 6        37.600    22624176.215 6  94030860.581 6        36.000
R19  21622139.500 8 115663830.930 8        48.200    21622137.867 7 115663922.943 7        47.500    21622143.012 7  89960857.475 7        43.200    21622143.742 7  89960855.478 7        42.400
R01  22795692.867 7 121856054.792 7        44.600    22795691.258 7 121856047.813 7        43.300    22795699.957 6  94776950.900 6        37.700    22795700.895 5  94776939.904 5        35.900
G06  22319329.250 7 117288958.765 7        46.300    22319340.879 5  91394102.22245        32.100
J01  37290241.219 5 195961681.276 5        35.500    37290241.738 6 195961420.275 6        38.700    37290255.020 5 152697482.521 5        35.500    37290262.973 7 146335124.313 7        42.600    37290249.305 5 159059726.535 5        33.900
E12  25225749.531 7 132562286.758 7        46.300    25225758.141 7  98991403.717 7        46.100    25225754.484 7 101573761.779 7        45.100    25225756.051 8 100282586.852 8        52.100
C01  36697740.000 7 191094768.838 7        44.500    36697733.711 7 147766575.197 7        47.700    36697728.141 7 155280152.119 7        46.700
C02  39035567.297 5 203268464.373 5        35.900    39035565.449 6 157180062.542 6        40.800    39035559.977 6 165172258.884 6        39.600
C03  37217451.344 7 193801014.166 7        42.800    37217448.609 7 149859207.053 7        47.200    37217442.625 8 157479188.136 8        48.300
C04  37510089.594 6 195324895.860 6        41.100    37510087.441 7 151037582.488 7        45.700    37510080.984 7 158717477.609 7        45.900
C07  35987430.266 7 187396000.294 7        47.900    35987425.852 8 144906449.660 8        49.400    35987417.098 8 152274579.415 8        50.200
C10  37241629.086 7 193926948.864 7        46.400    37241627.969 7 149956624.202 7        46.000    37241618.102 7 157581488.506 7        46.500
C14  25622872.703 6 133425011.234 6        38.300    25622874.773 6 103172680.156 6        40.200    25622863.750 6 108418712.348 6        41.100
C08  37318900.523 7 194329348.402 7        46.400    37318897.680 7 150267804.577 7        46.200    37318888.664 7 157908492.171 7        47.000
C09  40685527.555 5 211860200.788 5        35.700    40685534.348 5 163823769.343 5        34.400    40685523.465 6 172153744.192 6        36.900
> 2013  6 15  4 13 30.0000000  0 30
R21  21950288.695 7 117460979.085 7        46.100    21950287.375 7 117460704.093 7        45.200    21950294.691 6  91358242.864 6        36.300    21950295.438 6  91358250.860 6        36.300
R08  22021981.719 7 117926931.658 7        47.300    22021980.254 7 117926841.690 7        46.400    22021988.520 7  91720875.775 7        43.000    22021988.582 7  91720867.775 7        42.700
G21  24862205.266 6 130651799.865 6        36.900    24862219.590 2 101806642.87442        17.400
R09  22021348.609 7 117592537.287 7        47.300    22021347.293 7 117592780.265 7        45.900    22021354.980 7  91461065.324 7        42.500    22021356.160 6  91461061.329 6        41.600
G16  21538417.258 8 113185256.365 8        50.000    21538425.336 6  88196373.64946        38.600
G31  20901891.344 8 109840437.787 8        52.400    20901899.867 7  85589865.46747        43.800    20901899.461 8  85589867.468 8        49.800
G03  24249859.758 6 127433935.917 6        40.800    24249875.090 3  99299271.03643        23.000
G32  24444188.305 6 128455048.912 6        41.600    24444201.656 3 100094901.24143        22.200
G20  25034077.078 5 131554931.946 5        34.500    25034090.344 3 102510379.53343        18.600
R20  20009969.461 7 107002430.080 7        47.600    20009969.242 7 107002380.077 7        45.900    20009977.406 8  83224167.985 8        48.100    20009976.922 8  83224162.995 8        48.000
G14  22454743.211 7 118000427.028 7        45.600    22454753.750 5  91948480.01245        30.000
R07  23961373.414 6 128267050.486 6        40.900    23961372.141 6 128267010.505 6        39.800    23961388.305 6  99763226.610 6        36.500    23961388.191 5  99763220.605 5        35.400
G29  22711345.617 7 119348976.854 7        47.000    22711355.305 5  92999276.63145        34.700    22711354.711 7  92999270.616 7        44.000
R10  20520657.438 8 109386628.833 8        53.000    20520655.766 8 109386693.826 8        51.200    20520664.285 7  85078613.395 7        42.400    20520664.270 7  85078605.406 7        42.300
G23  24510682.258 6 128804532.505 6        39.100    24510691.488 3 100367205.93343        19.900
R11  22611838.555 7 120830755.475 7        42.000    22611836.680 6 120830807.463 6        41.400    22611845.762 6  93979619.436 6        36.500    22611845.582 5  93979615.444 5        35.800
R19  21635133.586 8 115733343.599 8        48.500    21635132.188 7 115733435.605 7        47.200    21635137.863 7  90014922.871 7        43.600    21635138.336 7  90014920.875 7        43.100
R01  22792622.125 7 121839641.951 7        45.500    22792620.750 7 121839634.960 7        43.600    22792629.324 6  94764185.348 6        36.400    22792631.035 5  94764174.355 5        35.400
G06  22300185.117 7 117188355.299 7        46.000    22300197.160 5  91315710.00545        32.200
J01  37289599.891 6 195958311.422 6        36.900    37289600.945 6 195958050.421 6        38.200    37289613.652 5 152694856.683 5        35.300    37289621.621 7 146332607.901 7        43.100    37289607.254 5 159056991.254 5        32.600
E12  25210132.172 7 132480220.266 7        46.500    25210141.691 7  98930120.376 7        46.100    25210137.707 7 101510879.719 7        44.800    25210139.336 8 100220504.152 8        52.300
C01  36697763.227 7 191094890.382 7        44.600    36697756.711 7 147766669.177 7        47.900    36697751.074 7 155280250.879 7        47.200
C02  39035664.094 6 203268968.113 6        36.000    39035662.227 6 157180452.068 6        41.100    39035656.918 6 165172668.212 6        40.100
C03  37217352.391 7 193800497.594 7        42.800    37217349.070 7 149858807.600 7        46.900    37217343.250 7 157478768.384 7        47.700
C04  37510093.109 6 195324913.235 6        41.000    37510090.629 7 151037595.910 7        45.300    37510084.164 7 158717491.720 7        45.500
C07  35984809.070 8 187382354.205 8        48.400    35984805.051 8 144895897.639 8        50.000    35984796.301 8 152263490.853 8        50.700
C10  37237815.742 7 193907092.018 7        46.400    37237814.605 7 149941269.627 7        46.600    37237804.719 7 157565353.203 7        46.700
C14  25628215.094 6 133452829.921 6        37.900    25628216.531 6 103194191.214 6        40.800    25628206.051 6 108441317.239 6        41.000
C08  37312960.594 7 194298419.250 7        45.700    37312957.879 7 150243888.216 7        46.700    37312949.004 7 157883359.718 7        47.300
C09  40695848.789 6 211913942.553 6        36.600    40695855.594 5 163865325.614 5        34.500    40695843.965 6 172197413.530 6        36.700
> 2013  6 15  4 14  0.0000000  0 30
R21  21927292.727 7 117337928.750 7        46.300    21927293.168 7 117337653.749 7        45.100    21927299.957 6  91262537.176 6        38.400    21927300.816 6  91262545.174 6        37.600
R08  22036436.609 7 118004339.794 7        47.600    22036435.965 7 118004249.811 7        46.600    22036443.914 7  91781081.985 7        42.800    22036443.813 7  91781073.985 7        42.200
G21  24853078.125 5 130603839.427 5        35.300    24853092.555 2 101769271.13342        17.800
R09  22029935.063 7 117638390.135 7        47.600    22029934.688 7 117638633.141 7        46.000    22029941.605 7  91496728.581 7        42.200    22029942.691 6  91496724.580 6        41.100
G16  21530705.109 8 113144727.759 8        50.300    21530713.727 6  88164792.95546        38.400
G31  20902567.805 8 109843991.393 8        52.000    20902576.520 7  85592634.49347        43.700    20902576.281 8  85592636.500 8        50.000
G03  24227715.938 6 127317570.783 6        41.300    24227730.781 3  99208597.23243        22.600
G32  24453524.297 7 128504111.043 7        42.000    24453537.781 4 100133131.33644        24.100
G20  25039959.867 6 131585841.759 6        38.100    25039972.484 3 102534464.93543        18.300
R20  20001028.211 7 106954618.352 7        46.600    20001028.109 7 106954568.364 7        45.200    20001036.441 8  83186981.114 8        48.800    20001036.043 8  83186976.117 8        48.500
G14  22473519.508 7 118099098.061 7        45.400    22473530.273 4  92025366.42544        29.500
R07  23982923.734 6 128382403.988 6        41.400    23982921.637 6 128382363.999 6        39.900    23982938.703 6  99852945.747 6        37.700    23982938.465 6  99852939.756 6        37.100
G29  22725394.398 7 119422802.503 7        46.600    22725404.094 5  93056803.07045        34.900    22725403.742 7  93056797.059 7        44.000
R10  20517320.852 8 109368845.242 8        52.100    20517319.766 8 109368910.250 8        49.700    20517328.672 7  85064781.718 7        42.400    20517328.594 6  85064773.721 6        41.900
G23  24491384.734 6 128703121.863 6        39.700    24491394.160 3 100288184.71043        21.700
R11  22599499.961 7 120764822.619 7        42.300    22599498.910 6 120764874.615 6        41.200    22599508.070 6  93928338.415 6        36.900    22599508.199 5  93928334.420 5        35.700
R19  21648253.398 7 115803520.404 7        47.500    21648251.766 7 115803612.412 7        46.500    21648256.813 7  90069504.798 7        43.400    21648257.637 7  90069502.802 7        42.900
R01  22789684.102 7 121823938.476 7        43.800    22789683.195 7 121823931.492 7        43.400    22789691.750 5  94751971.515 5        35.900    22789693.102 5  94751960.519 5        35.300
G06  22281092.789 7 117088023.540 7        45.500    22281104.148 5  91237529.51245        31.300
J01  37288948.281 6 195954885.793 6        36.400    37288948.773 6 195954624.786 6        38.400    37288961.980 5 152692187.396 5        35.500    37288969.098 7 146330049.846 7        42.500    37288955.902 5 159054210.711 5        33.700
E12  25194544.289 7 132398304.282 7        46.000    25194553.688 7  98868949.435 7        46.000    25194550.078 7 101448113.002 7        45.200    25194551.254 8 100158535.323 8        52.500
C01  36697787.172 7 191095014.257 7        44.600    36697780.613 8 147766764.956 8        48.000    36697775.078 7 155280351.530 7        47.800
C02  39035760.875 6 203269473.446 6        36.100    39035759.387 7 157180842.813 7        42.000    39035753.809 6 165173078.837 6        39.400
C03  37217253.133 7 193799982.524 7        42.700    37217250.289 7 149858409.320 7        46.700    37217244.316 8 157478349.849 8        48.200
C04  37510096.398 6 195324931.694 6        40.900    37510094.047 7 151037610.176 7        45.600    37510087.746 7 158717506.711 7        46.000
C07  35982191.609 8 187368721.759 8        48.000    35982186.887 8 144885356.173 8        49.900    35982178.398 8 152252413.374 8        50.300
C10  37233998.336 7 193887212.912 7        45.900    37233997.078 7 149925897.847 7        45.700    37233987.133 7 157549199.793 7        46.700
C14  25633623.375 6 133480994.855 6        36.900    25633625.418 6 103215970.013 6        40.200    25633615.219 6 108464203.469 6        41.200
C08  37307044.859 7 194267614.760 7        46.100    37307042.203 7 150220068.253 7        46.400    37307033.559 7 157858328.564 7        47.200
C09  40706155.664 6 211967613.729 6        36.900    40706163.516 5 163906827.289 5        34.400    40706150.367 5 172241025.522 5        35.600
> 2013  6 15  4 14 30.0000000  0 30
R21  21904344.180 7 117215122.846 7        46.400    21904343.801 7 117214847.850 7        45.100    21904351.191 6  91167021.613 6        38.900    21904351.969 6  91167029.616 6        37.800
R08  22050974.008 7 118082184.112 7        46.800    22050972.191 7 118082094.127 7        45.800    22050980.387 7  91841627.451 7        42.200    22050980.363 6  91841619.458 6        41.900
G21  24843965.109 5 130555953.280 5        35.400    24843980.207 2 101731957.29342        16.900
R09  22038549.133 7 117684385.366 7        47.300    22038547.934 7 117684628.386 7        46.400    22038554.477 7  91532502.532 7        42.400    22038555.590 6  91532498.545 6        40.900
G16  21523054.094 8 113104521.598 8        50.500    21523062.473 6  88133463.51246        38.000
G31  20903286.047 8 109847764.483 8        51.500    20903294.105 7  85595574.54547        43.600    20903293.813 8  85595576.546 8        49.600
G03  24205584.422 6 127201275.128 6        40.500    24205599.883 3  99117977.56143        20.100
G32  24462902.977 6 128553396.130 6        41.700    24462915.852 3 100171535.17743        22.300
G20  25045904.148 6 131617081.122 6        36.000    25045917.414 3 102558807.19743        18.300
R20  19992229.992 7 106907564.894 7        47.500    19992228.719 7 106907514.907 7        45.800    19992236.926 8  83150384.014 8        48.200    19992236.461 8  83150379.017 8        48.000
G14  22492349.234 7 118198044.492 7        45.600    22492359.777 5  92102467.44245        30.600
R07  24004446.750 6 128497617.111 6        40.800    24004445.477 6 128497577.127 6        39.200    24004461.371 6  99942555.696 6        38.300    24004460.965 6  99942549.693 6        37.700
G29  22739519.797 7 119497033.417 7        46.400    22739530.238 5  93114645.31045        34.600    22739529.629 7  93114639.305 7        44.500
R10  20514006.297 8 109351177.386 8        52.500    20514005.211 8 109351242.371 8        50.200    20514014.176 7  85051040.065 7        42.000    20514013.871 6  85051032.069 6        41.100
G23  24472123.602 6 128601907.883 6        37.300    24472133.898 3 100209316.73543        19.000
R11  22587151.422 6 120698843.779 6        41.800    22587151.074 6 120698895.781 6        41.100    22587160.602 6  93877021.615 6        36.300    22587160.324 6  93877017.616 6        36.000
R19  21661494.922 7 115874358.249 7        47.600    21661494.109 7 115874450.270 7        47.000    21661498.848 7  90124600.880 7        43.600    21661499.613 7  90124598.884 7        42.800
R01  22786880.148 7 121808944.383 7        45.000    22786878.539 7 121808937.390 7        43.400    22786886.465 5  94740309.428 5        35.100    22786888.070 5  94740298.433 5        33.900
G06  22262052.273 7 116987966.229 7        45.900    22262063.633 5  91159562.85445        33.400
J01  37288286.078 5 195951404.450 5        35.100    37288286.625 6 195951143.442 6        37.300    37288299.555 5 152689474.697 5        35.700    37288306.617 7 146327450.179 7        42.800    37288293.012 5 159051385.085 5        32.900
E12  25178985.539 7 132316540.637 7        46.600    25178994.027 7  98807892.243 7        46.300    25178990.977 7 101385463.012 7        45.100    25178992.023 8 100096681.729 8        52.400
C01  36697811.242 7 191095140.344 7        44.500    36697804.516 8 147766862.445 8        48.300    36697798.996 7 155280453.980 7        47.300
C02  39035858.750 6 203269980.280 6        36.000    39035856.832 6 157181234.725 6        41.600    39035851.250 6 165173490.681 6        40.000
C03  37217154.648 7 193799468.890 7        42.700    37217151.832 7 149858012.143 7        46.800    37217145.879 7 157477932.474 7        47.900
C04  37510099.797 6 195324951.201 6        40.900    37510097.727 7 151037625.253 7        45.100    37510091.273 7 158717522.557 7        45.700
C07  35979576.117 7 187355103.286 7        47.300    35979571.672 8 144874825.508 8        50.000    35979563.199 8 152241347.250 8        50.800
C10  37230176.477 7 193867311.757 7        46.100    37230174.984 7 149910509.002 7        46.500    37230165.422 7 157533028.474 7        46.700
C14  25639098.109 6 133509504.257 6        37.700    25639100.387 6 103238015.170 6        40.600    25639090.074 6 108487369.611 6        41.400
C08  37301153.102 7 194236935.009 7        45.900    37301150.270 7 150196344.746 7        46.500    37301141.590 7 157833398.770 7        47.500
C09  40716448.578 6 212021213.778 6        36.500    40716456.691 6 163948273.942 6        36.600    40716443.883 5 172284579.711 5        35.100
> 2013  6 15  4 15  0.0000000  0 30
R21  21881442.633 7 117092566.120 7        47.300    21881440.727 7 117092291.125 7        45.400    21881448.059 6  91071699.859 6        38.100    21881449.070 6  91071707.863 6        37.200
R08  22065591.828 7 118160461.712 7        47.300    22065590.949 7 118160371.736 7        46.300    22065598.180 7  91902509.924 7        42.000    22065598.344 6  91902501.926 6        41.900
G21  24834867.805 5 130508144.920 5        35.900    24834882.285 3 101694704.15143        18.600
R09  22047188.992 7 117730525.194 7        46.600    22047188.496 7 117730768.205 7        45.500    22047195.539 6  91568388.973 6        41.600    22047196.781 6  91568384.985 6        40.700
G16  21515464.508 8 113064638.816 8        50.700    21515473.199 6  88102386.05646        38.600
G31  20904046.016 8 109851759.366 8        52.700    20904054.699 7  85598687.42847        43.200    20904054.703 8  85598689.428 8        49.800
G03  24183469.070 6 127085052.466 6        41.500    24183483.688 3  99027414.74843        22.800
G32  24472323.914 6 128602902.786 6        41.700    24472337.891 3 100210111.65243        23.300
G20  25051911.102 5 131648648.934 5        33.000    25051925.223 2 102583405.31242        15.600
R20  19983572.883 7 106861273.426 7        47.000    19983571.844 7 106861223.424 7        45.500    19983580.258 8  83114379.572 8        48.300    19983579.875 8  83114374.574 8        48.500
G14  22511229.398 7 118297265.142 7        45.000    22511240.895 4  92179782.10544        29.800
R07  24025941.633 6 128612686.565 6        41.200    24025941.297 6 128612646.562 6        39.400    24025957.500 6 100032053.910 6        37.800    24025956.949 6 100032047.907 6        37.500
G29  22753722.359 7 119571668.564 7        46.200    22753733.082 5  93172802.53145        34.800    22753732.582 7  93172796.521 7        44.400
R10  20510714.234 8 109333628.550 8        52.300    20510712.797 8 109333693.551 8        49.900    20510721.332 6  85037390.969 6        41.500    20510721.527 6  85037382.979 6        41.700
G23  24452903.383 6 128500894.532 6        41.700    24452911.660 3 100130605.11243        21.800
R11  22574797.008 7 120632820.263 7        42.900    22574795.250 6 120632872.286 6        40.800    22574804.418 6  93825670.061 6        36.000    22574804.867 6  93825666.062 6        36.000
R19  21674860.852 8 115945855.419 8        48.100    21674860.391 7 115945947.418 7        46.800    21674865.102 7  90180209.777 7        43.200    21674865.449 7  90180207.781 7        42.800
R01  22784207.602 7 121794660.978 7        44.500    22784206.578 7 121794653.985 7        43.400    22784215.445 5  94729200.089 5        35.000    22784215.957 5  94729189.100 5        34.200
G06  22243065.281 7 116888187.039 7        45.700    22243076.504 5  91081812.92445        32.600
J01  37287613.797 5 195947868.853 5        35.400    37287613.215 6 195947607.846 6        38.100    37287626.078 6 152686719.721 6        36.200    37287633.355 7 146324809.999 7        42.500    37287620.160 5 159048515.315 5        33.800
E12  25163455.719 7 132234932.356 7        46.500    25163464.391 7  98746951.071 7        46.400    25163461.340 7 101322932.059 7        45.500    25163462.395 8 100034945.670 8        52.400
C01  36697836.234 7 191095269.854 7        44.500    36697829.496 7 147766962.573 7        47.700    36697824.035 7 155280559.206 7        47.600
C02  39035956.570 6 203270489.819 6        36.300    39035954.469 6 157181628.739 6        41.300    39035949.141 6 165173904.724 6        39.200
C03  37217056.672 7 193798957.966 7        42.600    37217053.734 7 149857617.056 7        47.100    37217047.719 7 157477517.289 7        47.300
C04  37510104.211 6 195324972.934 6        40.900    37510102.207 7 151037642.050 7        45.300    37510095.703 7 158717540.215 7        45.800
C07  35976964.211 7 187341500.474 7        47.800    35976959.734 8 144864306.952 8        49.700    35976951.270 8 152230293.853 8        50.300
C10  37226350.422 7 193847390.274 7        46.000    37226349.418 7 149895104.451 7        45.400    37226339.691 7 157516840.647 7        46.500
C14  25644639.531 6 133538357.634 6        37.600    25644641.871 6 103260326.342 6        40.300    25644631.301 6 108510815.267 6        41.800
C08  37295285.992 7 194206381.389 7        45.800    37295283.152 7 150172718.771 7        46.400    37295274.406 7 157808571.475 7        47.300
C09  40726729.414 5 212074743.245 5        34.600    40726736.980 6 163989666.012 6        36.600    40726723.848 5 172328076.556 5        34.000
> 2013  6 15  4 15 30.0000000  0 30
R21  21858585.391 7 116970262.651 7        46.600    21858584.426 7 116969987.652 7        45.300    21858591.215 6  90976575.065 6        37.400    21858592.730 6  90976583.061 6        37.500
R08  22080289.734 7 118239167.128 7        47.600    22080288.738 7 118239077.144 7        46.000    22080295.965 6  91963725.118 6        41.600    22080296.227 6  91963717.118 6        41.500
G21  24825785.688 6 130460415.714 6        36.400    24825798.652 2 101657512.70642        16.900
R09  22055857.633 7 117776809.080 7        47.200    22055856.551 7 117777052.095 7        44.900    22055863.047 7  91604387.472 7        42.600    22055864.730 6  91604383.477 6        41.300
G16  21507936.305 8 113025077.662 8        50.300    21507944.938 6  88071559.21446        38.600
G31  20904848.719 8 109855975.746 8        52.800    20904856.414 7  85601972.89347        43.500    20904856.391 8  85601974.894 8        50.000
G03  24161366.180 6 126968903.824 6        41.400    24161381.145 3  98936909.62843        23.400
G32  24481786.289 6 128652627.139 6        40.700    24481799.555 3 100248857.76943        22.800
G20  25057980.875 5 131680541.749 5        33.500    25057993.602 2 102608256.74742        14.800
R20  19975058.000 7 106815745.289 7        47.100    19975058.367 7 106815695.287 7        45.900    19975066.641 8  83078968.825 8        48.400    19975066.207 8  83078963.828 8        48.500
G14  22530162.375 7 118396756.260 7        44.500    22530173.727 5  92257307.52345        30.200
R07  24047410.039 6 128727607.661 6        40.600    24047409.234 6 128727567.664 6        39.000    24047425.555 6 100121436.791 6        37.000    24047424.777 6 100121430.781 6        36.600
G29  22768000.953 7 119646703.928 7        45.400    22768011.996 5  93231271.60745        34.600    22768011.527 7  93231265.596 7        44.200
R10  20507444.305 8 109316197.552 8        52.300    20507442.984 8 109316262.552 8        50.200    20507452.043 7  85023833.535 7        42.400    20507451.668 6  85023825.545 6        41.300
G23  24433718.008 6 128400083.011 6        40.400    24433727.238 3 100052050.75543        20.100
R11  22562432.680 7 120566750.940 7        42.600    22562431.395 6 120566802.944 6        41.300    22562440.738 6  93774282.891 6        37.100    22562440.324 5  93774278.896 5        35.800
R19  21688348.938 7 116018007.581 7        47.900    21688347.656 7 116018099.581 7        45.800    21688353.133 7  90236328.103 7        43.400    21688353.273 7  90236326.101 7        43.200
R01  22781667.797 7 121781086.706 7        44.800    22781666.305 7 121781079.711 7        43.700    22781675.051 5  94718642.313 5        35.600    22781676.531 5  94718631.325 5        34.400
G06  22224131.227 7 116788687.584 7        46.100    22224142.426 5  91004280.97545        32.300
J01  37286929.984 5 195944277.715 5        35.700    37286929.770 6 195944016.709 6        38.300    37286943.344 5 152683921.472 5        35.800    37286950.465 7 146322128.356 7        42.300    37286936.977 5 159045600.345 5        32.800
E12  25147956.000 7 132153480.123 7        46.200    25147964.355 7  98686126.425 7        46.600    25147961.543 7 101260520.678 7        45.300    25147962.457 8  99973327.659 8        52.400
C01  36697861.539 7 191095401.503 7        44.500    36697855.117 8 147767064.371 8        48.000    36697849.586 7 155280666.184 7        47.200
C02  39036054.281 5 203271000.832 5        35.800    39036052.906 6 157182023.890 6        40.900    39036047.277 6 165174319.972 6        39.900
C03  37216958.664 7 193798448.488 7        42.600    37216955.383 7 149857223.087 7        47.800    37216949.746 8 157477103.295 8        48.100
C04  37510108.820 6 195324995.641 6        40.900    37510106.480 7 151037659.605 7        45.600    37510100.098 7 158717558.665 7        45.500
C07  35974354.344 7 187327912.530 7        47.900    35974350.418 8 144853799.894 8        49.200    35974341.820 8 152219252.536 8        50.400
C10  37222521.055 7 193827447.575 7        46.000    37222519.680 7 149879683.497 7        46.200    37222509.980 7 157500635.567 7        46.700
C14  25650246.914 6 133567551.958 6        37.400    25650248.605 6 103282901.124 6        41.100    25650238.578 6 108534537.948 6        41.700
C08  37289441.820 7 194175952.885 7        45.500    37289439.289 7 150149189.547 7        46.800    37289430.504 7 157783845.833 7        47.000
C09  40736994.383 5 212128200.307 5        33.100    40737003.250 6 164031002.065 6        37.200    40736990.473 5 172371514.522 5        33.200
> 2013  6 15  4 16  0.0000000  0 30
R21  21835779.469 7 116848216.297 7        46.800    21835778.031 7 116847941.291 7        46.200    21835785.441 6  90881650.244 6        38.700    21835786.070 6  90881658.247 6        37.900
R08  22095066.273 8 118318295.991 8        48.200    22095065.629 7 118318205.987 7        46.800    22095073.051 6  92025269.689 6        41.700    22095072.848 6  92025261.689 6        41.800
G21  24816718.641 6 130412768.456 6        36.700    24816731.898 2 101620384.99142        16.900
R09  22064551.656 7 117823238.369 7        47.300    22064551.160 7 117823481.372 7        45.300    22064557.992 6  91640499.048 6        41.200    22064558.914 6  91640495.047 6        40.900
G16  21500469.148 8 112985837.710 8        50.900    21500478.117 6  88040982.66246        38.700
G31  20905693.391 8 109860414.794 8        53.400    20905701.406 7  85605431.87147        44.600    20905701.211 8  85605433.872 8        49.300
G03  24139278.055 6 126852832.129 6        41.600    24139292.887 3  98846464.48943        22.800
G32  24491290.445 6 128702566.945 6        40.600    24491303.230 3 100287771.76143        22.300
G20  25064111.266 5 131712757.560 5        33.900    25064125.449 2 102633359.78342        16.900
R20  19966688.125 8 106770983.118 8        48.000    19966686.969 7 106770933.116 7        45.800    19966695.453 8  83044153.840 8        48.800    19966695.141 8  83044148.844 8        48.300
G14  22549146.531 7 118496515.653 7        46.300    22549157.520 5  92335042.01045        30.000
R07  24068850.508 6 128842377.398 6        39.900    24068849.234 6 128842337.408 6        38.900    24068864.789 6 100210701.986 6        36.900    24068864.582 6 100210695.983 6        36.400
G29  22782355.625 7 119722137.638 7        46.600    22782366.578 5  93290051.09245        33.600    22782366.016 7  93290045.082 7        44.300
R10  20504197.063 8 109298886.695 8        52.900    20504195.742 8 109298951.680 8        50.800    20504204.148 6  85010369.542 6        41.800    20504204.102 6  85010361.553 6        41.200
G23  24414573.508 6 128299476.593 6        40.400    24414582.656 3  99973656.16143        22.300
R11  22550061.297 7 120500636.208 7        43.300    22550059.895 7 120500688.210 7        42.800    22550068.336 6  93722860.405 6        36.700    22550068.316 5  93722856.405 5        35.700
R19  21701959.289 7 116090811.691 7        47.500    21701958.125 7 116090903.684 7        46.200    21701963.105 7  90292953.492 7        43.200    21701963.766 7  90292951.498 7        43.700
R01  22779261.219 7 121768221.424 7        45.100    22779260.313 7 121768214.443 7        43.000    22779269.660 5  94708635.956 5        35.800    22779270.359 5  94708624.965 5        34.700
G06  22205250.852 7 116689470.662 7        47.300    22205261.680 5  90926969.17145        33.200
J01  37286235.219 5 195940631.574 5        33.500    37286235.758 6 195940370.568 6        38.600    37286249.469 6 152681080.360 6        36.900    37286256.332 7 146319405.625 7        42.200    37286242.434 5 159042640.961 5        32.400
E12  25132486.273 7 132072186.081 7        46.400    25132494.754 7  98625419.915 7        46.200    25132491.848 7 101198230.507 7        45.600    25132492.707 8  99911829.319 8        52.400
C01  36697887.375 7 191095535.783 7        44.500    36697880.805 7 147767168.184 7        47.600    36697875.316 7 155280775.270 7        47.100
C02  39036153.258 6 203271513.627 6        36.400    39036151.211 6 157182420.418 6        40.300    39036145.992 6 165174736.652 6        39.400
C03  37216861.641 7 193797940.779 7        42.600    37216858.125 7 149856830.496 7        46.200    37216852.238 7 157476690.742 7        47.800
C04  37510113.352 6 195325019.696 6        40.700    37510111.121 7 151037678.205 7        45.000    37510104.727 7 158717578.202 7        45.500
C07  35971748.328 7 187314340.322 7        47.800    35971743.914 8 144843305.003 8        49.600    35971735.332 8 152208224.013 8        50.400
C10  37218687.172 7 193807484.418 7        46.100    37218685.797 7 149864246.718 7        45.900    37218676.164 7 157484413.873 7        46.200
C14  25655917.766 6 133597085.787 6        36.700    25655920.500 6 103305738.453 6        40.900    25655909.898 6 108558536.545 6        41.100
C08  37283622.406 7 194145649.831 7        46.000    37283620.254 7 150125757.325 7        46.600    37283611.410 7 157759222.137 7        47.300
C09  40747246.883 5 212181584.640 5        32.500    40747255.414 6 164072281.850 6        37.600    40747241.770 5 172414893.387 5        32.100
> 2013  6 15  4 16 30.0000000  0 30
R21  21813020.648 7 116726432.353 7        46.300    21813019.566 7 116726157.370 7        45.500    21813027.645 6  90786929.530 6        37.900    21813027.613 6  90786937.535 6        37.500
R08  22109921.938 7 118397844.421 7        47.900    22109920.941 7 118397754.431 7        46.700    22109928.168 7  92087140.578 7        42.600    22109928.508 6  92087132.576 6        41.700
G21  24807666.891 6 130365205.288 6        36.400    24807680.781 2 101583322.88242        17.800
R09  22073273.703 7 117869814.277 7        46.400    22073272.973 7 117870057.291 7        45.600    22073279.926 6  91676724.656 6        41.700    22073281.531 6  91676720.660 6        40.200
G16  21493062.617 8 112946917.981 8        51.000    21493071.418 6  88010655.63246        38.700
G31  20906580.414 8 109865078.042 8        52.500    20906588.660 7  85609065.55247        44.100    20906588.320 8  85609067.553 8        49.500
G03  24117205.742 6 126736839.821 6        40.800    24117219.883 3  98756081.20643        22.900
G32  24500833.539 6 128752719.677 6        39.700    24500847.035 3 100326851.67443        22.200
G20  25070303.164 5 131745294.279 5        35.800    25070315.684 2 102658712.92742        16.300
R20  19958461.188 7 106726989.523 7        46.900    19958460.383 7 106726939.535 7        45.500    19958468.672 8  83009936.625 8        48.100    19958468.039 8  83009931.635 8        48.000
G14  22568180.656 7 118596540.729 7        45.800    22568191.738 4  92412983.51844        29.700
R07  24090261.500 6 128956991.600 6        40.500    24090260.344 6 128956951.630 6        38.900    24090277.055 6 100299846.297 6        36.000    24090276.344 5 100299840.294 5        35.600
G29  22796785.742 7 119797967.390 7        46.400    22796795.770 5  93349139.17545        33.500    22796795.391 7  93349133.167 7        44.100
R10  20500972.070 8 109281696.697 8        52.300    20500971.102 8 109281761.712 8        50.700    20500979.164 7  84996999.548 7        42.000    20500979.371 6  84996991.551 6        41.800
G23  24395468.539 6 128199077.965 6        38.200    24395478.355 3  99895423.58343        21.100
R11  22537679.289 7 120434476.355 7        44.000    22537678.824 7 120434528.374 7        42.800    22537687.480 6  93671402.797 6        37.000    22537687.371 5  93671398.801 5        35.800
R19  21715690.656 7 116164264.837 7        47.400    21715689.258 7 116164356.865 7        46.100    21715694.848 7  90350083.685 7        43.700    21715695.348 7  90350081.683 7        43.300
R01  22776986.742 7 121756065.312 7        45.000    22776986.188 7 121756058.299 7        43.600    22776994.848 6  94699181.172 6        37.000    22776996.293 6  94699170.184 6        36.600
G06  22186424.742 7 116590539.066 7        47.600    22186435.711 5  90849879.70045        33.500
J01  37285532.328 5 195936930.576 5        34.200    37285531.121 6 195936669.570 6        38.300    37285544.707 6 152678196.517 6        36.100    37285551.715 6 146316641.949 6        41.700    37285537.75415 159039636.90115        32.900
E12  25117046.828 7 131991052.126 7        46.900    25117054.738 7  98564832.942 7        45.600    25117052.207 7 101136063.011 7        45.500    25117053.234 8  99850452.082 8        52.200
C01  36697913.438 7 191095672.559 7        44.300    36697906.965 8 147767273.937 8        48.300    36697901.547 7 155280886.402 7        46.900
C02  39036252.195 6 203272028.153 6        36.100    39036249.980 6 157182818.272 6        41.300    39036244.586 6 165175154.743 6        39.200
C03  37216763.992 7 193797434.873 7        42.400    37216761.094 7 149856439.268 7        46.800    37216755.258 7 157476279.642 7        47.300
C04  37510118.414 6 195325045.024 6        40.800    37510115.891 7 151037697.778 7        45.500    37510109.617 7 158717598.781 7        45.700
C07  35969144.828 7 187300784.340 7        47.500    35969140.637 8 144832822.661 8        49.800    35969131.719 8 152197208.668 8        50.400
C10  37214849.938 7 193787501.280 7        45.500    37214847.813 7 149848794.492 7        45.800    37214838.551 7 157468175.939 7        46.600
C14  25661655.039 6 133626957.414 6        37.300    25661657.086 6 103328836.990 6        41.000    25661646.805 6 108582809.580 6        41.700
C08  37277827.367 7 194115472.598 7        45.400    37277824.938 7 150102422.393 7        46.800    37277816.254 7 157734700.684 7        47.300
C09  40757485.352 5 212234895.795 5        33.800    40757493.297 6 164113505.060 6        37.800    40757479.012 5 172458212.829 5        31.900
> 2013  6 15  4 17  0.0000000  0 30
R21  21790311.859 7 116604914.855 7        47.300    21790310.777 7 116604639.835 7        45.700    21790318.828 6  90692416.056 6        37.800    21790319.066 6  90692424.053 6        38.100
R08  22124854.391 7 118477808.359 7        47.500    22124853.043 7 118477718.385 7        46.500    22124860.930 7  92149334.632 7        42.400    22124860.945 7  92149326.640 7        42.100
G21  24798632.688 6 130317729.270 6        36.000    24798645.957 2 101546328.66842        16.900
R09  22082024.352 7 117916538.101 7        46.700    22082023.152 7 117916781.110 7        45.800    22082030.004 6  91713065.322 6        41.200    22082031.125 6  91713061.329 6        40.300
G16  21485717.609 8 112908318.817 8        51.200    21485726.125 6  87980578.38646        38.400
G31  20907511.070 8 109869966.689 8        53.400    20907519.223 7  85612874.86947        43.700    20907518.859 8  85612876.870 8        50.200
G03  24095148.336 6 126620929.342 6        41.000    24095162.145 3  98665761.60743        22.300
G32  24510416.563 6 128803083.069 6        38.300    24510429.996 3 100366095.72443        22.200
G20  25076554.852 5 131778149.939 5        34.500    25076568.238 2 102684314.57442        16.300
R20  19950378.047 7 106683767.233 7        47.600    19950377.125 7 106683717.230 7        46.200    19950385.055 8  82976319.317 8        48.500    19950384.879 8  82976314.327 8        48.300
G14  22587264.859 7 118696829.140 7        45.400    22587276.445 5  92491130.20145        30.800
R07  24111642.945 6 129071447.322 6        40.100    24111641.555 6 129071407.322 6        39.400    24111658.938 6 100388867.362 6        36.900    24111657.871 6 100388861.370 6        37.100
G29  22811290.375 7 119874190.831 7        45.900    22811300.801 5  93408534.03745        33.700    22811300.367 7  93408528.022 7        43.700
R10  20497770.008 8 109264629.577 8        52.700    20497768.570 8 109264694.570 8        51.000    20497777.867 6  84983725.122 6        41.800    20497777.590 7  84983717.126 7        42.000
G23  24376403.523 6 128098890.124 6        39.700    24376412.000 3  99817355.18643        22.600
R11  22525291.055 7 120368271.701 7        45.000    22525289.770 7 120368323.693 7        43.400    22525298.199 6  93619910.346 6        36.200    22525298.219 5  93619906.350 5        35.600
R19  21729542.102 7 116238364.160 7        47.400    21729541.523 7 116238456.176 7        45.800    21729546.746 7  90407716.453 7        43.700    21729547.371 7  90407714.457 7        43.900
R01  22774846.539 7 121744618.128 7        45.000    22774845.398 7 121744611.115 7        43.700    22774854.016 6  94690277.771 6        36.700    22774855.238 6  94690266.782 6        36.000
G06  22167653.516 7 116491895.662 7        46.800    22167664.734 5  90773014.79745        33.500
J01  37284817.156 5 195933175.181 5        34.800    37284816.668 6 195932914.175 6        38.800    37284830.371 6 152675270.282 6        36.400    37284837.027 6 146313837.645 6        41.500    37284824.238 5 159036588.754 5        32.100
E12  25101638.609 7 131910080.430 7        47.300    25101646.590 7  98504367.144 7        46.000    25101643.871 7 101074019.832 7        45.100    25101645.012 8  99789197.592 8        52.300
C01  36697940.578 7 191095812.181 7        44.300    36697933.957 8 147767381.884 8        48.400    36697928.457 7 155280999.844 7        47.400
C02  39036351.094 5 203272544.840 5        35.800    39036349.223 6 157183217.815 6        40.600    39036343.809 6 165175574.591 6        39.800
C03  37216667.313 7 193796931.044 7        42.600    37216664.539 7 149856049.665 7        47.400    37216658.531 7 157475870.225 7        47.600
C04  37510123.141 6 195325072.050 6        40.800    37510121.488 7 151037718.666 7        44.700    37510114.672 7 158717620.738 7        45.600
C07  35966544.742 7 187287245.266 7        47.500    35966540.566 8 144822353.397 8        49.900    35966531.777 8 152186207.065 8        50.100
C10  37211008.078 7 193767498.714 7        45.900    37211006.902 7 149833327.247 7        45.900    37210997.273 7 157451922.227 7        46.800
C14  25667455.648 6 133657165.301 6        37.300    25667457.969 6 103352195.538 6        40.900    25667447.953 6 108607355.887 6        41.700
C08  37272056.383 7 194085421.485 7        45.500    37272054.086 7 150079184.990 7        46.600    37272045.219 7 157710281.710 7        47.000
C09  40767708.617 5 212288133.399 5        34.300    40767717.371 6 164154671.419 6        37.300    40767703.680 5 172501472.509 5        34.000
> 2013  6 15  4 17 30.0000000  0 32
R21  21767653.906 7 116483667.886 7        47.500    21767653.059 7 116483392.903 7        46.600    21767660.020 6  90598112.973 6        38.400    21767660.391 6  90598120.982 6        37.000
R08  22139864.133 7 118558182.512 7        47.200    22139863.020 7 118558092.526 7        45.200    22139871.340 7  92211847.729 7        42.700    22139871.055 6  92211839.737 6        41.800
G21  24789615.680 6 130270341.897 6        37.700    24789629.453 2 101509403.46442        17.800
R09  22090802.102 7 117963409.991 7        47.600    22090801.020 7 117963652.977 7        45.400    22090807.898 6  91749521.135 6        41.800    22090809.250 6  91749517.140 6        40.800
G16  21478433.188 8 112870038.668 8        51.200    21478441.813 6  87950749.72946        38.800
G31  20908484.445 8 109875081.108 8        52.500    20908492.582 7  85616860.10947        44.300    20908492.445 8  85616862.110 8        49.300
G03  24073106.438 6 126505102.202 6        39.800    24073120.742 3  98575506.97443        21.800
G32  24520041.039 6 128853653.686 6        39.600    24520053.895 3 100405501.24043        21.300
G20  25082867.086 5 131811321.546 5        34.100    25082881.090 2 102710162.39242        16.900
R20  19942439.641 7 106641317.731 7        47.800    19942438.719 7 106641267.729 7        45.900    19942446.645 8  82943303.076 8        48.800    19942446.500 8  82943298.079 8        48.000
G14  22606398.281 7 118797377.902 7        45.200    22606410.297 5  92569479.75745        30.100
R07  24132994.078 6 129185740.047 6        39.900    24132992.453 6 129185700.054 6        37.900    24133009.277 6 100477761.688 6        37.300    24133008.934 6 100477755.689 6        37.400
G29  22825869.516 7 119950804.584 7        46.800    22825880.449 5  93468233.02745        33.600    22825879.844 7  93468227.017 7        43.800
R10  20494591.133 8 109247685.878 8        52.800    20494589.813 8 109247750.870 8        50.600    20494598.785 7  84970546.698 7        42.000    20494598.656 7  84970538.702 7        42.100
G23  24357378.313 6 127998915.020 6        40.000    24357387.754 3  99739452.59243        21.800
R11  22512893.477 7 120302022.137 7        45.500    22512892.309 7 120302074.144 7        43.900    22512900.285 5  93568382.972 5        35.800    22512900.813 6  93568378.973 6        36.000
R19  21743515.469 7 116313105.657 7        46.900    21743513.598 7 116313197.665 7        45.300    21743519.160 7  90465848.689 7        43.700    21743519.629 7  90465846.694 7        42.800
R01  22772837.250 7 121733878.820 7        45.100    22772835.641 7 121733871.820 7        43.600    22772844.625 6  94681924.956 6        36.600    22772845.855 5  94681913.967 5        35.800
G06  22148937.031 7 116393542.210 7        47.400    22148948.715 5  90696375.83745        33.600
J01  37284091.578 5 195929364.663 5        35.500    37284092.012 6 195929103.658 6        38.800    37284106.129 6 152672301.087 6        36.400    37284112.461 6 146310992.172 6        41.800    37284099.086 5 159033495.823 5        33.200
E12  25086261.047 7 131829272.082 7        46.100    25086268.832 7  98444023.314 7        46.100    25086266.207 7 101012101.807 7        45.100    25086267.492 8  99728066.668 8        52.300
C01  36697967.547 7 191095953.877 7        44.300    36697961.039 7 147767491.444 7        47.800    36697955.738 7 155281114.971 7        47.100
C02  39036450.320 5 203273062.874 5        35.800    39036448.543 6 157183618.386 6        40.000    39036443.230 6 165175995.530 6        39.400
C03  37216570.703 7 193796428.560 7        42.600    37216567.922 7 149855661.086 7        47.600    37216562.031 7 157475461.908 7        47.700
C04  37510128.453 6 195325099.965 6        40.900    37510126.449 7 151037740.250 7        45.400    37510120.145 7 158717643.415 7        45.700
C07  35963948.211 8 187273722.978 8        48.500    35963943.773 8 144811897.109 8        49.600    35963934.965 8 152175219.103 8        50.900
C10  37207163.313 7 193747476.419 7        45.800    37207161.840 7 149817844.733 7        46.200    37207152.203 7 157435652.463 7        46.400
C14  25673322.250 6 133687706.948 6        37.600    25673323.727 6 103375812.204 6        40.800    25673313.055 6 108632173.402 6        41.400
C08  37266309.648 7 194055495.964 7        45.600    37266307.012 7 150056044.693 7        47.100    37266298.227 7 157685964.788 7        47.100
C12  25740283.969 6                        36.100
C09  40777917.859 5 212341296.048 5        33.500    40777927.227 6 164195779.791 6        36.900    40777914.191 5 172544671.238 5        34.800
C05  40897179.83615 212962308.71315        31.000    40897182.82015 164676004.61915        33.500    40897175.43415 173049331.04715        35.300
> 2013  6 15  4 18  0.0000000  0 31
R21  21745047.016 7 116362695.436 7        47.400    21745046.168 7 116362420.431 7        46.100    21745053.117 6  90504023.420 6        38.700    21745053.973 6  90504031.417 6        37.500
R08  22154949.625 8 118638962.769 8        48.100    22154948.277 7 118638872.800 7        46.300    22154956.340 7  92274676.719 7        42.500    22154956.438 7  92274668.719 7        42.100
G21  24780615.945 6 130223045.768 6        38.300    24780629.352 3 101472549.40043        19.300
R09  22099607.352 7 118010430.800 7        47.100    22099606.270 7 118010673.806 7        45.700    22099612.559 6  91786092.783 6        40.200    22099614.207 6  91786088.788 6        40.200
G16  21471209.563 8 112832077.141 8        50.900    21471217.965 6  87921169.34046        39.300
G31  20909500.609 8 109880422.667 8        52.000    20909508.555 7  85621022.34447        43.900    20909508.328 8  85621024.344 8        49.600
G03  24051082.297 6 126389361.081 6        40.500    24051095.738 3  98485319.41343        23.000
G32  24529702.617 6 128904429.170 6        38.500    24529716.340 3 100445066.42143        20.900
G20  25089239.617 5 131844806.916 5        35.200    25089253.453 2 102736254.71442        17.400
R20  19934646.992 7 106599643.586 7        47.900    19934646.188 7 106599593.590 7        46.300    19934654.059 8  82910889.882 8        48.700    19934653.684 8  82910884.892 8        48.500
G14  22625581.563 7 118898184.414 7        44.800    22625593.422 4  92648030.15844        29.600
R07  24154312.977 6 129299866.708 6        38.300    24154312.758 6 129299826.712 6        37.200    24154329.715 6 100566526.881 6        36.300    24154329.094 5 100566520.886 5        35.800
G29  22840522.570 7 120027806.309 7        46.000    22840533.180 5  93528234.32645        33.500    22840532.855 7  93528228.316 7        43.100
R10  20491436.727 8 109230866.725 8        52.900    20491435.523 8 109230931.725 8        51.300    20491444.734 7  84957465.127 7        42.400    20491444.336 6  84957457.130 6        41.900
G23  24338395.391 6 127899155.503 6        41.200    24338403.945 3  99661717.95243        22.000
R11  22500486.672 7 120235727.366 7        45.000    22500485.152 7 120235779.374 7        43.400    22500493.293 6  93516820.430 6        36.800    22500493.469 5  93516816.423 5        35.800
R19  21757605.711 7 116388486.194 7        46.300    21757604.664 7 116388578.212 7        45.300    21757611.090 7  90524477.950 7        44.100    21757611.297 7  90524475.955 7        43.400
R01  22770960.359 7 121723847.274 7        45.300    22770958.984 7 121723840.255 7        43.900    22770967.301 6  94674122.619 6        36.400    22770968.703 5  94674111.631 5        35.500
G06  22130276.883 7 116295481.483 7        46.500    22130288.188 5  90619964.96245        33.700
J01  37283356.047 5 195925499.472 5        35.100    37283356.289 6 195925238.460 6        38.300    37283369.828 6 152669289.292 6        36.600    37283376.855 6 146308105.871 6        41.800    37283364.066 5 159030358.580 5        33.100
E12  25070915.297 7 131748629.074 7        46.400    25070923.086 7  98383802.960 7        46.000    25070920.691 7 100950310.479 7        45.200    25070921.609 8  99667060.822 8        52.400
C01  36697995.141 7 191096097.794 7        44.200    36697989.172 8 147767602.712 8        48.000    36697983.582 7 155281231.905 7        47.400
C02  39036549.961 5 203273582.424 5        35.900    39036548.512 6 157184020.134 6        41.400    39036543.047 6 165176417.711 6        39.900
C03  37216474.508 7 193795927.596 7        42.500    37216471.695 7 149855273.697 7        47.300    37216465.590 7 157475054.808 7        47.800
C04  37510134.281 6 195325128.909 6        40.600    37510132.238 7 151037762.620 7        45.900    37510125.797 7 158717666.921 7        46.200
C07  35961354.773 7 187260217.981 7        47.300    35961350.168 8 144801454.195 8        50.000    35961341.445 8 152164245.183 8        50.400
C10  37203314.258 7 193727434.989 7        45.500    37203313.129 7 149802347.433 7        46.800    37203303.406 7 157419367.168 7        46.300
C14  25679250.688 6 133718580.754 6        38.100    25679252.758 6 103399685.682 6        41.000    25679242.379 7 108657260.815 7        42.900
C08  37260586.836 7 194025696.162 7        45.700    37260584.227 7 150033001.616 7        46.700    37260575.410 7 157661750.022 7        47.300
C12  25721044.57815 133936235.79915        35.000    25721050.41416 103568013.82416        38.900    25721040.88316 108834143.23116        40.600
C09  40788113.789 5 212394383.364 5        34.600    40788121.910 6 164236829.889 6        36.000    40788110.016 6 172587808.729 6        36.100
> 2013  6 15  4 18 30.0000000  0 31
R21  21722492.469 8 116242002.691 8        48.300    21722491.855 7 116241727.693 7        46.900    21722498.973 6  90410151.409 6        38.400    21722499.770 6  90410159.414 6        37.700
R08  22170110.438 7 118720145.615 7        47.500    22170108.855 7 118720055.619 7        45.300    22170116.977 7  92337818.804 7        42.100    22170117.016 7  92337810.812 7        42.200
G21  24771632.633 6 130175844.197 6        38.100    24771646.273 2 101435769.02942        16.300
R09  22108440.977 7 118057602.921 7        47.200    22108439.895 7 118057845.912 7        45.300    22108447.547 6  91822782.107 6        40.900    22108447.918 6  91822778.112 6        40.300
G16  21464046.180 8 112794434.497 8        51.100    21464054.441 6  87891837.43346        39.300
G31  20910560.625 8 109885993.174 8        52.800    20910569.520 7  85625362.98047        43.900    20910569.152 8  85625364.974 8        49.600
G03  24029074.523 6 126273708.982 6        40.800    24029088.160 4  98395201.15044        24.900
G32  24539403.563 6 128955407.546 6        39.600    24539417.395 3 100484789.69343        22.200
G20  25095671.953 6 131878604.625 6        38.000    25095684.645 2 102762590.43242        16.900
R20  19926999.023 7 106558747.804 7        47.600    19926998.219 7 106558697.807 7        46.800    19927006.309 8  82879082.096 8        49.000    19927005.992 8  82879077.098 8        48.900
G14  22644813.305 7 118999246.987 7        44.100    22644824.230 4  92726780.09144        28.300
R07  24175601.406 6 129413823.991 6        40.600    24175600.953 6 129413784.023 6        38.500    24175616.594 5 100655160.338 5        35.900    24175616.246 5 100655154.343 5        35.300
G29  22855249.453 7 120105194.629 7        46.000    22855259.410 5  93588536.88745        32.700    22855259.133 7  93588530.881 7        43.000
R10  20488304.867 8 109214174.397 8        52.200    20488303.664 8 109214239.389 8        50.800    20488312.281 7  84944482.196 7        42.100    20488312.434 6  84944474.200 6        41.200
G23  24319452.766 6 127799614.912 6        38.100    24319462.008 3  99584153.90243        19.900
R11  22488072.266 7 120169388.868 7        44.300    22488070.863 7 120169440.884 7        42.800    22488079.391 6  93465223.857 6        36.000    22488078.883 5  93465219.866 5        35.300
R19  21771817.031 7 116464503.416 7        46.000    21771815.516 7 116464595.407 7        44.900    21771820.746 7  90583602.401 7        43.600    21771821.320 7  90583600.405 7        43.600
R01  22769215.414 7 121714523.963 7        44.500    22769215.211 7 121714516.950 7        43.600    22769223.730 6  94666871.128 6        36.900    22769225.297 5  94666860.147 5        35.400
G06  22111672.469 7 116197716.965 7        46.700    22111684.438 5  90543784.90045        33.800
J01  37282610.484 5 195921580.356 5        34.400    37282610.746 6 195921319.345 6        37.900    37282624.352 6 152666235.477 6        36.400    37282631.039 7 146305179.310 7        42.100    37282617.902 5 159027177.286 5        32.700
E12  25055601.281 7 131668154.000 7        46.800    25055608.949 7  98323708.003 7        46.400    25055606.371 7 100888647.824 7        45.700    25055607.586 8  99606182.018 8        52.500
C01  36698023.578 7 191096244.778 7        44.100    36698017.059 8 147767716.352 8        48.500    36698011.488 7 155281351.327 7        47.300
C02  39036650.828 6 203274104.224 6        36.300    39036648.523 6 157184423.621 6        41.000    39036643.152 6 165176841.712 6        39.600
C03  37216379.117 7 193795428.921 7        42.500    37216376.047 8 149854888.072 8        48.200    37216370.305 7 157474649.576 7        47.600
C04  37510140.266 6 195325159.670 6        40.600    37510137.941 7 151037786.404 7        45.100    37510131.512 7 158717691.915 7        45.700
C07  35958764.891 7 187246731.583 7        47.200    35958760.430 8 144791025.656 8        49.900    35958751.598 8 152153286.381 8        50.200
C10  37199462.172 7 193707375.604 7        45.300    37199461.121 7 149786836.245 7        45.400    37199451.277 7 157403067.282 7        46.300
C14  25685242.859 6 133749785.522 6        37.900    25685245.590 6 103423815.096 6        39.900    25685235.168 7 108682617.150 7        42.100
C08  37254888.563 7 193996023.206 7        45.800    37254885.961 7 150010056.623 7        47.300    37254877.188 7 157637638.322 7        47.000
C12  25701810.477 5 133836080.910 5        35.400    25701816.934 6 103490568.151 6        41.400    25701806.496 6 108752759.518 6        40.000
C09  40798294.609 5 212447395.660 5        35.700    40798302.289 5 164277822.020 5        34.500    40798290.906 6 172630885.271 6        37.300
> 2013  6 15  4 19  0.0000000  0 32
R21  21699991.633 8 116121593.205 8        48.300    21699990.430 7 116121318.205 7        46.400    21699997.422 6  90316499.691 6        38.100    21699997.813 6  90316507.696 6        36.900
R08  22185344.344 7 118801725.687 7        47.000    22185342.527 7 118801635.694 7        45.400    22185350.691 7  92401269.863 7        42.500    22185350.648 6  92401261.863 6        41.500
G21  24762669.406 6 130128738.627 6        38.200    24762683.648 3 101399063.46143        18.600
R09  22117303.258 7 118104926.016 7        46.800    22117302.059 7 118105169.026 7        46.000    22117309.355 6  91859588.855 6        41.000    22117310.629 6  91859584.860 6        40.200
G16  21456943.375 8 112757109.010 8        51.200    21456951.988 6  87862752.67546        39.000
G31  20911664.320 8 109891792.733 8        52.000    20911672.965 7  85629882.10247        43.300    20911672.719 8  85629884.103 8        50.000
G03  24007082.719 6 126158147.586 6        40.000    24007096.707 3  98305153.59243        22.500
G32  24549142.547 6 129006585.531 6        39.100    24549156.219 3 100524668.50643        21.300
G20  25102162.242 6 131912711.246 6        38.200    25102176.043 3 102789166.84543        18.300
R20  19919496.250 7 106518631.833 7        47.800    19919496.617 7 106518581.852 7        46.700    19919504.781 8  82847880.804 8        49.000    19919504.504 8  82847875.814 8        48.200
G14  22664092.477 7 119100562.009 7        44.300    22664104.070 4  92805726.73244        28.100
R07  24196857.313 6 129527607.593 6        40.500    24196856.859 6 129527567.556 6        39.200    24196872.379 5 100743658.774 5        34.200    24196871.141 5 100743652.766 5        33.600
G29  22870048.922 7 120182966.239 7        45.800    22870058.426 5  93649138.10345        31.900    22870058.305 7  93649132.095 7        42.500
R10  20485197.172 8 109197609.506 8        52.200    20485195.383 8 109197674.513 8        50.600    20485204.035 7  84931598.399 7        42.300    20485203.965 6  84931590.403 6        41.800
G23  24300552.664 6 127700295.172 6        40.300    24300562.473 3  99506761.96843        23.400
R11  22475649.242 7 120103005.817 7        44.000    22475648.543 7 120103057.838 7        42.200    22475657.152 6  93413592.649 6        36.400    22475657.262 6  93413588.657 6        36.000
R19  21786145.953 7 116541153.329 7        46.700    21786145.141 7 116541245.321 7        45.300    21786150.445 7  90643218.962 7        43.600    21786150.461 7  90643216.967 7        43.100
R01  22767604.211 7 121705907.667 7        44.900    22767602.953 7 121705900.666 7        43.200    22767612.324 6  94660169.556 6        36.900    22767613.820 5  94660158.563 5        35.300
G06  22093125.547 7 116100250.467 7        47.600    22093136.844 5  90467837.05745        34.200
J01  37281854.563 5 195917606.773 5        35.100    37281854.297 6 195917345.762 6        38.100    37281867.449 6 152663139.233 6        37.200    37281874.504 6 146302212.078 6        41.600    37281861.953 5 159023952.228 5        33.400
E12  25040319.406 7 131587847.950 7        46.800    25040327.434 7  98263739.260 7        45.800    25040324.621 7 100827114.670 7        45.600    25040325.891 8  99545431.073 8        52.600
C01  36698052.383 7 191096394.059 7        44.200    36698046.070 8 147767831.778 8        48.600    36698040.426 7 155281472.625 7        47.100
C02  39036751.445 5 203274627.516 5        35.700    39036749.086 6 157184828.258 6        41.300    39036743.746 6 165177266.926 6        39.600
C03  37216283.555 7 193794931.691 7        42.300    37216280.395 7 149854503.566 7        47.400    37216274.531 7 157474245.526 7        47.200
C04  37510146.297 6 195325191.411 6        40.600    37510144.121 7 151037810.927 7        45.800    37510137.789 7 158717717.689 7        45.700
C07  35956178.609 7 187233263.575 7        47.600    35956174.164 8 144780611.327 8        50.200    35956165.070 8 152142342.512 8        50.800
C10  37195606.367 7 193687297.866 7        45.100    37195605.316 7 149771310.866 7        46.400    37195595.426 7 157386752.475 7        46.800
C14  25691298.102 6 133781318.696 6        37.000    25691301.070 6 103448198.442 6        39.500    25691290.535 6 108708240.356 6        41.700
C08  37249214.195 7 193966476.262 7        45.300    37249211.453 7 149987209.075 7        47.800    37249202.852 7 157613629.035 7        47.800
C12  25682581.406 6 133735947.507 6        37.000    25682587.422 6 103413139.084 6        41.500    25682576.766 6 108671393.227 6        40.200
C09  40808461.117 5 212500331.316 5        35.800    40808467.598 5 164318754.928 5        31.900    40808457.105 6 172673899.542 6        36.900
C05  40896922.62515 212960963.12315        32.500    40896926.035 5                        34.200    40896918.36315 173048240.18715        33.500
> 2013  6 15  4 19 30.0000000  0 31
R21  21677543.570 7 116001472.703 7        47.300    21677542.488 7 116001197.712 7        47.300    21677549.457 6  90223072.743 6        38.200    21677550.090 6  90223080.741 6        37.100
R08  22200651.648 7 118883699.600 7        46.900    22200651.004 7 118883609.598 7        45.300    22200659.066 6  92465027.227 6        41.300    22200658.402 6  92465019.227 6        41.400
G21  24753722.391 6 130081732.653 6        37.000    24753738.336 3 101362435.46543        18.600
R09  22126194.273 7 118152402.303 7        46.600    22126193.074 7 118152645.296 7        45.600    22126200.023 7  91896514.781 7        42.000    22126201.715 6  91896510.781 6        40.700
G16  21449900.953 8 112720101.127 8        51.200    21449909.145 6  87833915.39346        39.200
G31  20912812.094 8 109897823.285 8        52.700    20912820.160 7  85634581.20947        43.900    20912819.801 8  85634583.210 8        49.600
G03  23985110.313 6 126042680.032 6        38.800    23985123.926 3  98215179.12443        22.600
G32  24558919.852 6 129057961.186 6        38.800    24558933.180 3 100564701.33943        21.500
G20  25108710.055 5 131947125.653 5        34.800    25108724.277 3 102815983.06043        18.300
R20  19912141.172 7 106479298.611 7        47.900    19912139.898 7 106479248.609 7        46.100    19912148.324 8  82817288.329 8        49.100    19912148.027 8  82817283.338 8        48.800
G14  22683420.281 7 119202127.874 7        45.000    22683432.305 4  92884868.83044        29.600
R07  24218080.555 6 129641214.741 6        40.500    24218079.281 6 129641174.740 6        39.400    24218094.301 5 100832020.012 5        35.400    24218094.664 5 100832014.005 5        35.200
G29  22884921.031 7 120261119.411 7        45.100    22884931.414 5  93710036.65845        31.700    22884930.988 7  93710030.647 7        42.600
R10  20482114.344 8 109181173.747 8        52.500    20482112.555 8 109181238.747 8        50.900    20482121.449 6  84918815.034 6        41.900    20482121.660 7  84918807.038 7        42.300
G23  24281695.102 6 127601200.056 6        39.100    24281704.852 3  99429545.09443        21.700
R11  22463219.063 7 120036579.115 7        44.100    22463217.188 7 120036631.112 7        42.300    22463226.125 6  93361927.490 6        36.300    22463225.949 5  93361923.491 5        35.300
R19  21800592.266 7 116618433.337 7        45.800    21800591.570 7 116618525.359 7        45.100    21800596.320 7  90703325.601 7        44.100    21800597.152 7  90703323.605 7        43.000
R01  22766124.672 7 121697998.398 7        44.400    22766123.648 7 121697991.407 7        42.700    22766132.641 6  94654017.855 6        36.700    22766134.371 5  94654006.869 5        35.800
G06  22074635.313 7 116003085.337 7        47.900    22074646.813 5  90392124.03245        34.200
J01  37281087.328 5 195913579.572 5        34.600    37281087.770 6 195913318.560 6        38.000    37281101.953 6 152660001.182 6        36.600    37281108.293 6 146299204.802 6        41.700    37281095.56615 159020683.36615        32.400
E12  25025070.250 7 131507713.539 7        47.600    25025078.516 7  98203898.704 7        46.600    25025075.512 7 100765713.048 7        45.900    25025076.832 8  99484809.980 8        52.800
C01  36698081.602 7 191096546.251 7        44.500    36698074.922 7 147767949.462 7        47.500    36698069.410 7 155281596.296 7        47.400
C02  39036851.453 5 203275153.005 5        35.900    39036850.293 6 157185234.600 6        40.300    39036844.664 6 165177693.926 6        39.200
C03  37216188.211 7 193794436.757 7        42.500    37216185.340 7 149854120.833 7        46.600    37216179.367 7 157473843.329 7        47.100
C04  37510152.641 6 195325225.027 6        40.800    37510150.504 7 151037836.910 7        45.000    37510144.387 7 158717744.995 7        45.100
C07  35953595.578 8 187219815.089 8        48.100    35953591.258 8 144770212.110 8        48.800    35953582.418 8 152131414.520 8        50.700
C10  37191747.461 7 193667202.918 7        46.100    37191746.410 7 149755772.184 7        46.200    37191736.367 7 157370423.690 7        46.800
C14  25697416.773 6 133813179.276 6        38.600    25697419.730 6 103472834.971 6        39.200    25697408.805 6 108734129.617 6        41.200
C08  37243564.461 7 193937056.373 7        46.000    37243561.742 7 149964459.763 7        46.700    37243552.828 7 157589722.975 7        46.800
C12  25663356.672 6 133635838.350 6        37.700    25663361.656 6 103335728.719 6        40.100    25663351.844 6 108590046.636 6        41.600
C09  40818611.641 5 212553190.779 5        35.400    40818619.063 5 164359628.926 5        33.300    40818608.188 6 172716851.899 6        36.900
> 2013  6 15  4 20  0.0000000  0 32
R21  21655150.258 7 115881644.369 7        47.400    21655149.762 7 115881369.370 7        46.900    21655156.598 6  90129873.030 6        38.400    21655157.391 6  90129881.028 6        38.500
R08  22216032.391 7 118966062.318 7        46.100    22216031.863 7 118965972.320 7        45.100    22216040.238 6  92529087.004 6        40.900    22216039.246 6  92529079.004 6        41.300
G21  24744797.586 6 130034827.811 6        37.300    24744812.574 2 101325886.39942        17.400
R09  22135113.500 7 118200032.108 7        45.600    22135112.770 7 118200275.109 7        44.500    22135119.785 6  91933560.084 6        41.700    22135121.449 6  91933556.089 6        41.500
G16  21442919.023 8 112683409.351 8        50.100    21442927.262 6  87805324.43346        39.500
G31  20914003.641 8 109904085.305 8        53.000    20914012.059 7  85639460.68947        44.200    20914012.172 8  85639462.689 8        49.300
G03  23963154.813 6 125927308.253 6        40.400    23963168.777 3  98125279.30843        22.900
G32  24568733.391 6 129109531.256 6        39.900    24568746.527 3 100604885.69443        22.200
G20  25115318.258 6 131981844.788 6        37.500    25115331.934 3 102843036.78443        18.600
R20  19904932.492 8 106440749.669 8        48.200    19904931.453 7 106440699.689 7        46.600    19904939.422 8  82787305.856 8        49.100    19904939.063 8  82787300.859 8        48.600
G14  22702794.938 7 119303941.259 7        45.200    22702806.641 4  92964203.80144        29.600
R07  24239268.656 6 129754641.163 6        39.900    24239267.969 6 129754601.201 6        38.600    24239283.895 5 100920240.692 5        35.900    24239283.457 5 100920234.690 5        35.300
G29  22899864.656 7 120339650.663 7        44.400    22899874.863 5  93771229.78445        31.600    22899874.730 7  93771223.781 7        43.000
R10  20479055.203 8 109164868.060 8        52.600    20479053.176 8 109164933.061 8        50.700    20479061.926 7  84906132.840 7        42.600    20479062.043 6  84906124.844 6        41.700
G23  24262882.195 6 127502331.640 6        39.200    24262890.758 3  99352504.82943        23.500
R11  22450779.133 7 119970108.815 7        43.900    22450778.199 6 119970160.838 6        41.800    22450787.051 6  93310228.399 6        36.200    22450787.148 6  93310224.408 6        36.500
R19  21815156.391 7 116696339.551 7        47.000    21815155.695 7 116696431.565 7        45.800    21815161.250 7  90763919.277 7        43.200    21815161.844 7  90763917.289 7        43.700
R01  22764776.914 7 121690795.094 7        44.400    22764775.656 7 121690788.106 7        43.400    22764784.410 6  94648415.258 6        36.500    22764786.035 6  94648404.270 6        36.000
G06  22056203.016 7 115906223.362 7        46.400    22056214.832 5  90316647.25545        34.800
J01  37280311.109 5 195909498.255 5        33.700    37280311.219 6 195909237.246 6        38.200    37280325.070 6 152656820.982 6        36.900    37280332.230 6 146296157.114 6        41.800    37280318.914 5 159017370.731 5        33.500
E12  25009854.195 7 131427751.940 7        47.300    25009862.133 7  98144187.194 7        46.200    25009859.555 7 100704443.839 7        45.600    25009860.684 8  99424319.624 8        52.900
C01  36698111.266 7 191096700.826 7        44.200    36698104.711 8 147768068.973 8        48.400    36698099.289 7 155281721.888 7        47.500
C02  39036952.484 6 203275680.163 6        36.000    39036950.828 6 157185642.224 6        40.500    39036945.531 6 165178122.287 6        39.700
C03  37216093.922 7 193793943.477 7        42.300    37216090.695 7 149853739.381 7        47.000    37216084.895 7 157473442.485 7        47.900
C04  37510159.156 6 195325259.717 6        40.700    37510157.484 7 151037863.744 7        45.400    37510150.828 7 158717773.193 7        45.700
C07  35951016.742 7 187206386.033 7        47.300    35951012.324 8 144759827.908 8        50.000    35951003.488 8 152120502.305 8        51.000
C10  37187884.711 7 193647090.520 7        45.100    37187883.703 7 149740220.014 7        46.200    37187873.789 7 157354080.725 7        46.800
C14  25703598.734 6 133845364.692 6        37.500    25703601.078 6 103497722.666 6        40.400    25703590.340 6 108760282.825 6        41.200
C08  37237938.617 7 193907762.857 7        45.500    37237936.332 7 149941808.177 7        47.300    37237927.516 8 157565919.608 8        48.000
C12  25644135.602 5 133535754.816 5        35.800    25644140.730 6 103258338.158 6        39.900    25644131.199 6 108508720.890 6        41.800
C09  40828748.898 5 212605972.594 5        35.200    40828756.465 5 164400442.841 5        34.700    40828745.113 5 172759741.145 5        35.200
C05  40896751.51615 212960075.51515        32.000    40896754.68415 164674280.33815        33.000    40896748.32415 173047519.27415        33.800
> 2013  6 15  4 20 30.0000000  0 32
R21  21632812.820 7 115762113.047 7        47.800    21632812.324 7 115761838.066 7        46.500    21632819.477 6  90036904.333 6        39.600    21632820.309 6  90036912.336 6        37.900
R08  22231485.641 7 119048809.698 7        46.600    22231484.176 7 119048719.719 7        45.500    22231491.871 6  92593445.948 6        41.700    22231492.184 6  92593437.948 6        41.100
G21  24735891.250 6 129988026.959 6        38.000    24735906.531 2 101289418.27942        16.900
R09  22144061.930 7 118247816.270 7        46.600    22144061.555 7 118248059.275 7        45.100    22144068.711 6  91970725.488 6        41.700    22144069.574 6  91970721.494 6        40.900
G16  21435996.273 8 112647033.396 8        50.100    21436005.254 6  87776979.57146        39.400
G31  20915239.773 8 109910580.249 8        53.200    20915247.918 7  85644521.66747        44.100    20915247.715 8  85644523.661 8        49.300
G03  23941219.695 6 125812034.707 6        40.600    23941233.926 4  98035456.02644        24.900
G32  24578582.992 6 129161293.469 6        39.000    24578596.566 3 100645219.75143        22.000
G20  25121982.234 6 132016866.599 6        37.300    25121996.211 3 102870326.32043        18.300
R20  19897870.602 8 106402987.320 8        48.300    19897869.680 7 106402937.325 7        46.800    19897878.453 8  82757935.170 8        48.500    19897877.559 8  82757930.172 8        48.300
G14  22722215.711 7 119406000.121 7        45.000    22722227.664 4  93043730.04844        27.700
R07  24260424.977 6 129867883.991 6        39.800    24260423.586 6 129867843.989 6        37.900    24260438.957 6 101008318.558 6        38.200    24260438.664 6 101008312.560 6        37.000
G29  22914879.977 7 120418558.083 7        43.400    22914890.668 5  93832716.03045        30.400    22914890.445 7  93832710.023 7        42.700
R10  20476021.242 8 109148694.111 8        52.500    20476019.805 8 109148759.111 8        51.100    20476028.633 7  84893553.096 7        42.600    20476028.781 7  84893545.099 7        42.100
G23  24244111.203 6 127403692.766 6        39.400    24244120.273 3  99275643.43743        22.200
R11  22438332.391 7 119903595.112 7        44.500    22438330.988 7 119903647.142 7        43.500    22438339.168 6  93258495.572 6        36.900    22438339.797 6  93258491.573 6        36.200
R19  21829836.852 7 116774868.936 7        46.700    21829834.863 7 116774960.966 7        44.700    21829840.527 7  90824997.639 7        43.700    21829841.172 7  90824995.649 7        43.200
R01  22763561.227 7 121684297.759 7        44.100    22763560.203 7 121684290.774 7        43.400    22763569.586 6  94643361.747 6        36.100    22763570.504 5  94643350.751 5        35.600
G06  22037828.992 7 115809667.617 7        47.700    22037840.477 5  90241409.09345        34.500
J01  37279523.500 5 195905363.240 5        34.300    37279524.406 6 195905102.231 6        38.200    37279537.906 6 152653598.941 6        37.200    37279545.328 7 146293069.342 7        42.500    37279531.48415 159014014.35515        32.600
E12  24994671.320 7 131347965.322 7        47.800    24994679.523 7  98084606.354 7        47.100    24994676.148 7 100643308.706 7        45.500    24994677.734 8  99363961.634 8        53.000
C01  36698141.070 7 191096858.008 7        44.500    36698134.918 8 147768190.505 8        48.600    36698129.363 7 155281849.602 7        47.400
C02  39037054.617 5 203276209.214 5        35.900    39037052.957 6 157186051.322 6        41.300    39037047.660 6 165178552.180 6        39.900
C03  37215999.602 7 193793452.169 7        42.500    37215996.453 7 149853359.454 7        47.300    37215990.551 7 157473043.245 7        47.200
C04  37510166.727 6 195325295.903 6        40.900    37510164.078 7 151037891.712 7        45.100    37510157.664 7 158717802.585 7        45.600
C07  35948441.633 8 187192977.116 8        48.000    35948437.426 8 144749459.277 8        50.300    35948428.586 8 152109606.460 8        50.400
C10  37184019.320 7 193626961.500 7        46.700    37184018.461 7 149724654.975 7        46.100    37184008.438 7 157337724.250 7        46.700
C14  25709840.586 6 133877873.407 6        37.000    25709843.879 6 103522860.343 6        39.900    25709833.438 6 108786698.727 6        41.700
C08  37232337.242 7 193878596.272 7        46.100    37232334.977 7 149919254.739 7        47.300    37232326.406 7 157542219.378 7        47.600
C12  25624920.016 5 133435699.151 5        35.900    25624925.605 6 103180969.162 6        40.500    25624916.016 6 108427417.801 6        40.800
C09  40838870.102 5 212658676.635 5        34.700    40838878.172 5 164441196.591 5        35.400    40838866.738 5 172802567.218 5        34.300
C05  40896668.38315 212959630.36715        31.800    40896671.31315 164673927.90715        35.100    40896664.30915 173047149.62015        35.300
> 2013  6 15  4 21  0.0000000  0 31
R21  21610531.789 7 115642882.348 7        47.200    21610531.059 7 115642607.357 7        46.400    21610537.363 6  89944169.435 6        38.100    21610538.582 6  89944177.438 6        37.400
R08  22247008.852 7 119131936.561 7        47.300    22247007.621 7 119131846.571 7        45.700    22247015.996 7  92658100.033 7        42.200    22247016.371 6  92658092.038 6        41.400
G21  24727006.539 6 129941331.761 6        38.900    24727020.531 3 101253032.52443        19.000
R09  22153040.031 7 118295755.490 7        46.900    22153038.949 7 118295998.489 7        45.300    22153045.637 6  92008011.453 6        41.300    22153046.836 6  92008007.458 6        40.400
G16  21429134.555 8 112610971.850 8        50.900    21429143.313 6  87748879.68846        39.400
G31  20916520.164 8 109917308.458 8        53.000    20916528.129 7  85649764.40747        43.800    20916528.133 8  85649766.408 8        49.500
G03  23919302.680 6 125696861.097 6        39.400    23919315.996 4  97945710.59944        24.700
G32  24588469.508 6 129213244.423 6        39.400    24588483.094 3 100685700.88843        22.600
G20  25128703.617 6 132052188.207 6        37.300    25128717.145 3 102897849.47343        18.300
R20  19890956.844 7 106366013.134 7        47.900    19890955.922 7 106365963.124 7        46.900    19890963.719 8  82729177.496 8        48.700    19890963.352 8  82729172.505 8        48.200
G14  22741683.250 7 119508301.189 7        44.900    22741694.625 4  93123445.02644        27.700
R07  24281542.742 6 129980938.895 6        38.600    24281541.469 6 129980898.921 6        36.300    24281557.652 6 101096250.287 6        37.400    24281557.598 6 101096244.284 6        36.800
G29  22929966.578 7 120497838.273 7        43.700    22929977.551 5  93894492.75545        30.900    22929977.137 7  93894486.745 7        42.000
R10  20473011.391 8 109132652.251 8        52.300    20473010.070 8 109132717.245 8        50.800    20473019.203 7  84881076.103 7        42.200    20473019.238 7  84881068.099 7        42.300
G23  24225384.930 6 127305285.478 6        39.900    24225394.195 3  99198962.48943        23.000
R11  22425877.031 7 119837037.699 7        44.600    22425875.746 7 119837089.713 7        43.800    22425884.047 6  93206728.731 6        37.400    22425884.258 5  93206724.727 5        35.800
R19  21844632.672 8 116854017.325 8        48.100    21844631.859 7 116854109.352 7        46.000    21844636.848 7  90886557.456 7        43.600    21844637.414 7  90886555.461 7        42.800
R01  22762478.969 7 121678505.020 7        44.700    22762477.359 7 121678498.032 7        43.200    22762486.121 5  94638856.233 5        35.700    22762486.762 5  94638845.237 5        35.200
G06  22019513.688 7 115713419.882 7        47.300    22019524.934 5  90166410.93745        34.500
J01  37278726.797 5 195901174.009 5        35.000    37278727.297 6 195900913.000 6        38.800    37278741.094 6 152650334.655 6        36.900    37278748.691 6 146289941.075 6        41.800    37278734.500 5 159010614.114 5        33.600
E12  24979521.617 7 131268354.751 7        47.300    24979530.141 7  98025156.977 7        46.500    24979526.859 7 100582308.466 7        45.600    24979528.238 8  99303736.828 8        53.100
C01  36698171.758 7 191097017.110 7        44.100    36698165.137 8 147768313.523 8        48.500    36698159.809 7 155281978.879 7        47.600
C02  39037157.211 5 203276739.495 5        35.700    39037154.441 6 157186461.366 6        40.900    39037149.004 6 165178983.080 6        38.900
C03  37215905.063 7 193792962.036 7        42.400    37215902.102 7 149852980.445 7        47.500    37215896.313 7 157472644.973 7        47.900
C04  37510173.242 6 195325332.764 6        40.700    37510171.383 7 151037920.212 7        45.500    37510164.805 7 158717832.534 7        46.000
C07  35945870.492 7 187179588.142 7        47.200    35945866.250 8 144739106.067 8        49.800    35945857.285 8 152098726.821 8        51.100
C10  37180150.656 7 193606815.450 7        45.300    37180149.578 7 149709076.771 7        46.600    37180139.445 7 157321353.927 7        46.500
C14  25716145.617 6 133910702.839 6        37.600    25716148.621 6 103548246.018 6        40.400    25716138.398 7 108813375.226 7        42.200
C08  37226760.633 7 193849555.965 7        45.200    37226758.238 7 149896798.946 7        46.600    37226749.422 7 157518621.769 7        47.500
C12  25605711.523 6 133335672.619 6        36.800    25605717.094 6 103103622.678 6        40.700    25605706.926 6 108346138.324 6        41.700
C09  40848976.188 5 212711301.678 5        34.200    40848984.805 6 164481889.238 6        36.700    40848972.934 5 172845329.092 5        34.200
> 2013  6 15  4 21 30.0000000  0 31
R21  21588307.703 7 115523957.633 7        47.000    21588306.855 7 115523682.634 7        45.800    21588314.109 6  89851672.537 6        38.400    21588314.531 6  89851680.541 6        37.800
R08  22262602.938 7 119215439.985 7        47.500    22262601.941 7 119215350.022 7        45.600    22262609.676 7  92723047.019 7        42.100    22262609.715 6  92723039.014 6        41.900
G21  24718141.102 6 129894745.914 6        39.400    24718155.570 3 101216731.95643        19.600
R09  22162046.953 7 118343851.904 7        47.100    22162046.340 7 118344094.929 7        45.800    22162053.070 6  92045419.669 6        41.900    22162054.438 6  92045415.669 6        40.300
G16  21422331.969 8 112575225.209 8        51.200    21422340.746 6  87721025.19146        38.900
G31  20917845.094 8 109924272.290 8        53.000    20917853.121 7  85655190.74647        43.900    20917852.953 8  85655192.746 8        48.700
G03  23897405.211 6 125581790.849 6        39.700    23897419.215 4  97856045.70944        25.300
G32  24598391.141 6 129265382.855 6        39.700    24598404.309 3 100726328.10243        21.300
G20  25135481.922 5 132087808.312 5        34.800    25135495.945 2 102925605.23942        16.900
R20  19884189.719 8 106329830.214 8        48.400    19884189.148 7 106329780.212 7        46.600    19884197.594 8  82701035.266 8        48.600    19884196.859 8  82701030.270 8        48.500
G14  22761196.539 7 119610842.999 7        44.900    22761207.895 4  93203347.60244        27.200
R07  24302626.648 6 130093803.618 6        37.500    24302625.727 6 130093763.608 6        36.000    24302641.738 6 101184034.109 6        37.700    24302642.004 6 101184028.119 6        36.500
G29  22945123.859 7 120577490.167 7        42.700    22945134.855 5  93956559.10745        30.100    22945134.492 7  93956553.096 7        42.900
R10  20470026.805 8 109116745.408 8        51.900    20470025.719 8 109116810.408 8        50.400    20470034.879 7  84868704.123 7        42.400    20470034.688 7  84868696.126 7        42.100
G23  24206703.063 6 127207113.701 6        40.900    24206712.516 3  99122465.10643        22.900
R11  22413414.063 7 119770438.486 7        44.600    22413412.660 7 119770490.477 7        43.500    22413420.852 6  93154929.384 6        37.100    22413421.082 6  93154925.387 6        36.900
R19  21859543.555 7 116933782.708 7        47.600    21859542.742 7 116933874.720 7        46.000    21859547.973 7  90948597.162 7        43.000    21859548.188 7  90948595.166 7        42.700
R01  22761526.375 7 121673417.483 7        44.600    22761525.352 7 121673410.475 7        43.800    22761533.648 6  94634899.201 6        36.400    22761535.578 5  94634888.210 5        34.800
G06  22001257.945 8 115617484.008 8        48.100    22001268.699 5  90091655.79045        34.800
J01  37277919.359 5 195896931.977 5        35.700    37277919.469 6 195896670.968 6        37.900    37277933.266 6 152647029.234 6        36.700    37277940.973 6 146286773.394 6        41.700    37277927.773 5 159007171.019 5        33.400
E12  24964406.336 7 131188923.427 7        47.900    24964414.648 7  97965841.454 7        46.600    24964410.992 7 100521445.578 7        45.700    24964412.758 8  99243647.624 8        53.000
C01  36698203.016 7 191097179.450 7        44.100    36698196.461 8 147768439.046 8        48.600    36698190.918 7 155282110.785 7        46.700
C02  39037258.547 6 203277272.218 6        36.000    39037256.918 6 157186873.305 6        41.500    39037251.746 6 165179415.956 6        39.200
C03  37215811.594 7 193792474.402 7        42.400    37215808.605 7 149852603.368 7        47.000    37215802.578 7 157472248.718 7        47.900
C04  37510181.031 6 195325371.797 6        40.500    37510178.906 7 151037950.341 7        45.200    37510172.824 7 158717864.205 7        45.700
C07  35943303.313 7 187166220.893 7        46.600    35943299.082 8 144728769.658 8        49.600    35943290.449 8 152087864.825 8        50.500
C10  37176278.914 7 193586654.130 7        45.200    37176278.148 7 149693486.763 7        46.000    37176268.133 7 157304971.211 7        46.500
C14  25722511.711 6 133943852.450 6        37.600    25722514.391 6 103573879.272 6        41.100    25722504.191 6 108840311.901 6        41.600
C08  37221208.133 7 193820643.316 7        45.600    37221205.566 7 149874441.862 7        46.800    37221197.016 7 157495127.878 7        47.000
C12  25586509.391 6 133235678.658 6        37.500    25586514.145 6 103026301.354 6        41.300    25586503.949 7 108264885.306 7        42.200
C09  40859068.164 5 212763848.335 5        34.000    40859076.234 5 164522521.263 5        35.700    40859064.109 5 172888027.270 5        33.300
> 2013  6 15  4 22  0.0000000  0 31
R21  21566141.617 7 115405342.515 7        46.900    21566141.004 7 115405067.523 7        46.000    21566148.344 6  89759416.437 6        39.200    21566149.043 6  89759424.440 6        37.900
R08  22278265.969 7 119299314.364 7        46.100    22278265.207 7 119299224.372 7        45.300    22278273.715 7  92788282.523 7        43.100    22278273.996 6  92788274.518 6        41.700
G21  24709297.875 6 129848270.743 6        39.800    24709311.340 3 101180517.59743        19.900
R09  22171083.781 7 118392105.375 7        47.700    22171082.816 7 118392348.375 7        46.300    22171089.191 6  92082950.059 6        41.500    22171090.879 6  92082946.062 6        40.800
G16  21415589.109 8 112539791.927 8        50.500    21415597.500 6  87693414.85746        39.700
G31  20919215.438 8 109931471.675 8        52.900    20919223.266 7  85660800.62947        44.500    20919223.086 8  85660802.630 8        49.100
G03  23875528.188 6 125466825.352 6        39.900    23875541.414 4  97766462.42444        24.200
G32  24608347.391 6 129317704.848 6        39.200    24608361.277 3 100767098.35443        20.900
G20  25142316.508 6 132123723.457 6        38.600    25142330.406 2 102953590.84442        17.800
R20  19877572.180 8 106294439.518 8        48.300    19877571.375 7 106294389.537 7        46.500    19877579.258 8  82673509.198 8        48.700    19877578.941 8  82673504.201 8        48.700
G14  22780754.828 7 119713621.604 7        44.900    22780766.238 4  93283434.69144        28.300
R07  24323673.922 6 130206473.250 6        37.700    24323673.000 6 130206433.252 6        36.300    24323689.512 6 101271666.180 6        36.400    24323689.621 5 101271660.188 5        35.200
G29  22960351.227 7 120657509.719 7        43.800    22960362.012 4  94018911.95744        29.700    22960361.602 7  94018905.940 7        42.600
R10  20467068.766 8 109100973.670 8        52.700    20467066.621 8 109101038.663 8        50.900    20467075.277 7  84856437.216 7        42.700    20467075.316 6  84856429.226 6        41.900
G23  24188067.500 6 127109179.012 6        40.200    24188075.559 3  99046152.40143        23.900
R11  22400942.836 7 119703796.214 7        43.900    22400941.434 7 119703848.187 7        42.800    22400949.348 6  93103096.559 6        37.200    22400950.000 5  93103092.554 5        35.600
R19  21874569.336 7 117014160.651 7        47.500    21874568.055 7 117014252.658 7        45.900    21874573.906 7  91011113.296 7        43.200    21874574.406 7  91011111.301 7        42.800
R01  22760706.664 7 121669033.273 7        45.100    22760705.523 7 121669026.263 7        43.800    22760713.938 5  94631489.228 5        35.700    22760714.809 5  94631478.238 5        34.800
G06  21983061.023 7 115521861.333 7        47.500    21983072.633 5  90017144.69845        35.100
J01  37277101.344 6 195892636.211 6        36.200    37277101.980 6 195892375.203 6        38.000    37277116.117 6 152643681.920 6        37.500    37277123.707 7 146283565.567 7        42.000    37277110.39115 159003684.07415        31.900
E12  24949325.578 7 131109671.937 7        47.800    24949333.527 7  97906660.228 7        47.100    24949329.684 7 100460720.476 7        45.600    24949331.621 8  99183694.457 8        53.100
C01  36698235.039 7 191097343.907 7        43.900    36698228.188 8 147768566.210 8        48.400    36698222.820 7 155282244.418 7        47.100
C02  39037361.375 6 203277806.198 6        36.100    39037359.613 6 157187286.211 6        40.800    39037354.230 6 165179849.860 6        40.000
C03  37215717.945 7 193791988.145 7        42.400    37215715.242 7 149852227.348 7        47.500    37215709.320 7 157471853.582 7        47.300
C04  37510188.578 6 195325411.610 6        40.700    37510186.301 7 151037981.136 7        45.100    37510179.871 7 158717896.566 7        45.700
C07  35940740.320 7 187152874.665 7        47.900    35940735.832 8 144718449.503 8        49.600    35940727.184 8 152077019.920 8        50.200
C10  37172404.102 7 193566476.746 7        45.800    37172402.863 7 149677884.324 7        47.100    37172392.926 7 157288575.429 7        46.700
C14  25728940.008 6 133977319.042 6        37.700    25728941.605 6 103599757.648 6        41.600    25728931.121 6 108867506.170 6        41.300
C08  37215679.953 7 193791857.329 7        45.400    37215677.625 7 149852182.725 7        47.300    37215669.000 7 157471736.913 7        47.500
C12  25567311.500 6 133135717.806 6        37.000    25567317.223 6 102949005.641 6        40.500    25567307.207 7 108183659.234 7        42.100
C09  40869143.391 5 212816314.794 5        34.300    40869152.945 6 164563091.302 6        37.000    40869140.102 5 172930660.290 5        34.700
> 2013  6 15  4 22 30.0000000  0 30
R21  21544034.258 7 115287041.885 7        46.800    21544034.113 7 115286766.900 7        46.100    21544041.352 6  89667404.946 6        39.000    21544041.875 6  89667412.950 6        38.000
R08  22293997.594 7 119383555.915 7        46.800    22293996.129 7 119383465.917 7        45.600    22294004.141 7  92853803.602 7        42.900    22294004.863 7  92853795.602 7        42.000
G21  24700474.016 6 129801909.229 6        37.200    24700489.273 3 101144391.81743        18.300
R09  22180149.945 7 118440517.969 7        47.600    22180148.629 7 118440760.964 7        45.500    22180154.941 6  92120604.198 6        41.400    22180156.969 6  92120600.196 6        40.900
G16  21408905.992 8 112504671.937 8        51.900    21408914.520 6  87666048.64746        40.400
G31  20920630.180 8 109938908.591 8        52.700    20920639.031 7  85666595.61847        43.800    20920639.047 8  85666597.611 8        49.100
G03  23853671.016 6 125351967.719 6        40.300    23853685.012 4  97676963.15444        24.800
G32  24618339.078 6 129370208.702 6        39.200    24618352.316 3 100808010.30243        20.400
G20  25149207.250 6 132159932.067 6        37.400    25149221.211 2 102981805.17142        16.900
R20  19871102.227 8 106259843.737 8        48.000    19871101.539 7 106259793.741 7        46.600    19871109.457 8  82646601.393 8        48.500    19871109.035 8  82646596.395 8        48.500
G14  22800357.852 7 119816635.203 7        43.900    22800369.551 4  93363704.86844        27.900
G29  22975648.430 7 120737895.520 7        44.200    22975658.898 5  94081550.18845        30.300    22975658.574 7  94081544.178 7        42.600
R10  20464135.430 8 109085339.458 8        52.100    20464134.227 8 109085404.451 8        50.700    20464142.863 7  84844277.274 7        42.500    20464142.848 6  84844269.285 6        41.900
G23  24169476.453 7 127011485.073 7        42.000    24169485.430 4  98970027.35044        24.900
R11  22388463.453 7 119637112.367 7        44.600    22388462.637 7 119637164.371 7        42.800    22388470.285 6  93051231.377 6        37.200    22388470.758 6  93051227.385 6        36.300
R19  21889709.313 8 117095148.365 8        48.300    21889708.266 7 117095240.381 7        46.700    21889713.441 7  91074103.705 7        42.600    21889713.973 7  91074101.709 7        42.800
R01  22760017.734 7 121665352.671 7        45.600    22760016.477 7 121665345.663 7        43.800    22760025.430 6  94628626.506 6        36.100    22760026.332 5  94628615.522 5        35.500
G06  21964924.820 7 115426555.336 7        47.300    21964935.785 5  89942880.35345        35.100
J01  37276274.703 5 195888287.505 5        35.900    37276274.711 6 195888026.505 6        38.300    37276288.129 6 152640293.387 6        37.700    37276295.719 6 146280318.239 6        41.400    37276282.05515 159000154.40715        33.400
E12  24934279.047 7 131030602.990 7        47.600    24934287.066 7  97847615.305 7        47.200    24934283.598 7 100400135.243 7        44.900    24934285.301 8  99123879.382 8        53.100
C01  36698266.609 7 191097511.269 7        44.100    36698260.258 7 147768695.620 7        47.900    36698254.863 7 155282380.417 7        47.300
C02  39037465.008 5 203278342.436 5        35.800    39037462.477 6 157187700.863 6        41.100    39037457.367 6 165180285.600 6        38.900
C03  37215625.656 7 193791504.114 7        42.400    37215622.391 7 149851853.064 7        47.600    37215616.371 7 157471460.279 7        47.000
C04  37510196.828 6 195325453.157 6        40.800    37510194.063 7 151038013.252 7        45.800    37510187.754 7 158717930.324 7        46.200
C07  35938181.766 8 187139550.947 8        48.200    35938177.520 8 144708146.750 8        50.000    35938168.734 8 152066193.305 8        50.300
C10  37168526.328 7 193546284.554 7        45.700    37168525.320 7 149662270.447 7        46.900    37168515.285 7 157272167.621 7        46.400
C14  25735426.109 6 134011101.680 6        36.900    25735429.410 7 103625880.413 7        42.300    25735418.355 6 108894957.229 6        40.500
C08  37210176.844 7 193763199.036 7        46.000    37210173.910 7 149830022.332 7        47.200    37210165.660 7 157448449.720 7        47.700
C12  25548122.602 6 133035793.047 6        37.000    25548126.789 6 102871737.785 6        39.600    25548117.199 6 108102462.446 6        41.800
C09  40879204.031 5 212868701.477 5        34.600    40879213.172 6 164603599.634 6        37.600    40879201.055 5 172973228.473 5        33.900
> 2013  6 15  4 23  0.0000000  0 31
R21  21521987.141 7 115169060.017 7        47.800    21521985.938 7 115168785.034 7        47.100    21521992.863 6  89575641.375 6        39.100    21521993.586 6  89575649.372 6        37.900
R08  22309798.055 7 119468160.156 7        47.200    22309796.004 7 119468070.167 7        45.500    22309804.039 7  92919606.760 7        42.800    22309804.688 7  92919598.760 7        42.200
G21  24691674.266 6 129755663.707 6        36.800    24691688.016 2 101108356.43742        15.600
R09  22189245.289 7 118489090.006 7        47.600    22189244.441 7 118489333.003 7        45.200    22189251.406 6  92158382.316 6        40.700    22189253.090 6  92158378.322 6        40.400
G16  21402282.398 8 112469864.888 8        51.200    21402291.383 6  87638926.28846        39.600
G31  20922090.930 8 109946583.643 8        52.800    20922099.230 7  85672576.14547        43.500    20922098.723 8  85672578.146 8        49.600
G03  23831834.539 6 125237220.031 6        38.900    23831848.258 3  97587549.59143        23.800
G32  24628364.156 6 129422891.492 6        40.800    24628376.875 3 100849061.69443        20.600
G20  25156152.766 6 132196431.456 6        37.900    25156166.957 3 103010246.07343        18.600
R20  19864781.461 7 106226044.517 7        47.300    19864781.008 7 106225994.514 7        45.800    19864789.227 8  82620313.147 8        48.000    19864788.527 8  82620308.150 8        48.600
G14  22820004.906 7 119919881.434 7        44.700    22820017.270 4  93444156.32744        27.000
G29  22991014.234 7 120818644.914 7        44.500    22991024.723 5  94144471.74145        30.700    22991024.613 6  94144465.731 6        41.400
R10  20461228.656 8 109069843.748 8        52.200    20461227.336 8 109069908.748 8        50.400    20461236.277 7  84832225.068 7        42.500    20461235.902 6  84832217.071 6        41.900
G23  24150932.273 6 126914034.397 6        41.300    24150941.176 4  98894091.82544        24.700
R11  22375977.430 7 119570386.746 7        44.900    22375975.910 7 119570438.755 7        43.700    22375983.852 6  92999333.711 6        36.500    22375983.879 6  92999329.709 6        36.000
R19  21904962.641 8 117176742.293 8        48.800    21904961.125 7 117176834.294 7        47.300    21904966.488 7  91137565.614 7        42.100    21904966.922 7  91137563.618 7        42.300
R01  22759461.422 7 121662374.621 7        44.800    22759459.340 7 121662367.636 7        43.000    22759469.063 6  94626310.200 6        37.100    22759469.664 6  94626299.219 6        36.500
G06  21946849.508 7 115331568.257 7        47.900    21946860.164 5  89868864.51845        34.900
J01  37275436.21915 195883885.97815        35.400    37275437.23816 195883624.97816        37.900    37275451.04716 152636863.68316        37.200    37275458.32016 146277031.44916        41.300    37275444.30115 158996581.61015        32.400
E12  24919267.680 7 130951718.107 7        47.800    24919276.121 7  97788707.832 7        47.400    24919272.184 7 100339691.047 7        46.100    24919273.949 8  99064203.547 8        53.200
C01  36698299.234 7 191097681.368 7        44.000    36698292.973 7 147768827.152 7        47.800    36698287.391 7 155282518.632 7        46.800
C02  39037568.359 5 203278880.596 5        35.500    39037565.840 6 157188117.003 6        41.300    39037560.676 6 165180722.898 6        39.900
C03  37215532.578 7 193791022.053 7        42.400    37215529.902 7 149851480.294 7        47.200    37215524.016 7 157471068.554 7        47.000
C04  37510205.500 6 195325496.184 6        40.800    37510202.691 7 151038046.508 7        46.000    37510196.398 7 158717965.278 7        45.400
C07  35935627.148 7 187126249.799 7        47.300    35935623.152 8 144697861.457 8        50.000    35935614.238 8 152055385.026 8        50.300
C10  37164645.758 7 193526077.855 7        45.600    37164644.758 7 149646645.348 7        46.800    37164634.918 7 157255748.022 7        46.400
C14  25741973.891 6 134045198.221 6        36.000    25741977.512 7 103652245.885 7        42.400    25741966.887 6 108922663.358 6        41.300
C08  37204697.984 7 193734668.310 7        45.900    37204695.121 7 149807960.575 7        47.600    37204686.992 7 157425266.179 7        47.800
C12  25528940.195 6 132935906.182 6        37.700    25528944.309 6 102794499.229 6        41.100    25528934.516 6 108021296.433 6        41.600
C09  40889248.914 5 212921007.465 5        35.400    40889258.688 6 164644045.579 6        36.600    40889247.000 5 173015731.084 5        34.400
C05  40896249.13315 212957453.63315        32.300    40896252.70315 164672249.30515        34.400    40896245.65215 173045385.37615        35.500
> 2013  6 15  4 23 30.0000000  0 31
R21  21499999.344 7 115051401.007 7        47.700    21499997.789 7 115051126.021 7        46.400    21500005.195 6  89484128.924 6        38.700    21500005.621 6  89484136.928 6        38.500
R08  22325663.234 7 119553122.466 7        47.000    22325662.355 7 119553032.478 7        45.200    22325670.695 6  92985688.440 6        41.400    22325670.695 6  92985680.445 6        41.500
G21  24682896.031 6 129709536.606 6        37.100    24682909.742 2 101072413.33542        16.300
R09  22198371.602 7 118537822.595 7        46.600    22198371.227 7 118538065.596 7        45.500    22198377.590 6  92196285.298 6        40.600    22198379.391 6  92196281.309 6        40.400
G16  21395718.164 8 112435369.403 8        51.800    21395726.949 6  87612046.71746        40.000
G31  20923597.078 8 109954497.877 8        52.700    20923605.414 7  85678743.06447        44.100    20923605.305 8  85678745.065 8        49.400
G03  23810020.422 6 125122584.613 6        39.900    23810034.262 3  97498223.49243        23.200
G32  24638423.227 6 129475750.410 6        38.800    24638436.293 3 100890250.28643        21.100
G20  25163155.188 6 132233219.520 6        37.800    25163167.652 3 103038911.93643        18.600
R20  19858609.883 7 106193043.516 7        47.800    19858609.078 7 106192993.514 7        46.400    19858617.285 8  82594645.729 8        49.200    19858616.926 8  82594640.732 8        49.100
G14  22839696.234 7 120023357.196 7        44.000    22839707.668 4  93524786.65344        27.900
G29  23006449.773 7 120899755.078 7        43.700    23006459.344 5  94207674.42745        31.000    23006459.090 6  94207668.416 6        41.500
R10  20458347.773 8 109054487.791 8        52.300    20458346.570 8 109054552.799 8        50.700    20458355.500 7  84820281.557 7        42.500    20458355.477 6  84820273.560 6        41.800
G23  24132434.125 6 126816829.452 6        41.800    24132443.566 4  98818347.78544        26.000
R11  22363482.508 7 119503619.743 7        44.400    22363481.223 7 119503671.751 7        43.000    22363489.438 6  92947403.864 6        37.200    22363489.289 5  92947399.865 5        35.600
R19  21920328.313 8 117258938.828 8        48.600    21920327.852 7 117259030.834 7        46.800    21920332.871 7  91201496.217 7        42.700    21920333.344 7  91201494.221 7        42.300
R01  22759035.438 7 121660098.222 7        44.600    22759033.828 7 121660091.239 7        42.800    22759042.859 6  94624539.640 6        37.300    22759044.035 6  94624528.652 6        36.100
G06  21928834.922 7 115236902.469 7        47.900    21928845.523 5  89795099.03745        34.400
J01  37274589.188 6 195879431.455 6        37.300    37274589.484 6 195879170.456 6        38.500    37274603.129 6 152633392.676 6        36.900    37274610.477 6 146273705.091 6        41.800    37274596.051 5 158992966.126 5        33.000
E12  24904291.477 7 130873018.975 7        47.400    24904299.547 7  97729939.064 7        46.900    24904296.266 7 100279389.175 7        45.300    24904297.844 8  99004668.229 8        53.100
C01  36698332.430 7 191097854.012 7        44.300    36698326.105 8 147768960.643 8        48.500    36698320.867 7 155282658.910 7        47.200
C02  39037671.836 6 203279420.457 6        36.000    39037669.438 6 157188534.467 6        40.500    39037664.094 6 165181161.581 6        39.200
C03  37215440.406 7 193790541.786 7        42.500    37215437.746 7 149851108.918 7        47.300    37215431.668 7 157470678.291 7        47.400
C04  37510213.664 6 195325540.527 6        40.700    37510211.246 7 151038080.779 7        45.200    37510204.848 7 158718001.285 7        45.600
C07  35933077.289 8 187112971.607 8        48.200    35933072.859 8 144687593.900 8        50.200    35933064.055 8 152044595.402 8        50.700
C10  37160762.547 7 193505856.713 7        46.000    37160761.504 7 149631009.070 7        46.700    37160751.523 7 157239316.693 7        47.000
C14  25748583.102 6 134079606.428 6        37.100    25748585.734 6 103678852.396 6        41.900    25748574.711 6 108950622.755 6        40.200
C08  37199243.648 7 193706264.905 7        45.900    37199240.391 7 149785997.267 7        47.400    37199232.074 7 157402186.090 7        47.700
C12  25509764.734 5 132836059.011 5        35.900    25509769.938 7 102717291.406 7        42.000    25509759.625 7 107940162.669 7        42.200
C09  40899279.203 5 212973232.020 5        35.800    40899287.836 6 164684428.543 6        36.800    40899276.363 5 173058167.537 5        35.200
C05  40896166.43015 212957015.30215        32.300    40896170.438 5                        33.600    40896163.055 5                        35.000
> 2013  6 15  4 24  0.0000000  0 30
R21  21478073.164 8 114934069.014 8        48.100    21478072.082 7 114933794.029 7        46.400    21478079.516 6  89392870.805 6        39.800    21478080.215 6  89392878.808 6        38.900
R08  22341595.336 7 119638437.895 7        46.800    22341593.520 7 119638347.906 7        45.800    22341601.645 6  93052044.758 6        41.800    22341601.824 6  93052036.756 6        40.800
G21  24674141.727 6 129663530.057 6        38.200    24674156.082 3 101036564.13843        18.300
R09  22207528.148 7 118586716.076 7        46.700    22207527.535 7 118586959.074 7        45.000    22207534.102 6  92234313.478 6        41.100    22207535.668 6  92234309.484 6        40.400
G16  21389212.844 8 112401184.552 8        51.400    21389221.723 6  87585409.19246        39.200
G31  20925148.813 8 109962652.183 8        52.600    20925156.871 7  85685097.04647        44.000    20925156.914 8  85685099.047 8        49.700
G03  23788226.953 6 125008063.678 6        39.700    23788240.582 4  97408986.56544        24.400
G32  24648514.422 6 129528782.320 6        38.400    24648528.641 3 100931573.71243        20.600
G20  25170208.297 6 132270293.102 6        36.400    25170223.168 2 103067800.25142        16.300
R20  19852588.578 7 106160842.334 7        47.800    19852587.305 7 106160792.355 7        46.700    19852595.254 8  82569600.399 8        48.400    19852595.063 8  82569595.401 8        48.500
G14  22859430.070 7 120127059.484 7        44.100    22859441.078 4  93605593.49144        27.900
G29  23021951.734 7 120981222.923 7        43.900    23021961.930 4  94271155.80944        29.800    23021962.020 6  94271149.806 6        41.600
R10  20455493.523 8 109039272.620 8        52.400    20455492.320 8 109039337.612 8        50.500    20455501.324 7  84808447.535 7        42.600    20455501.184 6  84808439.539 6        41.900
G23  24113984.211 7 126719872.557 7        42.100    24113993.414 4  98742797.04944        25.600
R11  22350980.266 7 119436811.167 7        44.600    22350978.629 7 119436863.161 7        43.100    22350987.105 6  92895441.693 6        36.600    22350987.531 6  92895437.696 6        36.500
R19  21935806.172 8 117341733.969 8        48.700    21935804.422 7 117341825.980 7        47.300    21935809.902 7  91265892.401 7        42.700    21935810.434 7  91265890.405 7        42.300
R01  22758740.367 7 121658522.061 7        44.000    22758738.758 7 121658515.063 7        42.200    22758747.434 6  94623313.694 6        38.000    22758749.316 6  94623302.698 6        36.000
G06  21910882.250 8 115142560.114 8        48.400    21910893.016 5  89721585.58045        34.400
J01  37273731.750 6 195874923.802 6        37.000    37273731.563 6 195874662.796 6        38.300    37273745.238 6 152629880.276 6        37.500    37273752.527 6 146270339.045 6        41.500    37273738.97715 158989306.22115        32.300
E12  24889351.250 7 130794507.035 7        47.100    24889359.605 7  97671310.084 7        47.100    24889355.898 7 100219230.736 7        46.100    24889357.547 8  98945274.515 8        53.200
C01  36698366.164 7 191098028.698 7        44.200    36698360.008 7 147769095.711 7        47.800    36698354.355 7 155282800.848 7        47.000
C02  39037775.984 5 203279961.684 5        35.900    39037773.688 6 157188952.987 6        39.700    39037768.418 6 165181601.388 6        39.900
C03  37215348.781 7 193790062.934 7        42.500    37215345.633 7 149850738.632 7        47.200    37215339.695 8 157470289.178 8        48.100
C04  37510222.242 6 195325585.830 6        40.600    37510220.117 7 151038115.789 7        45.400    37510213.656 7 158718038.083 7        45.100
C07  35930531.805 8 187099716.378 8        48.000    35930527.473 8 144677344.109 8        50.000    35930518.555 8 152033824.440 8        50.700
C10  37156876.656 7 193485621.273 7        45.800    37156875.516 7 149615361.738 7        46.500    37156865.461 7 157222873.722 7        46.500
C14  25755249.422 6 134114324.098 6        36.600    25755252.684 6 103705698.188 6        41.800    25755242.016 6 108978833.615 6        41.400
C08  37193813.063 7 193677988.606 7        45.900    37193810.148 7 149764132.245 7        46.800    37193801.754 8 157379209.292 8        48.000
C12  25490597.898 6 132736253.180 6        36.400    25490603.281 6 102640115.552 6        40.400    25490593.516 7 107859062.506 7        42.200
C09  40909292.477 5 213025374.267 5        35.400    40909301.625 6 164724747.860 6        36.700    40909290.074 5 173100537.082 5        35.500
> 2013  6 15  4 24 30.0000000  0 31
R21  21456208.461 8 114817069.024 8        48.400    21456207.496 7 114816794.032 7        47.800    21456215.086 6  89301870.917 6        39.800    21456215.828 6  89301878.921 6        38.900
R08  22357592.375 7 119724102.979 7        46.700    22357591.730 7 119724012.984 7        45.500    22357599.863 6  93118673.010 6        41.200    22357599.789 6  93118665.017 6        39.800
G21  24665411.344 6 129617647.190 6        39.400    24665425.043 3 101000811.33543        20.400
R09  22216714.523 7 118635772.398 7        46.000    22216714.500 7 118636015.412 7        44.400    22216721.449 6  92272468.319 6        40.800    22216722.793 6  92272464.322 6        39.800
G16  21382767.141 8 112367310.221 8        51.000    21382775.242 6  87559013.63346        39.200
G31  20926746.617 8 109971048.411 8        52.900    20926754.512 7  85691639.54147        43.800    20926754.438 8  85691641.535 8        49.500
G03  23766456.672 6 124893660.212 6        39.400    23766470.098 4  97319841.21344        25.000
G32  24658639.219 6 129581985.610 6        38.700    24658652.668 3 100973030.65543        19.900
G20  25177317.578 5 132307650.999 5        34.400    25177332.797 2 103096910.12842        16.900
R20  19846716.719 8 106129443.332 8        48.400    19846715.680 7 106129393.341 7        46.900    19846723.316 8  82545178.980 8        48.800    19846723.090 8  82545173.982 8        48.500
G14  22879206.883 7 120230986.831 7        44.300    22879218.406 4  93686575.67544        27.100
G29  23037522.648 7 121063046.937 7        43.000    23037533.410 5  94334914.72845        30.400    23037533.145 6  94334908.721 6        41.600
R10  20452666.102 8 109024200.345 8        52.300    20452664.898 8 109024265.330 8        50.600    20452674.316 6  84796724.665 6        41.900    20452673.730 6  84796716.669 6        41.800
G23  24095582.305 7 126623167.212 7        42.700    24095590.184 4  98667442.28944        25.900
R11  22338471.336 7 119369962.530 7        44.900    22338469.344 7 119370014.531 7        43.500    22338477.426 6  92843448.335 6        36.100    22338476.977 5  92843444.343 5        35.600
R19  21951395.070 8 117425125.111 8        48.800    21951393.320 7 117425217.124 7        47.200    21951399.387 6  91330752.134 6        41.700    21951399.191 6  91330750.138 6        41.000
R01  22758576.523 7 121657646.263 7        45.200    22758574.914 7 121657639.293 7        43.200    22758584.137 6  94622632.474 6        37.100    22758585.547 6  94622621.485 6        36.200
G06  21892991.773 8 115048544.537 8        48.100    21893002.605 5  89648326.75845        34.900
J01  37272863.375 6 195870363.971 6        36.900    37272863.371 6 195870102.965 6        38.400    37272877.266 6 152626327.215 6        37.600    37272884.293 6 146266934.039 6        41.700    37272870.74215 158985605.02415        32.300
E12  24874446.977 7 130716184.928 7        47.400    24874455.215 7  97612822.873 7        47.300    24874451.465 7 100159217.755 7        45.700    24874453.211 8  98886024.421 8        53.300
C01  36698400.391 7 191098206.329 7        44.200    36698393.949 7 147769233.065 7        47.900    36698388.414 7 155282945.190 7        47.200
C02  39037880.289 6 203280505.167 6        36.000    39037877.863 6 157189373.259 6        40.900    39037872.801 6 165182043.034 6        39.700
C03  37215257.102 7 193789586.355 7        42.400    37215253.824 7 149850370.110 7        46.700    37215247.793 7 157469901.923 7        47.500
C04  37510231.164 6 195325632.909 6        40.600    37510228.957 7 151038152.162 7        46.000    37510222.578 7 158718076.311 7        45.800
C07  35927991.273 7 187086485.687 7        47.000    35927986.898 8 144667113.302 8        49.900    35927977.918 8 152023073.410 8        50.100
C10  37152988.055 7 193465372.799 7        45.100    37152986.930 7 149599704.335 7        47.100    37152977.027 7 157206420.178 7        46.900
C14  25761976.094 6 134149350.091 6        37.400    25761978.992 6 103732782.391 6        41.500    25761968.590 6 109007295.022 6        40.800
C08  37188407.211 7 193649840.430 7        45.200    37188404.418 7 149742366.306 7        47.300    37188396.195 8 157356336.594 8        48.000
C12  25471439.547 6 132636491.488 6        37.100    25471443.777 6 102562973.778 6        40.300    25471434.070 7 107777998.261 7        42.000
C09  40919290.164 5 213077434.382 5        35.600    40919299.793 6 164765003.658 6        36.100    40919287.816 5 173142839.892 5        35.400
C05  40896002.66415 212956152.47515        31.600    40896005.75815 164671243.57715        35.200    40895997.71515 173044329.78515        35.400
> 2013  6 15  4 25  0.0000000  0 30
R21  21434406.844 8 114700404.981 8        48.700    21434405.762 7 114700129.995 7        46.800    21434413.359 6  89211132.316 6        39.200    21434413.539 6  89211140.320 6        38.200
R08  22373653.961 7 119810112.932 7        46.500    22373653.316 7 119810022.929 7        44.900    22373661.023 6  93185569.488 6        41.400    22373661.215 6  93185561.490 6        40.700
G21  24656704.945 6 129571889.705 6        39.900    24656717.598 3 100965156.22543        20.100
R09  22225932.008 7 118684992.128 7        46.000    22225930.691 7 118685235.150 7        44.100    22225938.480 6  92310750.222 6        41.000    22225939.543 6  92310746.221 6        40.700
G16  21376379.453 8 112333745.119 8        50.900    21376388.332 6  87532859.02846        39.600
G31  20928390.484 8 109979686.961 8        52.700    20928398.750 7  85698370.85147        43.900    20928398.523 8  85698372.852 8        49.300
G03  23744709.477 6 124779376.339 6        39.700    23744722.242 4  97230789.01844        24.100
G32  24668795.688 6 129635356.979 6        39.100    24668809.656 3 101014618.59743        22.600
G20  25184480.633 6 132345289.904 6        36.100    25184494.770 2 103126238.94842        16.300
R20  19840995.055 8 106098847.886 8        48.500    19840995.070 7 106098797.891 7        46.700    19841002.813 8  82521382.546 8        49.100    19841002.555 8  82521377.556 8        48.500
G14  22899026.125 7 120335135.657 7        45.000    22899037.965 4  93767730.44844        29.100
G29  23053160.242 7 121145223.972 7        43.800    23053170.500 5  94398948.73245        31.000    23053170.508 6  94398942.732 6        41.500
R10  20449865.781 8 109009272.141 8        52.100    20449864.461 8 109009337.148 8        50.800    20449873.078 7  84785113.847 7        42.300    20449872.863 6  84785105.851 6        41.700
G23  24077227.398 6 126526715.869 6        41.300    24077236.953 4  98592285.45244        24.800
R11  22325953.031 7 119303073.185 7        45.300    22325952.215 7 119303125.193 7        43.200    22325959.992 6  92791423.316 6        36.900    22325959.961 5  92791419.330 5        35.700
R19  21967094.930 8 117509108.338 8        48.300    21967093.297 7 117509200.350 7        47.200    21967099.078 6  91396072.370 6        41.500    21967099.188 6  91396070.379 6        41.100
R01  22758543.617 7 121657469.559 7        45.100    22758542.711 7 121657462.561 7        43.400    22758550.883 6  94622494.982 6        37.600    22758552.891 6  94622483.986 6        36.400
G06  21875163.445 7 114954857.832 7        47.900    21875174.254 5  89575324.19845        35.000
J01  37271986.000 6 195865751.645 6        36.000    37271985.875 6 195865490.639 6        38.300    37271999.875 6 152622733.253 6        37.900    37272005.996 6 146263489.830 6        41.000    37271993.38715 158981852.50515        33.600
E12  24859578.875 7 130638053.902 7        47.500    24859587.145 7  97554478.342 7        47.100    24859583.957 7 100099351.188 7        45.600    24859585.328 8  98826918.871 8        53.300
C01  36698434.570 7 191098386.462 7        44.000    36698428.391 7 147769372.354 7        47.900    36698422.805 7 155283091.557 7        47.100
C02  39037984.258 5 203281050.337 5        35.600    39037982.508 6 157189794.821 6        40.700    39037977.535 6 165182486.017 6        39.700
C03  37215165.828 7 193789111.597 7        42.400    37215162.914 7 149850002.992 7        47.300    37215156.867 7 157469516.143 7        47.300
C04  37510240.539 6 195325681.238 6        40.500    37510238.422 7 151038189.542 7        45.600    37510231.906 7 158718115.599 7        45.600
C07  35925455.055 7 187073279.311 7        47.500    35925450.945 8 144656901.291 8        50.400    35925441.707 8 152012342.149 8        50.600
C10  37149096.883 7 193445111.274 7        45.800    37149096.168 7 149584036.842 7        46.600    37149086.051 7 157189956.033 7        46.600
C14  25768761.680 6 134184681.997 6        36.400    25768764.227 6 103760103.133 6        40.800    25768754.070 6 109036004.985 6        41.000
C08  37183026.508 7 193621819.992 7        46.000    37183023.309 7 149720699.139 7        46.800    37183015.203 7 157333567.705 7        47.900
C12  25452289.383 6 132536775.401 6        36.700    25452294.742 7 102485867.263 7        42.100    25452284.277 6 107696970.990 6        41.400
C09  40929272.383 6 213129411.452 6        36.100    40929281.613 5 164805195.266 5        35.400    40929269.773 6 173185075.223 6        37.400
> 2013  6 15  4 25 30.0000000  0 31
R21  21412668.875 8 114584081.794 8        48.300    21412668.262 7 114583806.809 7        47.600    21412675.086 6  89120658.834 6        38.900    21412676.000 6  89120666.831 6        38.300
R08  22389780.555 7 119896463.503 7        46.200    22389779.324 7 119896373.520 7        44.700    22389787.723 6  93252730.897 6        41.300    22389787.582 6  93252722.902 6        40.200
G21  24648020.898 6 129526260.655 6        39.900    24648033.977 3 100929601.22643        21.100
R09  22235179.984 7 118734376.512 7        46.400    22235179.020 7 118734619.500 7        44.800    22235186.582 6  92349160.167 6        41.300    22235188.074 6  92349156.173 6        40.900
G16  21370051.016 8 112300489.340 8        50.500    21370059.906 6  87506945.46346        40.500
G31  20930080.422 8 109988569.240 8        51.800    20930089.094 7  85705292.08247        43.400    20930088.695 8  85705294.082 8        49.800
G03  23722984.766 6 124665214.774 6        38.800    23722998.480 3  97141832.10343        23.500
G32  24678983.172 6 129688894.255 6        38.800    24678998.211 3 101056335.80243        20.600
G20  25191695.969 5 132383208.256 5        33.800    25191709.797 2 103155785.55542        16.300
R20  19835424.383 7 106069058.098 7        47.500    19835423.227 7 106069008.095 7        46.400    19835431.809 8  82498212.738 8        48.900    19835431.078 8  82498207.748 8        49.200
G14  22918887.125 7 120439503.785 7        44.600    22918898.176 4  93849056.09144        27.300
G29  23068864.961 7 121227751.739 7        43.900    23068875.461 5  94463256.02345        30.200    23068875.324 6  94463250.016 6        41.700
R10  20447093.148 8 108994489.737 8        52.500    20447091.711 8 108994554.744 8        51.200    20447100.348 7  84773616.410 7        42.400    20447100.141 6  84773608.414 6        41.700
G23  24058922.344 7 126430521.651 7        42.000    24058931.371 4  98517329.00044        26.100
R11  22313428.680 7 119236144.530 7        45.800    22313427.043 7 119236196.545 7        44.300    22313435.172 5  92739367.736 5        35.900    22313434.988 5  92739363.737 5        35.400
R19  21982905.273 8 117593680.501 8        48.100    21982904.227 7 117593772.516 7        47.400    21982909.305 6  91461850.698 6        41.300    21982909.629 6  91461848.702 6        40.800
R01  22758640.844 7 121657991.424 7        44.600    22758639.586 7 121657984.423 7        43.400    22758649.035 6  94622900.824 6        36.900    22758650.070 5  94622889.836 5        35.400
G06  21857398.523 7 114861502.805 7        47.600    21857409.258 5  89502580.08645        35.500
J01  37271097.984 5 195861087.396 5        33.600    37271098.508 6 195860826.384 6        38.800    37271112.242 6 152619098.828 6        37.700    37271118.621 6 146260006.846 6        41.200    37271106.242 5 158978066.582 5        32.400
E12  24844747.906 7 130560116.248 7        47.900    24844755.988 7  97496278.216 7        46.700    24844752.891 7 100039632.785 7        45.600    24844754.246 8  98767959.608 8        53.300
C01  36698470.188 7 191098569.471 7        44.000    36698463.605 7 147769513.860 7        47.300    36698457.832 7 155283240.264 7        46.800
C02  39038089.836 5 203281597.638 5        35.800    39038087.609 6 157190218.041 6        40.500    39038082.375 6 165182930.750 6        39.400
C03  37215075.266 7 193788639.024 7        42.300    37215072.289 7 149849637.567 7        47.200    37215066.234 7 157469132.125 7        47.600
C04  37510250.797 6 195325731.347 6        40.500    37510248.215 7 151038228.268 7        45.300    37510241.703 7 158718156.295 7        45.700
C07  35922923.820 7 187060098.342 7        47.200    35922919.414 8 144646708.920 8        50.000    35922910.461 8 152001631.526 8        50.200
C10  37145203.781 7 193424837.478 7        45.700    37145202.680 7 149568359.856 7        46.400    37145192.902 7 157173481.904 7        46.800
C14  25775604.641 5 134220318.287 5        35.100    25775607.824 6 103787659.256 6        40.300    25775597.391 6 109064962.283 6        40.300
C08  37177670.180 7 193593927.858 7        45.300    37177667.145 7 149699131.169 7        46.700    37177658.734 7 157310903.063 7        47.900
C12  25433148.898 5 132437107.402 5        35.900    25433154.402 7 102408797.971 7        42.300    25433144.152 6 107615982.785 6        41.700
C09  40939238.445 5 213181305.156 5        35.700    40939247.969 5 164845322.397 5        35.000    40939235.910 6 173227242.805 6        36.700
C05  40895838.71115 212955328.10115        31.600    40895841.06615 164670610.30615        35.000    40895834.08616 173043660.17516        36.200
> 2013  6 15  4 26  0.0000000  0 30
R21  21390995.641 8 114468102.496 8        48.300    21390994.676 7 114467827.513 7        46.300    21391001.902 6  89030452.809 6        39.100    21391002.414 6  89030460.805 6        39.000
R08  22405968.875 7 119983149.292 7        46.600    22405967.059 7 119983059.317 7        44.600    22405974.906 6  93320153.030 6        41.400    22405974.820 6  93320145.035 6        40.800
G21  24639361.695 6 129480761.472 6        38.300    24639376.605 3 100894147.44643        19.000
R09  22244459.453 7 118783926.020 7        46.500    22244458.488 7 118784169.021 7        45.500    22244465.906 7  92387698.553 7        42.100    22244467.523 6  92387694.556 6        40.700
G16  21363781.516 8 112267541.013 8        51.100    21363790.133 6  87481271.47846        39.800
G31  20931817.547 8 109997695.720 8        52.200    20931825.656 7  85712403.60647        43.800    20931825.234 8  85712405.607 8        49.500
G03  23701284.109 6 124551176.685 6        40.500    23701296.469 4  97052971.41244        25.800
G32  24689202.258 6 129742593.764 6        38.600    24689216.324 3 101098179.43643        21.700
G20  25198963.62515 132421402.22315        35.300    25198978.61712 103185546.94152        15.600
R20  19830003.961 7 106040074.573 7        47.900    19830003.625 7 106040024.578 7        46.800    19830011.902 8  82475670.023 8        49.200    19830011.270 8  82475665.032 8        49.300
G14  22938788.391 7 120544087.917 7        43.900    22938799.563 4  93930550.08244        26.600
G29  23084635.578 7 121310626.902 7        43.800    23084645.910 5  94527834.03745        30.200    23084645.809 6  94527828.027 6        40.800
R10  20444347.133 8 108979853.426 8        52.000    20444345.695 8 108979918.419 8        51.200    20444354.980 7  84762232.606 7        42.500    20444354.793 7  84762224.609 7        42.000
G23  24040666.289 6 126334586.084 6        41.800    24040675.184 4  98442574.07944        24.900
R11  22300896.313 7 119169175.853 7        45.800    22300895.145 7 119169227.863 7        44.100    22300902.930 6  92687281.022 6        36.900    22300903.199 6  92687277.028 6        36.500
R19  21998824.461 8 117678837.149 8        48.300    21998823.180 7 117678929.148 7        46.500    21998829.156 6  91528083.613 6        41.600    21998829.004 6  91528081.617 6        41.300
R01  22758870.031 7 121659209.829 7        44.700    22758868.066 7 121659202.829 7        43.100    22758876.961 6  94623848.423 6        36.000    22758878.309 5  94623837.427 5        35.600
G06  21839696.711 8 114768481.088 8        48.000    21839707.961 5  89430095.69845        35.200
J01  37270199.734 5 195856370.374 5        34.600    37270201.258 6 195856109.363 6        39.000    37270215.184 6 152615423.288 6        37.500    37270220.914 6 146256484.458 6        40.500    37270207.77715 158974237.85815        33.500
E12  24829953.813 7 130482372.803 7        47.400    24829961.914 7  97438223.121 7        46.800    24829958.629 7  99980063.202 7        45.900    24829959.957 8  98709147.266 8        53.400
C01  36698505.758 7 191098754.462 7        44.300    36698499.215 8 147769656.908 8        48.000    36698493.531 7 155283390.587 7        47.500
C02  39038194.531 6 203282146.092 6        36.200    39038192.996 6 157190642.147 6        40.700    39038187.828 6 165183376.441 6        39.200
C03  37214984.695 7 193788167.671 7        42.600    37214981.777 7 149849273.089 7        47.200    37214975.684 7 157468749.117 7        47.000
C04  37510260.289 6 195325782.087 6        40.800    37510257.395 7 151038267.499 7        45.400    37510251.301 7 158718197.522 7        45.700
C07  35920397.398 7 187046942.174 7        47.900    35920392.941 8 144636535.733 8        50.400    35920383.945 8 151990941.057 8        50.200
C10  37141307.844 7 193404550.848 7        45.100    37141306.652 7 149552672.949 7        46.400    37141296.836 7 157156997.360 7        46.800
C14  25782505.469 5 134256255.943 5        35.500    25782509.773 6 103815448.377 6        40.600    25782499.113 6 109094164.460 6        40.900
C08  37172338.234 7 193566163.069 7        45.600    37172335.191 7 149677661.662 7        47.200    37172326.848 7 157288341.884 7        47.600
C12  25414017.906 6 132337488.336 6        36.300    25414023.277 6 102331766.510 6        40.500    25414013.121 7 107535034.413 7        42.100
C09  40949187.102 6 213233114.067 6        36.300    40949196.902 5 164885383.975 5        35.500    40949185.336 6 173269341.501 6        37.100
> 2013  6 15  4 26 30.0000000  0 31
R21  21369387.367 8 114352472.773 8        48.500    21369386.637 7 114352197.797 7        46.500    21369393.648 6  88940518.673 6        39.500    21369394.504 6  88940526.677 6        38.900
R08  22422218.250 7 120070166.669 7        45.900    22422217.371 7 120070076.684 7        44.500    22422225.234 6  93387833.081 6        41.200    22422225.629 6  93387825.077 6        40.800
G21  24630729.414 6 129435395.224 6        38.300    24630743.301 3 100858797.24343        19.600
R09  22253770.695 7 118833641.927 7        47.700    22253768.793 7 118833884.928 7        45.500    22253775.707 6  92426366.346 6        41.600    22253777.742 6  92426362.351 6        40.000
G16  21357569.734 8 112234900.712 8        50.000    21357578.402 6  87455837.50646        39.800
G31  20933600.789 8 110007068.135 8        53.000    20933609.355 7  85719706.76247        43.600    20933608.848 8  85719708.763 8        50.100
G03  23679606.906 6 124437264.897 6        39.700    23679619.570 3  96964209.14043        22.900
G32  24699451.445 6 129796453.837 6        38.900    24699466.141 3 101140148.14143        23.000
G20  25206285.070 6 132459870.266 6        36.800    25206298.750 2 103215521.82242        14.800
R20  19824735.000 7 106011899.727 7        47.800    19824734.547 7 106011849.749 7        46.200    19824742.367 8  82453756.281 8        48.700    19824741.824 8  82453751.284 8        48.500
G14  22958730.680 7 120648886.294 7        44.200    22958742.723 4  94012210.97144        26.900
G29  23100472.039 7 121393847.828 7        45.000    23100482.699 5  94592681.44745        30.300    23100482.391 6  94592675.441 6        40.700
R10  20441629.203 8 108965365.895 8        52.400    20441627.176 8 108965430.903 8        50.300    20441636.703 7  84750964.518 7        42.500    20441636.352 6  84750956.522 6        41.900
G23  24022460.813 7 126238912.845 7        42.200    24022468.898 4  98368023.55944        24.700
R11  22288355.328 7 119102168.152 7        45.700    22288355.098 7 119102220.172 7        44.100    22288363.539 6  92635163.977 6        37.300    22288363.258 6  92635159.970 6        36.900
R19  22014852.336 8 117764575.311 8        48.100    22014851.172 7 117764667.332 7        47.000    22014856.719 6  91594768.801 6        41.400    22014857.129 6  91594766.799 6        41.000
R01  22759227.484 7 121661124.498 7        44.300    22759226.813 7 121661117.505 7        43.600    22759234.836 5  94625337.547 5        35.400    22759236.340 5  94625326.564 5        35.300
G06  21822059.797 7 114675795.949 7        47.500    21822070.652 5  89357873.58345        35.000
J01  37269294.078 5 195851601.612 5        35.200    37269293.188 6 195851340.601 6        39.300    37269306.766 6 152611707.446 6        38.200    37269312.980 6 146252923.441 6        41.000    37269300.72315 158970367.21115        33.200
E12  24815197.156 7 130404826.152 7        47.800    24815205.035 7  97380314.976 7        46.800    24815201.941 7  99920644.402 7        46.100    24815203.379 8  98650483.793 8        53.300
C01  36698541.766 7 191098942.216 7        44.200    36698535.059 7 147769802.094 7        47.900    36698529.434 7 155283543.149 7        47.100
C02  39038300.148 5 203282696.591 5        35.900    39038298.609 6 157191067.853 6        39.900    39038293.598 6 165183823.794 6        39.300
C03  37214894.891 7 193787698.447 7        42.600    37214891.484 7 149848910.249 7        47.300    37214885.711 7 157468367.826 7        47.400
C04  37510270.141 6 195325834.470 6        40.900    37510267.871 7 151038307.997 7        44.900    37510261.461 7 158718240.087 7        45.700
C07  35917875.563 7 187033812.193 7        47.500    35917871.512 8 144626382.796 8        50.200    35917862.387 8 151980271.874 8        50.200
C10  37137409.852 7 193384252.707 7        45.100    37137408.676 7 149536977.136 7        46.300    37137398.938 7 157140503.464 7        47.000
C14  25789464.953 5 134292493.860 5        35.000    25789468.324 6 103843469.681 6        39.900    25789458.035 6 109123610.618 6        39.800
C08  37167030.633 7 193538526.539 7        45.600    37167027.988 7 149656291.376 7        47.000    37167019.574 8 157265884.971 8        48.400
C12  25394897.727 6 132237921.319 6        37.100    25394901.363 6 102254775.227 6        39.600    25394891.969 6 107454128.276 6        41.000
C09  40959121.516 5 213284838.490 5        35.300    40959130.180 5 164925380.222 5        34.400    40959119.016 6 173311371.536 6        37.600
C05  40895676.30515 212954480.99915        32.900    40895678.48015 164669955.17415        34.900    40895671.38315 173043026.73715        35.000
> 2013  6 15  4 27  0.0000000  0 31
R21  21347845.703 8 114237196.477 8        48.600    21347844.148 7 114236921.473 7        46.800    21347851.137 6  88850859.429 6        39.000    21347851.738 6  88850867.431 6        38.600
R08  22438529.664 7 120157511.161 7        46.000    22438528.316 7 120157421.155 7        45.000    22438536.738 7  93455767.521 7        42.100    22438536.793 6  93455759.528 6        41.200
G21  24622121.922 6 129390164.512 6        38.800    24622135.668 2 100823552.61242        17.400
R09  22263111.719 7 118883525.523 7        46.800    22263110.871 7 118883768.529 7        45.300    22263117.492 6  92465164.563 6        40.100    22263118.941 6  92465160.569 6        39.600
G16  21351417.469 8 112202566.849 8        50.300    21351425.621 6  87430642.31146        40.100
G31  20935431.789 8 110016687.643 8        52.900    20935439.652 7  85727202.45447        44.200    20935439.344 8  85727204.455 8        50.200
G03  23657954.859 6 124323482.357 6        40.100    23657967.641 3  96875547.59643        23.200
G32  24709731.344 6 129850471.520 6        40.100    24709745.445 3 101182239.70143        21.100
G20  25213656.438 5 132498609.937 5        35.200    25213670.465 2 103245708.39742        14.800
R20  19819618.195 7 105984535.134 7        47.800    19819617.039 7 105984485.162 7        46.400    19819625.016 8  82432472.722 8        48.900    19819624.742 8  82432467.731 8        48.400
G14  22978714.375 7 120753896.224 7        45.000    22978725.973 4  94094036.72844        27.100
G29  23116374.539 7 121477411.892 7        43.900    23116384.801 5  94657796.25045        30.500    23116384.527 6  94657790.243 6        41.500
R10  20438939.508 8 108951028.493 8        53.300    20438937.719 8 108951093.501 8        51.200    20438946.465 7  84739813.213 7        42.200    20438946.254 6  84739805.209 6        41.500
G23  24004305.016 7 126143504.583 7        42.800    24004312.645 3  98293679.48643        23.400
R11  22275809.055 7 119035122.373 7        45.500    22275808.121 7 119035174.385 7        44.400    22275816.652 6  92583017.308 6        38.100    22275816.488 6  92583013.309 6        36.800
R19  22030987.992 7 117850891.521 7        47.900    22030986.828 7 117850983.521 7        46.100    22030992.457 6  91661903.582 6        40.900    22030992.738 6  91661901.586 6        39.700
R01  22759715.977 7 121663734.497 7        43.800    22759714.602 7 121663727.506 7        42.600    22759722.875 6  94627367.498 6        36.300    22759724.668 5  94627356.510 5        34.600
G06  21804486.211 8 114583449.703 8        48.200    21804497.848 5  89285915.54245        35.500
J01  37268375.547 5 195846781.241 5        35.200    37268376.539 6 195846520.228 6        39.400    37268390.289 6 152607951.365 6        37.900    37268396.063 6 146249323.881 6        41.500    37268383.27315 158966454.44515        33.900
E12  24800478.227 8 130327478.100 8        48.000    24800486.230 7  97322555.135 7        47.300    24800483.043 7  99861377.773 7        45.800    24800484.340 8  98591970.560 8        53.500
C01  36698577.984 7 191099132.664 7        44.200    36698571.711 8 147769949.356 8        48.400    36698566.234 7 155283697.906 7        47.200
C02  39038405.977 6 203283248.983 6        36.100    39038404.645 6 157191495.010 6        41.200    39038399.602 6 165184272.676 6        39.200
C03  37214804.688 7 193787231.168 7        42.300    37214801.773 7 149848548.911 7        47.700    37214795.668 8 157467988.136 8        48.100
C04  37510280.203 6 195325888.425 6        40.700    37510278.406 7 151038349.711 7        45.800    37510271.934 7 158718283.917 7        46.000
C07  35915359.602 7 187020708.814 7        47.200    35915355.105 8 144616250.422 8        50.500    35915346.000 8 151969624.302 8        50.700
C10  37133509.797 7 193363943.436 7        45.500    37133508.426 7 149521272.716 7        46.000    37133498.590 7 157124000.516 7        46.400
C14  25796482.320 5 134329030.102 5        35.200    25796484.891 6 103871721.654 6        40.000    25796474.723 6 109153299.183 6        40.100
C08  37161748.617 7 193511018.396 7        46.400    37161745.238 7 149635020.351 7        46.600    37161736.926 8 157243532.366 8        48.500
C12  25375786.320 6 132138408.098 6        36.300    25375791.543 6 102177825.572 6        41.400    25375781.500 6 107373265.847 6        41.400
C09  40969039.172 5 213336477.782 5        35.100    40969046.934 5 164965310.669 5        33.000    40969035.270 6 173353332.412 6        36.200
C05  40895595.44515 212954063.84515        32.900    40895598.34815 164669631.45615        35.200    40895590.59415 173042686.48215        35.500
> 2013  6 15  4 27 30.0000000  0 31
R21  21326370.188 8 114122277.951 8        48.300    21326368.867 7 114122002.952 7        47.600    21326375.336 6  88761478.452 6        39.000    21326376.180 6  88761486.456 6        39.200
R08  22454901.070 7 120245178.212 7        46.700    22454899.957 7 120245088.216 7        45.000    22454907.895 7  93523952.847 7        42.600    22454908.781 7  93523944.852 7        42.100
G21  24613541.898 6 129345071.631 6        40.000    24613553.871 3 100788415.34443        19.600
R09  22272485.813 7 118933577.669 7        47.200    22272483.793 7 118933820.687 7        45.200    22272491.254 6  92504093.885 6        40.500    22272492.469 6  92504089.890 6        39.400
G16  21345322.109 8 112170539.103 8        50.400    21345330.488 6  87405685.65246        39.600
G31  20937309.180 8 110026555.101 8        53.400    20937317.613 7  85734891.35447        43.800    20937317.402 8  85734893.355 8        50.000
G03  23636327.844 6 124209831.360 6        40.000    23636340.098 4  96786988.53544        24.300
G32  24720039.492 6 129904644.364 6        39.800    24720053.766 3 101224452.14143        20.400
G20  25221080.03915 132537618.84015        35.200    25221093.71912 103276104.78952        15.600
R20  19814652.492 7 105957982.021 7        47.600    19814651.688 7 105957932.033 7        46.600    19814659.688 8  82411820.324 8        49.000    19814659.277 8  82411815.327 8        48.700
G14  22998736.172 7 120859114.891 7        43.600    22998749.168 4  94176025.13044        27.000
G29  23132340.891 7 121561315.879 7        44.400    23132350.941 5  94723175.92245        30.500    23132350.285 6  94723169.922 6        41.100
R10  20436278.609 8 108936842.487 8        52.100    20436276.348 8 108936907.493 8        50.700    20436284.859 6  84728779.636 6        41.600    20436285.090 6  84728771.647 6        41.400
G23  23986200.109 7 126048364.109 7        42.000    23986208.359 4  98219544.14244        24.100
R11  22263255.891 7 118968038.618 7        45.700    22263254.488 7 118968090.638 7        44.700    22263261.602 6  92530841.090 6        37.100    22263262.438 6  92530837.091 6        36.400
R19  22047230.922 7 117937782.104 7        47.200    22047229.875 7 117937874.114 7        46.400    22047235.480 6  91729485.105 6        40.500    22047235.859 6  91729483.109 6        39.400
R01  22760334.242 7 121667038.716 7        43.800    22760332.043 7 121667031.728 7        42.500    22760341.594 6  94629937.392 6        37.200    22760342.520 5  94629926.407 5        35.200
G06  21786979.086 7 114491445.040 7        47.800    21786989.945 6  89214223.65746        36.300
J01  37267448.422 6 195841909.414 6        36.800    37267448.852 6 195841648.403 6        39.100    37267462.051 6 152604155.207 6        37.300    37267468.164 6 146245685.904 6        41.100    37267455.96515 158962500.42215        33.700
E12  24785797.680 8 130250330.354 8        48.300    24785805.195 7  97264944.871 7        47.600    24785802.102 7  99802264.626 7        46.400    24785803.590 8  98533608.853 8        53.500
C01  36698615.227 7 191099325.862 7        44.300    36698608.914 8 147770098.741 8        48.000    36698603.320 7 155283854.883 7        47.200
C02  39038513.555 5 203283803.390 5        35.700    39038510.988 6 157191923.728 6        40.900    39038505.789 6 165184723.196 6        39.400
C03  37214715.734 7 193786765.999 7        42.700    37214712.340 7 149848189.208 7        47.300    37214706.379 7 157467610.133 7        47.800
C04  37510291.055 6 195325943.917 6        40.900    37510289.023 7 151038392.615 7        45.200    37510282.395 7 158718329.004 7        46.200
C07  35912848.336 8 187007632.544 8        48.200    35912844.051 8 144606139.030 8        50.000    35912834.941 8 151958998.757 8        50.500
C10  37129607.602 7 193343623.458 7        45.600    37129605.922 7 149505560.025 7        46.700    37129596.309 7 157107488.869 7        46.500
C14  25803555.422 6 134365862.465 6        36.600    25803558.273 6 103900202.643 6        40.100    25803548.281 6 109183228.403 6        40.400
C08  37156490.656 7 193483638.554 7        45.500    37156487.453 7 149613848.539 7        46.600    37156479.230 7 157221284.008 7        47.700
C12  25356686.352 6 132038950.813 6        36.300    25356691.637 7 102100919.198 7        42.200    25356681.078 7 107292448.910 7        42.500
C09  40978938.563 5 213388031.433 5        33.900    40978947.277 5 165005174.885 5        33.400    40978935.656 5 173395223.678 5        35.600
C05  40895514.92215 212953658.45715        32.600    40895518.21115 164669318.05815        33.400    40895509.96915 173042357.64815        33.900
> 2013  6 15  4 28  0.0000000  0 30
R21  21304962.453 8 114007721.592 8        48.800    21304961.488 7 114007446.602 7        47.600    21304968.035 6  88672379.168 6        39.800    21304968.988 6  88672387.165 6        38.700
R08  22471331.047 7 120333163.105 7        46.300    22471330.402 7 120333073.127 7        44.200    22471338.863 6  93592385.416 6        41.800    22471338.512 6  93592377.416 6        41.200
G21  24604987.211 6 129300118.953 6        40.900    24604999.848 3 100753387.37643        19.600
R09  22281889.625 7 118983798.663 7        46.600    22281888.309 7 118984041.664 7        45.300    22281895.207 6  92543154.536 6        40.600    22281897.422 6  92543150.542 6        39.700
G16  21339285.516 8 112138816.010 8        50.600    21339294.449 6  87380966.37846        40.000
G31  20939234.133 8 110036670.983 8        52.700    20939242.594 7  85742773.83747        43.400    20939242.559 8  85742775.838 8        49.600
G03  23614725.992 6 124096314.062 6        40.400    23614738.719 4  96698533.63544        25.800
G32  24730377.156 6 129958969.035 6        39.200    24730391.953 3 101266782.88943        21.300
G20  25228554.94515 132576894.17615        34.800    25228568.67612 103306708.75652        15.600
R20  19809839.031 8 105932241.502 8        48.300    19809837.992 7 105932191.507 7        46.100    19809846.066 8  82391799.942 8        49.200    19809845.793 8  82391794.944 8        48.200
G14  23018797.367 7 120964539.486 7        42.200    23018809.539 4  94258173.97044        24.700
G29  23148371.180 7 121645557.150 7        44.000    23148381.531 5  94788818.42145        30.200    23148381.270 6  94788812.423 6        40.400
R10  20433645.797 8 108922808.901 8        52.600    20433644.477 8 108922873.901 8        50.500    20433653.387 7  84717864.623 7        42.000    20433653.113 6  84717856.634 6        41.200
G23  23968147.188 6 125953493.574 6        41.900    23968156.039 4  98145619.09544        24.700
R11  22250695.055 7 118900916.840 7        44.600    22250693.770 7 118900968.820 7        43.800    22250701.770 6  92478635.307 6        37.100    22250701.797 6  92478631.313 6        36.700
R19  22063581.180 8 118025242.966 8        48.000    22063580.250 7 118025334.969 7        45.800    22063585.566 6  91797510.157 6        40.700    22063585.879 6  91797508.168 6        39.800
R01  22761081.336 7 121671035.662 7        44.200    22761079.961 7 121671028.661 7        42.800    22761089.059 6  94633046.073 6        37.000    22761090.371 6  94633035.085 6        36.400
G06  21769536.039 7 114399783.736 7        47.000    21769547.473 6  89142799.33946        36.000
J01  37266511.547 6 195836985.777 6        36.200    37266512.301 6 195836724.766 6        38.700    37266525.746 6 152600318.683 6        37.300    37266531.223 6 146242009.238 6        40.900    37266519.023 5 158958503.864 5        32.300
E12  24771155.211 8 130173384.244 8        48.500    24771162.867 7  97207485.170 7        46.800    24771159.395 7  99743305.971 7        46.400    24771161.148 8  98475399.678 8        53.500
C01  36698653.063 7 191099521.351 7        44.200    36698646.438 7 147770249.907 7        47.800    36698641.039 7 155284013.734 7        47.300
C02  39038619.344 6 203284359.194 6        36.000    39038617.832 6 157192353.523 6        41.400    39038612.590 6 165185174.824 6        39.200
C03  37214626.453 7 193786302.395 7        42.500    37214623.434 7 149847830.719 7        47.900    37214617.316 7 157467233.403 7        47.600
C04  37510301.969 6 195326000.454 6        40.800    37510299.480 7 151038436.315 7        45.800    37510293.094 7 158718374.929 7        45.600
C07  35910342.344 8 186994583.442 8        48.200    35910338.094 8 144596048.637 8        49.700    35910329.008 8 151948395.290 8        50.300
C10  37125702.898 7 193323292.797 7        45.800    37125701.746 7 149489839.056 7        46.100    37125692.008 7 157090968.537 7        47.000
C14  25810685.000 5 134402988.521 5        35.500    25810687.789 6 103928910.723 6        39.700    25810677.875 6 109213396.256 6        41.500
C08  37151256.578 7 193456386.835 7        46.300    37151253.836 7 149592775.806 7        46.700    37151245.500 7 157199139.775 7        47.700
C12  25337598.508 6 131939550.917 6        38.600    25337602.801 6 102024057.161 6        41.300    25337592.422 7 107211678.568 7        42.200
C09  40988822.227 5 213439498.245 5        32.000    40988831.996 5 165044971.920 5        33.800    40988819.098 5 173437044.368 5        34.700
> 2013  6 15  4 28 30.0000000  0 31
R21  21283623.188 8 113893530.935 8        48.800    21283622.340 7 113893255.945 7        47.900    21283629.605 6  88583564.306 6        39.900    21283629.871 6  88583572.309 6        38.900
R08  22487819.805 7 120421461.202 7        46.300    22487818.691 7 120421371.214 7        45.100    22487828.207 6  93661061.565 6        41.700    22487827.969 6  93661053.558 6        41.100
G21  24596459.844 6 129255308.186 6        39.100    24596472.941 3 100718469.98143        19.900
R09  22291326.305 7 119034189.504 7        46.400    22291324.988 7 119034432.505 7        44.300    22291332.387 6  92582347.269 6        40.700    22291333.781 6  92582343.280 6        39.700
G16  21333306.656 8 112107397.217 8        50.800    21333315.711 6  87356484.23646        39.900
G31  20941206.594 8 110047036.744 8        53.000    20941214.645 7  85750851.02647        43.900    20941214.598 8  85750853.027 8        49.100
G03  23593150.516 6 123982932.535 6        41.100    23593163.039 4  96610184.55944        25.100
G32  24740744.227 6 130013443.048 6        40.900    24740758.453 3 101309229.97443        22.200
G20  25236077.07815 132616433.73815        33.500    25236092.25012 103337518.59452        12.600
R20  19805177.859 7 105907315.214 7        47.600    19805176.469 7 105907265.220 7        46.300    19805184.547 8  82372412.850 8        48.900    19805184.305 8  82372407.852 8        48.900
G14  23038897.734 7 121070166.646 7        43.000    23038909.750 4  94340480.71044        24.700
G29  23164465.625 7 121730133.290 7        45.300    23164475.965 5  94854721.86845        30.200    23164475.922 6  94854715.865 6        40.200
R10  20431041.344 8 108908929.411 8        52.100    20431040.961 8 108908994.411 8        50.700    20431049.699 6  84707069.478 6        41.400    20431049.285 6  84707061.473 6        41.200
G23  23950145.008 6 125858895.897 6        41.600    23950153.875 4  98071906.67744        25.500
R11  22238127.148 7 118833757.598 7        45.300    22238125.391 7 118833809.599 7        44.000    22238133.520 6  92426400.379 6        38.400    22238133.578 6  92426396.380 6        37.400
R19  22080037.023 7 118113270.514 7        47.600    22080036.328 7 118113362.513 7        46.500    22080041.840 6  91865975.997 6        40.000    22080042.000 6  91865974.001 6        39.600
R01  22761957.930 7 121675724.228 7        44.500    22761957.609 7 121675717.214 7        43.200    22761967.277 6  94636692.699 6        38.300    22761968.492 6  94636681.711 6        36.500
G06  21752159.188 7 114308468.328 7        47.100    21752170.496 5  89071644.53745        35.700
J01  37265565.563 6 195832010.609 6        37.000    37265565.250 6 195831749.607 6        38.400    37265578.387 6 152596442.009 6        37.600    37265584.289 6 146238294.102 6        40.700    37265572.441 5 158954465.687 5        33.900
E12  24756551.367 8 130096641.567 8        48.200    24756559.137 7  97150177.396 7        46.900    24756556.180 7  99684503.201 7        46.200    24756557.453 8  98417344.405 8        53.600
C01  36698691.094 7 191099719.143 7        44.300    36698684.656 8 147770402.849 8        48.300    36698678.902 7 155284174.459 7        47.500
C02  39038726.430 5 203284916.570 5        35.600    39038725.219 6 157192784.544 6        40.800    39038719.734 6 165185627.738 6        39.200
C03  37214537.992 7 193785840.419 7        42.600    37214534.695 7 149847473.475 7        47.200    37214528.691 7 157466858.020 7        47.900
C04  37510312.836 6 195326058.111 6        40.700    37510310.398 7 151038480.889 7        45.100    37510304.348 7 158718421.778 7        45.900
C07  35907841.836 8 186981561.950 8        48.700    35907837.617 8 144585979.586 8        50.100    35907828.527 8 151937814.258 8        50.300
C10  37121796.742 7 193302951.761 7        46.200    37121795.598 7 149474110.086 7        45.800    37121785.820 7 157074439.789 7        46.400
C14  25817871.148 5 134440406.406 5        35.000    25817874.117 6 103957844.483 6        40.200    25817864.023 6 109243801.242 6        41.700
C08  37146047.969 7 193429263.231 7        46.600    37146045.023 7 149571802.129 7        46.400    37146036.637 7 157177099.639 7        47.600
C12  25318520.984 6 131840210.474 6        39.200    25318524.801 6 101947241.078 6        40.300    25318514.570 7 107130956.538 7        42.200
C09  40998689.617 5 213490877.875 5        31.800    40998699.629 5 165084701.551 5        33.400    40998686.641 5 173478794.235 5        33.400
C05  40895354.20315 212952829.15515        32.000    40895357.36315 164668676.07915        32.600    40895350.30516 173041682.80716        36.000
> 2013  6 15  4 29  0.0000000  0 31
R21  21262353.344 8 113779711.012 8        49.600    21262351.789 7 113779436.027 7        47.600    21262358.855 6  88495037.797 6        39.700    21262359.070 6  88495045.801 6        39.000
R08  22504368.047 7 120510068.370 7        46.900    22504366.113 7 120509978.395 7        45.300    22504374.695 6  93729978.085 6        40.900    22504374.621 6  93729970.083 6        40.200
G21  24587958.836 6 129210642.397 6        38.100    24587973.422 3 100683665.56543        19.300
R09  22300794.422 7 119084751.984 7        45.300    22300793.457 7 119084994.979 7        44.200    22300801.547 6  92621673.536 6        40.400    22300802.734 6  92621669.536 6        40.100
G16  21327385.508 8 112076281.871 8        51.000    21327394.242 6  87332238.53246        39.400
G31  20943227.234 8 110057653.723 8        52.600    20943235.270 7  85759123.96647        43.300    20943235.309 8  85759125.959 8        49.300
G03  23571599.969 6 123869689.200 6        40.500    23571613.816 4  96521943.16844        24.800
G32  24751138.086 6 130068063.973 6        39.200    24751152.555 3 101351791.57843        20.900
G20  25243651.031 5                        31.500
R20  19800668.523 7 105883204.663 7        47.900    19800667.836 7 105883154.667 7        46.600    19800675.551 8  82353660.209 8        48.700    19800675.180 8  82353655.213 8        48.300
G14  23059037.203 7 121175994.592 7        43.800    23059049.344 4  94422943.88244        27.400
G29  23180623.328 7 121815041.737 7        45.000    23180633.324 5  94920884.23345        30.600    23180633.395 6  94920878.230 6        40.700
R10  20428467.883 8 108895205.906 8        52.300    20428466.328 8 108895270.913 8        50.500    20428474.750 6  84696395.620 6        41.600    20428474.703 6  84696387.624 6        41.500
G23  23932196.898 7 125764574.107 7        42.100    23932205.102 3  97998409.23343        23.800
R11  22225550.867 7 118766561.888 7        44.500    22225550.051 7 118766613.897 7        43.400    22225558.770 6  92374137.098 6        37.500    22225558.938 6  92374133.101 6        37.000
R19  22096597.570 7 118201861.447 7        47.200    22096596.289 7 118201953.466 7        46.300    22096602.469 6  91934880.029 6        40.200    22096602.773 6  91934878.032 6        39.600
R01  22762965.406 7 121681103.362 7        44.600    22762964.266 7 121681096.352 7        43.400    22762973.930 6  94640876.410 6        36.400    22762974.422 6  94640865.414 6        36.400
G06  21734849.305 8 114217501.724 8        48.200    21734860.004 5  89000761.52245        35.900
J01  37264608.922 6 195826984.375 6        36.400    37264609.141 6 195826723.373 6        38.900    37264622.457 6 152592525.540 6        37.700    37264628.094 6 146234540.823 6        41.600    37264616.41815 158950386.10515        33.100
E12  24741986.695 7 130020104.470 7        47.600    24741994.543 7  97093023.133 7        47.000    24741991.449 7  99625857.958 7        46.100    24741993.004 8  98359444.655 8        53.600
C01  36698729.125 7 191099919.537 7        44.200    36698723.023 8 147770557.802 8        48.100    36698717.574 7 155284337.293 7        47.300
C02  39038834.008 5 203285475.774 5        35.800    39038832.426 6 157193216.966 6        40.400    39038827.191 6 165186082.136 6        39.500
C03  37214449.359 7 193785380.379 7        42.600    37214446.184 7 149847117.737 7        47.800    37214440.363 7 157466484.188 7        47.300
C04  37510324.273 6 195326117.219 6        40.800    37510321.965 7 151038526.590 7        45.100    37510315.625 7 158718469.806 7        45.600
C07  35905346.867 8 186968569.020 8        48.500    35905342.285 8 144575932.629 8        49.500    35905333.191 8 151927256.433 8        50.600
C10  37117888.805 7 193282601.246 7        45.600    37117887.590 7 149458373.778 7        46.000    37117877.770 7 157057903.330 7        47.300
C14  25825113.117 5 134478114.388 5        35.000    25825115.887 6 103987002.563 6        41.200    25825105.863 6 109274441.963 6        41.700
C08  37140863.234 7 193402268.208 7        45.800    37140860.715 7 149550927.891 7        46.700    37140852.266 7 157155163.996 7        47.900
C12  25299454.766 6 131740931.773 6        38.300    25299459.090 6 101870472.751 6        40.600    25299448.938 7 107050284.684 7        42.000
C09  41008539.234 5 213542170.015 5        32.200    41008549.859 5 165124363.524 5        34.900    41008537.324 5 173520473.009 5        32.600
C05  40895274.52315 212952407.77215        33.400    40895277.99615 164668350.81215        34.300    40895270.16815 173041340.23115        35.200
> 2013  6 15  4 29 30.0000000  0 30
R21  21241152.797 8 113666265.809 8        48.900    21241152.066 7 113665990.811 7        47.900    21241159.012 6  88406802.735 6        39.500    21241159.270 6  88406810.739 6        38.600
R08  22520971.094 7 120598979.926 7        46.900    22520969.512 7 120598889.948 7        45.200    22520978.059 6  93799131.341 6        41.700    22520978.621 6  93799123.341 6        41.300
G21  24579488.055 6 129166123.588 6        38.700    24579501.832 3 100648975.74243        19.000
R09  22310295.930 7 119135486.549 7        46.000    22310294.848 7 119135729.567 7        44.600    22310302.141 6  92661133.621 6        39.500    22310303.465 6  92661129.626 6        39.800
G16  21321522.445 8 112045469.290 8        50.800    21321530.980 6  87308228.75446        40.600
G31  20945295.359 8 110068522.611 8        53.000    20945303.813 7  85767593.19547        43.800    20945303.617 8  85767595.195 8        49.800
G03  23550077.398 6 123756586.501 6        40.900    23550090.359 4  96433811.34344        26.600
G32  24761559.516 6 130122829.029 6        39.900    24761573.137 3 101394465.43843        21.100
G20  25251275.23415 132696295.23415        32.200    25251290.18412 103399747.95752        13.900
R20  19796312.352 8 105859910.964 8        48.300    19796311.781 7 105859860.977 7        47.200    19796319.855 8  82335542.911 8        49.200    19796319.559 8  82335537.914 8        48.700
G14  23079212.148 7 121282020.512 7        42.400    23079225.203 4  94505561.31044        25.000
G29  23196843.555 7 121900279.779 7        44.700    23196854.160 5  94987303.42045        30.600    23196853.605 6  94987297.413 6        40.600
R10  20425922.211 8 108881639.543 8        52.500    20425921.008 8 108881704.535 8        50.900    20425929.996 7  84685844.009 7        42.100    20425930.016 6  84685836.012 6        41.500
G23  23914300.844 7 125670530.806 7        42.200    23914308.922 4  97925128.77444        26.600
R11  22212970.453 7 118699329.816 7        44.100    22212968.695 7 118699381.817 7        42.400    22212977.734 6  92321845.526 6        38.100    22212977.566 6  92321841.528 6        37.900
R19  22113263.906 7 118291011.891 7        47.200    22113262.508 7 118291103.898 7        45.800    22113268.332 6  92004219.213 6        40.200    22113268.672 6  92004217.217 6        39.700
R01  22764100.070 7 121687171.679 7        45.200    22764098.813 7 121687164.697 7        43.700    22764107.492 6  94645596.171 6        36.900    22764109.172 6  94645585.183 6        36.200
G06  21717605.102 8 114126886.159 8        48.700    21717616.105 5  88930152.04245        35.800
J01  37263643.125 6 195821907.078 6        37.200    37263642.504 6 195821646.069 6        38.800    37263656.164 6 152588569.248 6        36.700    37263661.902 6 146230749.403 6        41.400    37263649.87515 158946264.81915        33.800
E12  24727461.570 8 129943774.475 8        48.000    24727469.035 7  97036023.532 7        47.200    24727466.363 7  99567371.397 7        46.000    24727467.840 8  98301701.569 8        53.700
C01  36698768.055 7 191100122.343 7        44.300    36698761.723 7 147770714.628 7        47.000    36698756.086 7 155284502.092 7        47.500
C02  39038942.367 5 203286036.642 5        35.800    39038940.355 6 157193650.676 6        40.700    39038935.203 6 165186537.898 6        39.800
C03  37214361.383 7 193784922.147 7        42.500    37214358.633 7 149846763.399 7        47.000    37214352.645 7 157466111.827 7        47.400
C04  37510335.945 6 195326177.562 6        40.900    37510333.539 7 151038573.241 7        45.500    37510327.566 7 158718518.827 7        45.800
C07  35902856.945 8 186955604.852 8        48.100    35902852.875 8 144565907.908 8        49.500    35902843.750 8 151916721.974 8        50.200
C10  37113978.656 7 193262241.485 7        46.100    37113977.656 7 149442630.320 7        46.600    37113967.961 7 157041359.363 7        46.500
C14  25832408.891 5 134516110.070 5        34.500    25832412.723 6 104016383.097 6        40.000    25832402.418 6 109305316.429 6        41.300
C08  37135704.297 7 193375401.564 7        45.500    37135701.313 7 149530152.912 7        46.600    37135692.605 7 157133332.660 7        47.000
C12  25280401.961 6 131641716.651 6        39.000    25280405.270 6 101793753.605 6        41.200    25280394.883 6 106969664.482 6        41.100
C09  41018373.070 5 213593373.930 5        33.400    41018383.504 5 165163957.285 5        35.600    41018370.375 5 173562080.120 5        32.600
> 2013  6 15  4 30  0.0000000  0 31
R21  21220023.398 8 113553200.039 8        48.800    21220023.020 7 113552925.055 7        47.500    21220029.750 6  88318862.798 6        39.700    21220030.852 6  88318870.802 6        39.600
R08  22537631.508 7 120688191.474 7        45.900    22537629.926 7 120688101.480 7        44.600    22537637.973 6  93868517.924 6        41.400    22537638.484 6  93868509.924 6        40.100
G21  24571045.008 6 129121754.282 6        39.100    24571057.941 3 100614402.34943        19.900
R09  22319829.727 7 119186394.131 7        47.200    22319828.645 7 119186637.140 7        45.700    22319836.020 6  92700728.281 6        41.300    22319837.574 6  92700724.279 6        40.200
G16  21315716.602 8 112014958.650 8        51.000    21315724.734 6  87284454.25846        39.700
G31  20947411.836 8 110079644.666 8        52.500    20947420.648 7  85776259.71447        43.500    20947420.410 8  85776261.707 8        49.800
G03  23528582.008 6 123643626.917 6        41.700    23528595.707 4  96345791.03444        27.000
G32  24772008.375 6 130177735.402 6        40.600    24772022.297 3 101437249.42943        21.100
G20  25258947.02315 132736612.14915        32.400
R20  19792109.055 7 105837435.590 7        47.700    19792108.719 7 105837385.608 7        46.500    19792116.898 8  82318062.086 8        49.800    19792116.426 8  82318057.094 8        48.900
G14  23099425.719 6 121388241.703 6        41.500    23099438.426 4  94588330.86844        24.600
G29  23213126.039 7 121985845.050 7        44.700    23213136.352 5  95053977.60545        30.000    23213136.035 6  95053971.599 6        40.100
R10  20423407.008 8 108868232.119 8        52.600    20423406.039 8 108868297.119 8        50.800    20423414.770 7  84675416.014 7        42.100    20423414.801 6  84675408.018 6        41.600
G23  23896458.328 7 125576768.681 7        43.600    23896466.906 4  97852067.44244        26.300
R11  22200381.289 7 118632061.922 7        45.100    22200380.121 7 118632113.935 7        43.100    22200388.629 6  92269526.084 6        37.900    22200388.910 6  92269522.090 6        36.900
R19  22130033.828 7 118380717.981 7        46.600    22130032.664 7 118380809.978 7        45.600    22130038.535 6  92073990.544 6        40.800    22130039.016 6  92073988.548 6        39.700
R01  22765364.563 7 121693928.212 7        45.000    22765363.891 7 121693921.207 7        44.100    22765372.883 5  94650851.195 5        35.200    22765373.109 5  94650840.202 5        35.500
G06  21700428.555 7 114036623.872 7        47.800    21700439.473 5  88859817.85645        35.700
J01  37262666.766 6 195816778.854 6        36.900    37262667.020 6 195816517.838 6        38.600    37262679.934 6 152584573.292 6        36.700    37262686.234 6 146226919.959 6        41.700    37262674.270 5 158942102.292 5        33.300
E12  24712976.195 8 129867653.433 8        48.200    24712984.086 7  96979179.960 7        47.700    24712981.133 7  99509044.941 7        46.500    24712982.574 8  98244116.560 8        53.800
E11  28219507.21116 148294508.92516        37.400    28219523.18816 110739468.46816        37.400    28219519.85916 113628307.78516        37.100    28219521.78917 112183888.73817        42.800
C01  36698807.727 7 191100327.736 7        44.300    36698801.055 8 147770873.442 8        48.200    36698795.551 7 155284668.986 7        47.000
C02  39039050.016 6 203286599.272 6        36.100    39039048.066 6 157194085.742 6        41.400    39039042.836 6 165186995.093 6        40.200
C03  37214274.117 7 193784465.695 7        42.500    37214270.871 7 149846410.433 7        47.600    37214264.863 7 157465740.921 7        47.400
C04  37510347.773 6 195326239.164 6        40.800    37510345.730 7 151038620.876 7        45.200    37510339.480 7 158718568.885 7        45.600
C07  35900373.141 7 186942670.049 7        47.500    35900368.566 8 144555905.888 8        49.400    35900359.707 8 151906211.388 8        50.700
C10  37110067.539 7 193241872.995 7        45.400    37110066.262 7 149426880.105 7        46.800    37110056.652 7 157024808.282 7        47.200
C14  25839761.844 5 134554391.687 5        35.400    25839764.441 6 104045984.741 6        41.100    25839754.262 6 109336423.271 6        41.600
C08  37130569.047 7 193348663.584 7        45.800    37130566.563 7 149509477.432 7        46.100    37130557.953 8 157111605.868 8        48.100
C12  25261361.469 6 131542567.132 6        39.300    25261364.852 6 101717085.145 6        41.100    25261354.441 6 106889097.557 6        41.700
C09  41028189.773 5 213644489.040 5        34.800    41028200.504 6 165203482.397 6        37.100    41028186.270 5 173603615.102 5        32.700
> 2013  6 15  4 30 30.0000000  0 32
R21  21198966.695 8 113440518.193 8        49.100    21198965.492 7 113440243.194 7        47.600    21198972.168 6  88231221.454 6        39.900    21198972.859 6  88231229.457 6        38.900
R08  22554346.273 7 120777699.014 7        46.600    22554343.867 7 120777609.050 7        44.900    22554353.027 6  93938134.725 6        41.400    22554353.328 6  93938126.725 6        40.800
G21  24562629.945 6 129077537.633 6        39.000    24562644.547 3 100579947.92643        19.600
R09  22329396.898 7 119237476.497 7        47.500    22329395.465 7 119237719.502 7        45.600    22329402.691 6  92740458.866 6        41.100    22329404.270 6  92740454.864 6        40.400
G16  21309968.031 8 111984749.876 8        50.900    21309976.516 6  87260914.97946        40.500
G31  20949576.734 8 110091021.454 8        52.200    20949585.313 7  85785124.71747        43.900    20949585.055 8  85785126.718 8        49.400
G03  23507114.258 6 123530813.351 6        41.000    23507128.035 4  96257884.52244        27.000
G32  24782482.945 6 130232781.276 6        39.800    24782497.207 3 101480142.17443        20.600
G20  25266667.39115 132777183.85715        31.300
R20  19788059.844 7 105815780.004 7        47.800    19788059.039 7 105815729.994 7        46.500    19788067.250 8  82301218.883 8        48.900    19788066.930 8  82301213.885 8        48.500
G14  23119677.703 7 121494656.130 7        43.600    23119688.195 4  94671251.05344        25.200
G29  23229470.719 7 122071735.315 7        43.600    23229480.754 5  95120905.04345        30.300    23229480.672 6  95120899.032 6        39.200
R10  20420922.063 8 108854985.623 8        52.700    20420920.273 8 108855050.623 8        50.900    20420928.824 7  84665113.186 7        42.100    20420929.039 6  84665105.189 6        41.800
G23  23878670.219 7 125483290.625 7        42.400    23878678.832 4  97779227.46144        25.400
R11  22187786.773 7 118564759.788 7        44.700    22187785.605 7 118564811.808 7        43.400    22187793.770 6  92217180.032 6        37.100    22187794.129 6  92217176.041 6        36.300
R19  22146906.750 7 118470976.811 7        47.000    22146905.234 7 118471068.823 7        45.600    22146911.168 6  92144191.817 6        40.500    22146911.523 6  92144189.821 6        39.400
R01  22766757.516 7 121701371.868 7        44.800    22766756.258 7 121701364.854 7        43.600    22766765.266 5  94656640.646 5        35.900    22766765.738 5  94656629.651 5        35.100
G06  21683320.609 8 113946718.027 8        48.800    21683331.125 6  88789761.43246        36.400
J01  37261680.219 6 195811600.537 6        36.700    37261681.113 6 195811339.537 6        38.800    37261694.172 6 152580538.313 6        37.000    37261700.836 6 146223053.119 6        41.700    37261688.227 5 158937899.093 5        32.800
E12  24698531.047 7 129791743.706 7        47.600    24698538.574 7  96922494.190 7        47.000    24698535.805 7  99450880.408 7        46.200    24698537.152 8  98186691.402 8        53.800
E11  28202318.820 5 148204181.755 5        35.400    28202335.246 6 110672016.224 6        36.400    28202331.590 6 113559095.952 6        36.500    28202333.398 7 112115556.693 7        42.200
C01  36698847.844 7 191100536.205 7        44.300    36698841.250 7 147771034.644 7        47.200    36698835.707 7 155284838.379 7        47.300
C02  39039157.891 5 203287164.140 5        35.700    39039156.508 6 157194522.548 6        40.800    39039151.266 6 165187454.094 6        39.600
C03  37214186.875 7 193784011.696 7        42.500    37214183.777 7 149846059.362 7        46.600    37214177.898 7 157465371.997 7        47.400
C04  37510359.852 6 195326302.711 6        40.800    37510357.797 7 151038670.022 7        45.500    37510351.152 7 158718620.519 7        45.500
C07  35897894.953 8 186929765.684 8        48.000    35897890.461 8 144545927.408 8        49.600    35897881.617 8 151895725.537 8        50.200
C10  37106154.492 7 193221496.851 7        46.700    37106153.219 7 149411123.991 7        46.600    37106143.406 7 157008251.005 7        46.500
C14  25847166.406 5 134592957.654 5        34.500    25847171.266 6 104075806.225 6        41.100    25847159.707 6 109367761.140 6        40.500
C08  37125459.250 7 193322054.847 7        46.000    37125456.836 7 149488901.887 7        46.000    37125448.121 7 157089984.113 7        47.600
C12  25242334.117 6 131443485.772 6        39.000    25242337.094 7 101640469.375 7        42.200    25242327.043 7 106808586.014 7        43.400
C09  41037989.203 5 213695515.624 5        35.200    41037999.867 6 165242939.057 6        36.900    41037986.465 5 173645078.143 5        33.900
C05  40895037.57015 212951169.49715        32.300    40895040.10515 164667446.90415        34.200    40895032.47715 173040387.66715        35.500
