     2              OBSERVATION DATA    G (GPS)             RINEX VERSION / TYPE
CCRINEXO V2.4.1 LH  Bernese             28-APR-08 17:51     PGM / RUN BY / DATE 
TPS2RIN 1.40        GEOMATICA/IREALP    28-APR-08 12:59     COMMENT             
BUILD FEB  4 2004 (C) TOPCON POSITIONING SYSTEMS            COMMENT             
D:\GPSCOMO\TB01H\2008\04\28\CO6C79~1.JPS                    COMMENT             
SE TPS 00000000                                             COMMENT             
COMO                                                        MARKER NAME         
12761M001                                                   MARKER NUMBER       
GEOMATICA/IREALP    MILANO POLYTECHNIC                      OBSERVER / AGENCY   
8PRM6AZ2EBK         TPS ODYSSEY_E       3.1 JAN,24,2007 P1  REC # / TYPE / VERS 
217-0400            TPSCR3_GGD      CONE                    ANT # / TYPE        
  4398306.2809   704149.8723  4550154.6777                  APPROX POSITION XYZ 
        0.2134        0.0000        0.0000                  ANTENNA: DELTA H/E/N
     1     1                                                WAVELENGTH FACT L1/2
     7    C1    P1    P2    L1    L2    D1    D2            # / TYPES OF OBSERV 
     1                                                      INTERVAL            
  2008     4    28    12     0    0.000000                  TIME OF FIRST OBS   
                                                            END OF HEADER       
 08  4 28 14  3 50.0000000  0  8 04 07 08 10 13 23 25 27
  22989016.023    22989016.0044   22989020.8164  120808096.986 6  94136180.35944
     -2616.601       -2038.911
  20371994.644    20371994.6104   20371997.0264  107055607.403 8  83419955.66947
        61.254          47.727
  21257486.569    21257485.8114   21257490.3994  111708929.282 7  87045937.50146
      2916.100        2272.279
  22065915.594    22065914.9294   22065919.2954  115957196.161 7  90356260.69445
      3281.544        2557.051
  21211586.453    21211586.5264   21211589.3164  111467667.144 8  86857939.67046
     -1579.800       -1231.015
  24032907.081    24032905.1074   24032908.2454  126293776.722 5  98410734.27142
     -2556.750       -1992.270
  21400008.527    21400008.1484   21400011.4944  112457858.363 8  87629504.90446
     -1487.720       -1159.261
  20628255.928    20628255.3044   20628259.1254  108402265.161 8  84469326.45447
       307.950         239.960
 08  4 28 14  3 51.0000000  0  8 04 07 08 10 13 23 25 27
  22989514.089    22989514.0544   22989518.7824  120810713.666 6  94138219.32644
     -2616.782       -2039.044
  20371983.122    20371983.0104   20371985.4514  107055546.445 8  83419908.17047
        60.661          47.269
  21256931.711    21256930.9704   21256935.5344  111706013.393 8  87043665.38246
      2915.670        2271.949
  22065291.120    22065290.4364   22065294.8794  115953914.731 7  90353703.73345
      3281.293        2556.854
  21211887.215    21211887.1924   21211889.8894  111469247.075 8  86859170.78446
     -1580.054       -1231.210
  24033393.121    24033391.5524   24033395.1844  126296333.544 6  98412726.60742
     -2556.862       -1992.375
  21400291.602    21400291.3264   21400294.6614  112459346.291 8  87630664.32846
     -1488.132       -1159.584
  20628197.478    20628196.7674   20628200.5304  108401957.453 8  84469086.68147
       307.464         239.583
 08  4 28 14  3 52.0000000  0  8 04 07 08 10 13 23 25 27
  22990012.430    22990012.0954   22990016.7364  120813330.583 7  94140258.48844
     -2617.035       -2039.260
  20371971.652    20371971.5154   20371973.9634  107055486.066 8  83419861.12347
        60.089          46.820
  21256376.809    21256376.2104   21256380.6784  111703097.962 8  87041393.61846
      2915.203        2271.587
  22064666.738    22064666.1074   22064670.4344  115950633.551 7  90351146.96345
      3281.055        2556.674
  21212188.084    21212187.8724   21212190.6204  111470827.218 8  86860402.06446
     -1580.250       -1231.362
  24033879.540    24033878.4014   24033881.9174  126298890.406 6  98414718.96942
     -2556.883       -1992.374
  21400574.891    21400574.5234   21400577.8144  112460834.585 8  87631824.03946
     -1488.478       -1159.854
  20628139.018    20628138.2704   20628142.0734  108401650.219 8  84468847.27947
       306.996         239.216
 08  4 28 14  3 53.0000000  0  8 04 07 08 10 13 23 25 27
  22990510.470    22990509.9764   22990514.6734  120815947.743 7  94142297.82944
     -2617.283       -2039.431
  20371960.326    20371960.1244   20371962.6064  107055426.309 8  83419814.55947
        59.445          46.323
  21255822.088    21255821.4774   21255826.0044  111700182.985 8  87039122.20846
      2914.749        2271.233
  22064042.421    22064041.7804   22064046.1464  115947352.665 7  90348590.42945
      3280.738        2556.416
  21212488.695    21212488.5864   21212491.3694  111472407.613 8  86861633.53846
     -1580.520       -1231.571
  24034365.856    24034365.3634   24034368.3644  126301447.302 6  98416711.34842
     -2556.912       -1992.389
  21400858.214    21400857.8334   21400861.1204  112462323.301 8  87632984.07646
     -1488.927       -1160.200
  20628080.576    20628079.9244   20628083.7524  108401343.496 8  84468608.27447
       306.468         238.806
 08  4 28 14  3 54.0000000  0  8 04 07 08 10 13 23 25 27
  22991008.932    22991007.9364   22991012.7384  120818565.142 6  94144337.35744
     -2617.518       -2039.622
  20371948.872    20371948.8534   20371951.3514  107055367.146 8  83419768.45747
        58.866          45.871
  21255267.534    21255266.8484   21255271.3684  111697268.455 8  87036851.14746
      2914.308        2270.887
  22063418.272    22063417.4284   22063421.9714  115944072.049 7  90346034.11045
      3280.481        2556.211
  21212789.409    21212789.3444   21212792.1164  111473988.238 7  86862865.19446
     -1580.741       -1231.747
  24034852.495    24034851.9414   24034854.9394  126304004.268 6  98418703.78042
     -2557.001       -1992.457
  21401141.566    21401141.1814   21401144.5014  112463812.409 8  87634144.41946
     -1489.303       -1160.496
  20628022.450    20628021.6444   20628025.4974  108401037.268 8  84468369.65347
       305.981         238.428
 08  4 28 14  3 55.0000000  0  8 04 07 08 10 13 23 25 27
  22991506.759    22991506.2004   22991510.8124  120821182.848 7  94146377.12544
     -2617.859       -2039.887
  20371937.794    20371937.6944   20371940.2104  107055308.646 8  83419722.87047
        58.169          45.329
  21254713.056    21254712.3734   21254716.8194  111694354.448 8  87034580.49246
      2913.744        2270.452
  22062794.091    22062793.2124   22062797.6884  115940791.779 7  90343478.05645
      3280.097        2555.921
  21213090.533    21213090.1834   21213092.9414  111475569.172 8  86864097.08746
     -1581.088       -1232.012
  24035338.971    24035338.3924   24035341.6034  126306561.367 6  98420696.31742
     -2557.166       -1992.590
  21401425.046    21401424.6084   21401427.9524  112465301.982 8  87635305.12746
     -1489.806       -1160.890
  20627964.238    20627963.4884   20627967.3004  108400731.589 8  84468131.46347
       305.403         237.975
 08  4 28 14  3 56.0000000  0  8 04 07 08 10 13 23 25 27
  22992004.856    22992004.3604   22992009.0324  120823800.815 6  94148417.10044
     -2618.098       -2040.079
  20371926.852    20371926.6784   20371929.1844  107055250.761 8  83419677.76747
        57.578          44.862
  21254158.550    21254157.9494   21254162.4464  111691440.914 8  87032310.21046
      2913.298        2270.095
  22062170.009    22062169.1284   22062173.6044  115937511.809 7  90340922.23445
      3279.820        2555.705
  21213391.379    21213391.1194   21213393.8144  111477150.341 8  86865329.17046
     -1581.287       -1232.178
  24035825.986    24035824.9094   24035827.9444  126309118.513 6  98422688.89142
     -2557.169       -1992.592
  21401708.590    21401708.1274   21401711.5074  112466791.971 8  87636466.15746
     -1490.197       -1161.192
  20627906.030    20627905.4104   20627909.2044  108400426.427 8  84467893.67747
       304.904         237.584
 08  4 28 14  3 57.0000000  0  8 04 07 08 10 13 23 25 27
  22992503.313    22992502.4894   22992507.1734  120826419.003 7  94150457.24444
     -2618.298       -2040.227
  20371915.968    20371915.7844   20371918.2524  107055193.503 8  83419633.14747
        56.944          44.377
  21253604.219    21253603.6324   21253608.0954  111688527.839 8  87030040.28046
      2912.846        2269.753
  22061545.959    22061544.9724   22061549.5084  115934232.133 7  90338366.64345
      3279.529        2555.476
  21213692.283    21213692.0884   21213694.8594  111478731.785 8  86866561.46246
     -1581.582       -1232.397
  24036312.715    24036311.2474   24036314.8504  126311675.731 6  98424681.53242
     -2557.253       -1992.674
  21401992.202    21401991.7794   21401995.0994  112468282.368 8  87637627.50646
     -1490.602       -1161.508
  20627848.063    20627847.4274   20627851.2254  108400121.774 8  84467656.28547
       304.398         237.195
 08  4 28 14  3 58.0000000  0  8 04 07 08 10 13 23 25 27
  22993001.701    22993000.7804   22993005.5254  120829037.460 7  94152497.59444
     -2618.592       -2040.454
  20371905.228    20371905.0074   20371907.4994  107055136.831 8  83419588.98847
        56.379          43.930
  21253049.876    21253049.3794   21253053.8524  111685615.234 8  87027770.71846
      2912.369        2269.378
  22060921.863    22060920.9364   22060925.5004  115930952.722 7  90335811.26445
      3279.277        2555.273
  21213993.244    21213993.0564   21213995.7664  111480313.453 7  86867793.93146
     -1581.780       -1232.557
  24036799.591    24036798.1144   24036801.6654  126314232.988 6  98426674.20442
     -2557.277       -1992.688
  21402275.941    21402275.5184   21402278.8084  112469773.162 8  87638789.16546
     -1490.991       -1161.814
  20627790.255    20627789.5554   20627793.3394  108399817.625 8  84467419.28447
       303.898         236.805
 08  4 28 14  3 59.0000000  0  8 04 07 08 10 13 23 25 27
  22993500.056    22993499.2744   22993503.8754  120831656.203 6  94154538.16844
     -2618.886       -2040.686
  20371894.586    20371894.3414   20371896.8494  107055080.817 8  83419545.34047
        55.684          43.391
  21252495.733    21252495.2054   21252499.7244  111682703.130 8  87025501.54746
      2911.854        2268.976
  22060297.975    22060296.9954   22060301.6464  115927673.694 7  90333256.17145
      3278.837        2554.949
  21214294.216    21214294.0594   21214296.7844  111481895.431 8  86869026.64246
     -1582.132       -1232.831
  24037286.461    24037284.7164   24037288.1644  126316790.356 6  98428666.95542
     -2557.424       -1992.791
  21402559.732    21402559.2274   21402562.6004  112471264.423 8  87639951.18446
     -1491.496       -1162.199
  20627732.364    20627731.7794   20627735.5584  108399514.021 8  84467182.71147
       303.330         236.359
 08  4 28 14  4  0.0000000  0  8 04 07 08 10 13 23 25 27
  22993998.281    22993997.6204   22994002.3684  120834275.228 6  94156578.96644
     -2619.167       -2040.910
  20371884.117    20371883.7944   20371886.3014  107055025.462 8  83419502.20547
        55.026          42.879
  21251941.852    21251941.1214   21251945.6154  111679791.524 8  87023232.76046
      2911.358        2268.596
  22059673.844    22059673.1164   22059677.6774  115924394.982 7  90330701.33045
      3278.554        2554.715
  21214595.308    21214595.1844   21214597.9354  111483477.695 8  86870259.57446
     -1582.408       -1233.043
  24037773.256    24037771.4534   24037774.6134  126319347.844 6  98430659.79642
     -2557.547       -1992.885
  21402843.537    21402843.1394   21402846.4214  112472756.136 8  87641113.55846
     -1491.938       -1162.552
  20627674.604    20627674.1094   20627677.9004  108399210.966 8  84466946.56447
       302.781         235.933
 08  4 28 14  4  1.0000000  0  8 04 07 08 10 13 23 25 27
  22994496.754    22994496.2974   22994500.8634  120836894.518 6  94158619.97444
     -2619.422       -2041.112
  20371873.701    20371873.3694   20371875.8594  107054970.709 8  83419459.54247
        54.451          42.428
  21251387.896    21251387.1394   21251391.6494  111676880.393 8  87020964.34846
      2910.893        2268.224
  22059050.185    22059049.2504   22059053.6774  115921116.543 7  90328146.70645
      3278.302        2554.515
  21214896.527    21214896.2914   21214899.0464  111485060.222 8  86871492.70746
     -1582.658       -1233.234
  24038260.007    24038258.1574   24038260.9484  126321905.423 6  98432652.71242
     -2557.625       -1992.954
  21403127.334    21403127.1094   21403130.3474  112474248.256 8  87642276.24646
     -1492.325       -1162.845
  20627617.076    20627616.5454   20627620.3334  108398908.405 8  84466710.80347
       302.314         235.569
 08  4 28 14  4  2.0000000  0  8 04 07 08 10 13 23 25 27
  22994994.895    22994994.5614   22994999.3544  120839514.039 6  94160661.15744
     -2619.636       -2041.271
  20371863.297    20371863.0574   20371865.5494  107054916.539 8  83419417.33447
        53.879          41.980
  21250833.991    21250833.2634   21250837.7464  111673969.695 8  87018696.27246
      2910.481        2267.907
  22058426.385    22058425.4414   22058429.8934  115917838.367 7  90325592.28545
      3278.045        2554.321
  21215197.600    21215197.4914   21215200.2604  111486642.949 8  86872726.00346
     -1582.826       -1233.377
  24038746.175    24038745.0654   24038747.6854  126324463.010 5  98434645.63942
     -2557.590       -1992.933
  21403411.238    21403411.1254   21403414.3734  112475740.751 8  87643439.22846
     -1492.682       -1163.128
  20627559.695    20627559.0524   20627562.8614  108398606.331 8  84466475.41947
       301.830         235.195
 08  4 28 14  4  3.0000000  0  8 04 07 08 10 13 23 25 27
  22995493.646    22995493.1594   22995497.9414  120842133.794 7  94162702.52344
     -2619.872       -2041.458
  20371853.070    20371852.8684   20371855.3724  107054862.999 8  83419375.61447
        53.225          41.475
  21250280.252    21250279.5234   21250283.9384  111671059.473 7  87016428.56946
      2909.984        2267.518
  22057802.437    22057801.6854   22057806.0544  115914560.506 7  90323038.10445
      3277.704        2554.059
  21215498.792    21215498.7344   21215501.4914  111488225.931 7  86873959.49746
     -1583.111       -1233.592
  24039232.277    24039231.7434   24039234.1384  126327020.658 6  98436638.60842
     -2557.679       -1992.989
  21403695.367    21403695.2084   21403698.5044  112477233.659 8  87644602.53446
     -1493.114       -1163.470
  20627502.377    20627501.6454   20627505.5034  108398304.771 8  84466240.43847
       301.303         234.781
 08  4 28 14  4  4.0000000  0  8 04 07 08 10 13 23 25 27
  22995992.215    22995991.8004   22995996.5444  120844753.784 7  94164744.07544
     -2620.107       -2041.644
  20371842.935    20371842.8234   20371845.3054  107054810.074 8  83419334.37347
        52.618          41.002
  21249726.502    21249725.7864   21249730.2624  111668149.718 8  87014161.22746
      2909.522        2267.160
  22057178.579    22057178.0364   22057182.3384  115911282.931 7  90320484.15545
      3277.432        2553.833
  21215800.216    21215800.0074   21215802.7004  111489809.169 7  86875193.18746
     -1583.365       -1233.789
  24039719.046    24039718.4694   24039720.9004  126329578.347 5  98438631.61942
     -2557.709       -1993.033
  21403979.562    21403979.3774   21403982.6344  112478726.986 8  87645766.16346
     -1493.537       -1163.790
  20627445.058    20627444.3484   20627448.1954  108398003.719 8  84466005.85147
       300.798         234.389
 08  4 28 14  4  5.0000000  0  8 04 07 08 10 13 23 25 27
  22996490.572    22996490.3884   22996495.2004  120847374.070 7  94166785.85644
     -2620.434       -2041.897
  20371832.807    20371832.8704   20371835.3634  107054757.778 8  83419293.62547
        51.981          40.502
  21249172.940    21249172.1414   21249176.6354  111665240.462 7  87011894.27446
      2909.006        2266.760
  22056555.044    22056554.3574   22056558.7574  115908005.674 7  90317930.44845
      3277.098        2553.586
  21216101.602    21216101.3074   21216104.1304  111491392.683 8  86876427.09246
     -1583.651       -1234.011
  24040205.936    24040205.3294   24040207.9874  126332136.165 5  98440624.71742
     -2557.882       -1993.141
  21404263.748    21404263.6064   21404266.8784  112480220.743 8  87646930.13246
     -1493.972       -1164.139
  20627387.853    20627387.1794   20627391.0214  108397703.195 8  84465771.67647
       300.260         233.968
 08  4 28 14  4  6.0000000  0  8 04 07 08 10 13 23 25 27
  22996989.280    22996989.0994   22996993.8834  120849994.588 7  94168827.81744
     -2620.634       -2042.049
  20371822.987    20371823.0174   20371825.5094  107054706.093 8  83419253.35147
        51.379          40.037
  21248619.362    21248618.6084   21248623.1224  111662331.655 8  87009627.67146
      2908.582        2266.427
  22055931.618    22055930.7034   22055935.2094  115904728.705 7  90315376.96345
      3276.823        2553.374
  21216403.006    21216402.6654   21216405.5664  111492976.434 8  86877661.18446
     -1583.869       -1234.186
  24040692.829    24040692.2004   24040694.3884  126334694.014 6  98442617.83842
     -2557.865       -1993.132
  21404548.324    21404547.8924   21404551.2254  112481714.910 8  87648094.41746
     -1494.371       -1164.443
  20627330.689    20627330.0964   20627333.8834  108397403.171 8  84465537.89047
       299.775         233.591
 08  4 28 14  4  7.0000000  0  8 04 07 08 10 13 23 25 27
  22997488.225    22997487.7874   22997492.5404  120852615.365 7  94170869.97944
     -2620.908       -2042.264
  20371813.259    20371813.2964   20371815.7954  107054655.012 8  83419213.54747
        50.780          39.568
  21248065.882    21248065.1784   21248069.7184  111659423.321 8  87007361.43646
      2908.097        2266.051
  22055307.997    22055307.2394   22055311.6304  115901452.003 7  90312823.68745
      3276.570        2553.171
  21216704.414    21216704.1594   21216706.9894  111494560.428 7  86878895.46646
     -1584.117       -1234.377
  24041179.855    24041178.9074   24041181.3424  126337251.940 6  98444611.02342
     -2557.965       -1993.217
  21404832.592    21404832.2914   21404835.6674  112483209.472 8  87649259.01446
     -1494.759       -1164.752
  20627273.685    20627273.0684   20627276.9074  108397103.646 8  84465304.49747
       299.275         233.198
 08  4 28 14  4  8.0000000  0  8 04 07 08 10 13 23 25 27
  22997986.756    22997986.5684   22997991.3704  120855236.406 7  94172912.34244
     -2621.171       -2042.463
  20371803.670    20371803.6934   20371806.2394  107054604.558 8  83419174.23447
        50.140          39.069
  21247512.470    21247511.8254   21247516.3474  111656515.450 8  87005095.56546
      2907.640        2265.688
  22054684.634    22054683.8514   22054688.2074  115898175.610 7  90310270.65745
      3276.237        2552.907
  21217005.951    21217005.6544   21217008.4224  111496144.700 8  86880129.96146
     -1584.409       -1234.601
  24041666.365    24041665.5484   24041668.4074  126339809.953 6  98446604.26642
     -2558.056       -1993.272
  21405116.990    21405116.7774   21405120.1234  112484704.458 8  87650423.94146
     -1495.199       -1165.092
  20627216.839    20627216.1684   20627220.0194  108396804.642 8  84465071.50647
       298.743         232.789
 08  4 28 14  4  9.0000000  0  8 04 07 08 10 13 23 25 27
  22998485.324    22998485.3024   22998490.0314  120857857.669 7  94174954.88044
     -2621.374       -2042.625
  20371794.241    20371794.1954   20371796.7344  107054554.704 8  83419135.38647
        49.554          38.614
  21246959.216    21246958.6084   21246963.1214  111653608.031 8  87002830.04746
      2907.194        2265.342
  22054061.097    22054060.3644   22054064.8164  115894899.517 7  90307717.85845
      3275.945        2552.684
  21217307.398    21217307.1574   21217310.0004  111497729.198 8  86881364.63346
     -1584.612       -1234.761
  24042153.035    24042152.1974   24042154.6704  126342367.992 5  98448597.54742
     -2558.052       -1993.300
  21405401.630    21405401.3544   21405404.7204  112486199.854 8  87651589.18346
     -1495.601       -1165.400
  20627160.184    20627159.3804   20627163.2354  108396506.139 8  84464838.90547
       298.251         232.406
 08  4 28 14  4 10.0000000  0  8 04 07 08 10 13 23 25 27
  22998984.280    22998984.0574   22998988.8574  120860479.232 7  94176997.65844
     -2621.714       -2042.898
  20371784.867    20371784.8254   20371787.3994  107054505.524 8  83419097.06347
        48.844          38.062
  21246406.036    21246405.4364   21246409.9194  111650701.149 8  87000564.94346
      2906.613        2264.896
  22053437.815    22053436.9934   22053441.2404  115891623.760 7  90305165.32145
      3275.588        2552.406
  21217608.973    21217608.7644   21217611.5604  111499314.000 7  86882599.54246
     -1584.954       -1235.027
  24042639.629    24042639.2714   24042641.5534  126344926.165 5  98450590.93642
     -2558.241       -1993.443
  21405686.367    21405685.9864   21405689.3814  112487695.719 8  87652754.78946
     -1496.099       -1165.789
  20627103.432    20627102.6944   20627106.4884  108396208.190 8  84464606.73747
       297.673         231.952
 08  4 28 14  4 11.0000000  0  8 04 07 08 10 13 23 25 27
  22999483.592    22999483.0594   22999487.7504  120863101.115 7  94179040.68144
     -2622.042       -2043.146
  20371775.669    20371775.5804   20371778.1704  107054457.031 8  83419059.27347
        48.149          37.522
  21245852.992    21245852.3794   21245856.9134  111647794.797 8  86998300.25446
      2906.087        2264.481
  22052814.678    22052813.6714   22052818.0424  115888348.369 7  90302613.06845
      3275.207        2552.110
  21217910.490    21217910.3674   21217913.1714  111500899.124 8  86883834.70546
     -1585.284       -1235.289
  24043125.927    24043125.9114   24043128.6654  126347484.496 6  98452584.42342
     -2558.409       -1993.536
  21405971.266    21405970.7484   21405974.1274  112489192.061 8  87653920.76846
     -1496.581       -1166.165
  20627046.660    20627046.1224   20627049.9024  108395910.826 8  84464375.02547
       297.071         231.484
 08  4 28 14  4 12.0000000  0  8 04 07 08 10 13 23 25 27
  22999982.709    22999982.0184   22999986.5474  120865723.198 6  94181083.86144
     -2622.183       -2043.258
  20371766.483    20371766.4744   20371769.0534  107054409.111 8  83419021.93547
        47.633          37.114
  21245300.029    21245299.3944   21245303.9094  111644888.884 8  86996035.90746
      2905.693        2264.177
  22052191.299    22052190.3674   22052194.8364  115885073.271 7  90300061.03545
      3274.952        2551.923
  21218212.272    21218212.0854   21218214.8944  111502484.452 8  86885070.02846
     -1585.431       -1235.403
  24043613.170    24043612.7944   24043615.9504  126350042.816 6  98454577.92442
     -2558.316       -1993.508
  21406256.154    21406255.6174   21406258.8834  112490688.770 8  87655087.03146
     -1496.892       -1166.405
  20626990.261    20626989.6044   20626993.3784  108395613.933 8  84464143.67847
       296.658         231.164
 08  4 28 14  4 13.0000000  0  8 04 07 08 10 13 23 25 27
  23000481.615    23000481.0284   23000485.5764  120868345.570 6  94183127.26244
     -2622.517       -2043.510
  20371757.511    20371757.4834   20371760.0364  107054361.808 8  83418985.07747
        46.994          36.617
  21244747.152    21244746.5414   21244751.0264  111641983.461 8  86993771.93546
      2905.178        2263.785
  22051568.173    22051567.0434   22051571.6294  115881798.457 7  90297509.23745
      3274.672        2551.681
  21218514.103    21218513.7654   21218516.5904  111504070.053 8  86886305.56046
     -1585.738       -1235.637
  24044100.387    24044099.6384   24044102.5894  126352601.249 5  98456571.50742
     -2558.488       -1993.623
  21406541.063    21406540.4864   21406543.8484  112492185.905 8  87656253.63246
     -1497.349       -1166.770
  20626933.830    20626933.1984   20626936.9824  108395317.559 8  84463912.73747
       296.114         230.738
 08  4 28 14  4 14.0000000  0  8 04 07 08 10 13 23 25 27
  23000980.454    23000980.0414   23000984.6184  120870968.163 6  94185170.84844
     -2622.704       -2043.679
  20371748.828    20371748.6264   20371751.2214  107054315.120 8  83418948.70047
        46.381          36.136
  21244194.554    21244193.7344   21244198.2174  111639078.487 8  86991508.32346
      2904.750        2263.431
  22050944.947    22050943.9604   22050948.5794  115878523.951 7  90294957.67545
      3274.352        2551.444
  21218815.918    21218815.6164   21218818.3714  111505655.907 8  86887541.29046
     -1585.980       -1235.829
  24044587.325    24044586.1414   24044589.2374  126355159.716 5  98458565.12742
     -2558.485       -1993.639
  21406825.968    21406825.4034   21406828.8054  112493683.451 8  87657420.55146
     -1497.750       -1167.078
  20626877.674    20626876.8984   20626880.7004  108395021.686 8  84463682.18847
       295.623         230.353
 08  4 28 14  4 15.0000000  0  8 04 07 08 10 13 23 25 27
  23001479.595    23001479.2094   23001483.8104  120873591.014 7  94187214.63044
     -2622.980       -2043.881
  20371739.954    20371739.8184   20371742.3864  107054269.059 8  83418912.80347
        45.748          35.657
  21243641.716    21243641.0474   21243645.4774  111636173.995 8  86989245.08246
      2904.251        2263.056
  22050321.986    22050320.9454   22050325.5804  115875249.731 7  90292406.33745
      3274.077        2551.225
  21219117.667    21219117.4074   21219120.1674  111507242.015 8  86888777.21446
     -1586.235       -1236.021
  24045073.948    24045073.3404   24045075.8954  126357718.301 5  98460558.80742
     -2558.643       -1993.710
  21407110.938    21407110.4794   21407113.7864  112495181.417 8  87658587.79746
     -1498.177       -1167.410
  20626821.477    20626820.6954   20626824.5014  108394726.326 8  84463452.04047
       295.105         229.948
 08  4 28 14  4 16.0000000  0  8 04 07 08 10 13 23 25 27
  23001978.891    23001978.3074   23001982.9094  120876214.099 6  94189258.59244
     -2623.202       -2044.051
  20371731.265    20371731.1554   20371733.7324  107054223.591 8  83418877.37247
        45.171          35.197
  21243089.006    21243088.4874   21243092.8714  111633269.956 8  86986982.19646
      2903.812        2262.708
  22049698.798    22049697.9344   22049702.5084  115871975.800 7  90289855.22445
      3273.786        2551.002
  21219419.522    21219419.2954   21219421.9814  111508828.365 8  86890013.33046
     -1586.470       -1236.212
  24045560.809    24045560.3854   24045563.1374  126360276.872 6  98462552.50642
     -2558.564       -1993.708
  21407395.993    21407395.5634   21407398.9404  112496679.775 8  87659755.34646
     -1498.553       -1167.702
  20626765.315    20626764.6044   20626768.4064  108394431.466 8  84463222.27847
       294.610         229.569
 08  4 28 14  4 17.0000000  0  8 04 07 08 10 13 23 25 27
  23002478.104    23002477.5234   23002482.0624  120878837.403 7  94191302.72444
     -2623.413       -2044.218
  20371722.710    20371722.5954   20371725.1724  107054178.696 8  83418842.38847
        44.609          34.762
  21242536.485    21242535.9384   21242540.3294  111630366.349 8  86984719.64646
      2903.391        2262.382
  22049075.875    22049074.9464   22049079.4364  115868702.127 7  90287304.31245
      3273.544        2550.810
  21219721.399    21219721.2594   21219723.8454  111510414.933 8  86891249.61846
     -1586.677       -1236.373
  24046047.610    24046047.3464   24046049.6304  126362835.506 6  98464546.25142
     -2558.666       -1993.769
  21407681.118    21407680.7394   21407684.1304  112498178.512 8  87660923.19346
     -1498.927       -1167.996
  20626709.277    20626708.5834   20626712.3854  108394137.073 8  84462992.87947
       294.159         229.217
 08  4 28 14  4 18.0000000  0  8 04 07 08 10 13 23 25 27
  23002977.093    23002976.6614   23002981.3044  120881460.973 7  94193347.05744
     -2623.704       -2044.432
  20371714.193    20371714.1754   20371716.7494  107054134.432 8  83418807.89847
        43.948          34.243
  21241983.858    21241983.5104   21241987.8684  111627463.229 8  86982457.47746
      2902.877        2261.979
  22048453.077    22048452.0274   22048456.6664  115865428.779 7  90284753.65245
      3273.185        2550.536
  21220023.494    21220023.2644   21220025.8524  111512001.765 8  86892486.10846
     -1586.964       -1236.592
  24046534.578    24046534.4414   24046536.5854  126365394.203 5  98466540.04942
     -2558.728       -1993.825
  21407966.441    21407966.0234   21407969.4184  112499677.682 8  87662091.37746
     -1499.387       -1168.351
  20626653.416    20626652.6574   20626656.4674  108393843.203 8  84462763.89147
       293.608         228.783
 08  4 28 14  4 19.0000000  0  8 04 07 08 10 13 23 25 27
  23003476.699    23003476.1454   23003480.5934  120884084.853 7  94195391.64044
     -2624.033       -2044.709
  20371705.893    20371705.8604   20371708.4244  107054090.820 8  83418773.91647
        43.286          33.728
  21241431.566    21241431.1534   21241435.5184  111624560.615 8  86980195.70146
      2902.361        2261.579
  22047830.312    22047829.2764   22047833.9104  115862155.768 7  90282203.24845
      3272.844        2550.274
  21220325.324    21220325.2604   21220327.8764  111513588.885 8  86893722.82446
     -1587.263       -1236.828
  24047021.459    24047021.4744   24047023.8134  126367953.034 6  98468533.92942
     -2558.898       -1993.920
  21408251.933    21408251.3964   21408254.8274  112501177.291 8  87663259.90146
     -1499.827       -1168.695
  20626597.627    20626596.8234   20626600.6244  108393549.886 8  84462535.33147
       293.039         228.346
 08  4 28 14  4 20.0000000  0  8 04 07 08 10 13 23 25 27
  23003975.849    23003975.4754   23003980.1034  120886708.959 7  94197436.39544
     -2624.221       -2044.840
  20371697.777    20371697.6644   20371700.2224  107054047.814 8  83418740.40447
        42.703          33.277
  21240879.194    21240878.8444   21240883.1954  111621658.477 8  86977934.29346
      2901.899        2261.223
  22047207.564    22047206.5014   22047211.0734  115858883.029 7  90279653.05945
      3272.602        2550.083
  21220627.236    21220627.2994   21220629.9084  111515176.238 8  86894959.72046
     -1587.470       -1236.986
  24047508.475    24047508.3124   24047510.7794  126370511.872 5  98470527.82642
     -2558.843       -1993.907
  21408537.459    21408536.8384   21408540.3034  112502677.294 8  87664428.73546
     -1500.200       -1168.988
  20626541.877    20626541.1134   20626544.9024  108393257.064 8  84462307.15847
       292.575         227.980
 08  4 28 14  4 21.0000000  0  8 04 07 08 10 13 23 25 27
  23004475.132    23004474.8374   23004479.6444  120889333.279 7  94199481.32444
     -2624.426       -2045.016
  20371689.670    20371689.6224   20371692.1824  107054005.414 8  83418707.36647
        42.096          32.800
  21240327.025    21240326.6954   21240331.0084  111618756.788 8  86975673.23846
      2901.465        2260.879
  22046584.864    22046583.7774   22046588.4044  115855610.582 7  90277103.10545
      3272.302        2549.835
  21220929.387    21220929.4414   21220932.0734  111516763.852 7  86896196.82346
     -1587.745       -1237.207
  24047994.840    24047995.1344   24047997.9064  126373070.828 5  98472521.81442
     -2559.015       -1994.033
  21408823.120    21408822.3964   21408825.8114  112504177.714 8  87665597.89546
     -1500.630       -1169.323
  20626486.255    20626485.4964   20626489.3014  108392964.735 8  84462079.36947
       292.082         227.598
 08  4 28 14  4 22.0000000  0  8 04 07 08 10 13 23 25 27
  23004974.616    23004974.1804   23004979.1644  120891957.909 7  94201526.47844
     -2624.786       -2045.267
  20371681.698    20371681.6664   20371684.2244  107053963.641 8  83418674.81447
        41.460          32.310
  21239775.042    21239774.5954   21239778.9454  111615855.583 7  86973412.55846
      2900.964        2260.492
  22045962.307    22045961.1274   22045965.7354  115852338.456 7  90274553.39645
      3271.965        2549.587
  21221231.738    21221231.6314   21221234.2634  111518351.714 8  86897434.12046
     -1587.985       -1237.394
  24048482.180    24048482.1094   24048484.5334  126375629.852 5  98474515.86242
     -2559.057       -1994.077
  21409108.682    21409108.0144   21409111.4094  112505678.550 8  87666767.37846
     -1501.043       -1169.644
  20626430.697    20626429.9794   20626433.7944  108392672.933 8  84461851.99447
       291.539         227.167
 08  4 28 14  4 23.0000000  0  8 04 07 08 10 13 23 25 27
  23005474.209    23005473.8154   23005478.6254  120894582.771 6  94203571.82544
     -2624.978       -2045.443
  20371673.906    20371673.8244   20371676.3874  107053922.494 8  83418642.75347
        40.833          31.815
  21239223.176    21239222.6434   21239226.9374  111612954.865 8  86971152.25746
      2900.475        2260.112
  22045339.693    22045338.4504   22045343.0824  115849066.641 7  90272003.93545
      3271.659        2549.337
  21221533.944    21221533.8744   21221536.4614  111519939.848 8  86898671.63046
     -1588.270       -1237.616
  24048968.911    24048969.1884   24048971.7024  126378188.945 5  98476509.94642
     -2559.128       -1994.103
  21409394.258    21409393.7024   21409397.0684  112507179.820 8  87667937.19946
     -1501.486       -1169.991
  20626375.225    20626374.5434   20626378.3484  108392381.646 8  84461625.01847
       291.029         226.777
 08  4 28 14  4 24.0000000  0  8 04 07 08 10 13 23 25 27
  23005973.710    23005973.3764   23005978.1754  120897207.890 7  94205617.37244
     -2625.248       -2045.648
  20371666.244    20371666.1194   20371668.7024  107053881.985 8  83418611.18647
        40.192          31.319
  21238671.219    21238670.7394   21238675.0274  111610054.628 8  86968892.33146
      2899.995        2259.739
  22044717.132    22044715.9004   22044720.5634  115845795.116 7  90269454.69145
      3271.380        2549.135
  21221836.300    21221836.0834   21221838.7154  111521528.254 8  86899909.34546
     -1588.542       -1237.817
  24049455.622    24049455.9074   24049459.0574  126380748.120 5  98478504.09942
     -2559.216       -1994.187
  21409680.008    21409679.4514   21409682.8394  112508681.516 8  87669107.35146
     -1501.911       -1170.316
  20626319.914    20626319.2344   20626323.0214  108392090.885 8  84461398.44947
       290.498         226.365
 08  4 28 14  4 25.0000000  0  8 04 07 08 10 13 23 25 27
  23006473.207    23006472.9864   23006477.7554  120899833.218 7  94207663.08144
     -2625.432       -2045.789
  20371658.687    20371658.5154   20371661.0994  107053842.038 8  83418580.05947
        39.665          30.908
  21238119.396    21238118.9384   21238123.3064  111607154.813 8  86966632.73846
      2899.604        2259.426
  22044094.466    22044093.3964   22044098.0324  115842523.862 7  90266905.66145
      3271.120        2548.923
  21222138.708    21222138.3344   21222140.9744  111523116.854 8  86901147.21646
     -1588.697       -1237.949
  24049943.441    24049943.0174   24049946.5514  126383307.263 5  98480498.22942
     -2559.128       -1994.119
  21409965.843    21409965.2394   21409968.6914  112510183.579 8  87670277.78846
     -1502.245       -1170.581
  20626264.697    20626263.9884   20626267.7924  108391800.589 8  84461172.24847
       290.064         226.017
 08  4 28 14  4 26.0000000  0  8 04 07 08 10 13 23 25 27
  23006972.619    23006972.4594   23006977.3684  120902458.819 7  94209708.99844
     -2625.737       -2046.022
  20371651.102    20371651.0084   20371653.6234  107053802.709 8  83418549.41347
        39.021          30.405
  21237567.719    21237567.2044   21237571.6144  111604255.480 8  86964373.51946
      2899.092        2259.032
  22043471.931    22043471.0304   22043475.5534  115839252.907 7  90264356.86645
      3270.804        2548.676
  21222441.097    21222440.6314   21222443.3324  111524705.715 8  86902385.28846
     -1588.990       -1238.171
  24050430.595    24050429.6874   24050433.5754  126385866.521 5  98482492.47242
     -2559.314       -1994.299
  21410251.649    21410251.1484   21410254.5884  112511686.050 8  87671448.54646
     -1502.676       -1170.917
  20626209.563    20626208.8134   20626212.6234  108391510.797 8  84460946.43547
       289.540         225.619
 08  4 28 14  4 27.0000000  0  8 04 07 08 10 13 23 25 27
  23007472.586    23007472.0234   23007476.9254  120905084.598 6  94211755.05844
     -2625.868       -2046.131
  20371643.835    20371643.6394   20371646.2264  107053763.933 8  83418519.19847
        38.499          29.999
  21237015.883    21237015.5614   21237019.9634  111601356.550 7  86962114.61346
      2898.729        2258.749
  22042849.541    22042848.7314   22042853.1134  115835982.220 7  90261808.27745
      3270.553        2548.486
  21222743.368    21222743.1034   21222745.6884  111526294.759 8  86903623.50546
     -1589.137       -1238.291
  24050918.078    24050916.5904   24050920.2584  126388425.782 5  98484486.68342
     -2559.263       -1994.195
  21410537.599    21410537.1384   21410540.5164  112513188.878 8  87672619.57646
     -1503.005       -1171.167
  20626154.456    20626153.7264   20626157.5474  108391221.454 8  84460720.97347
       289.118         225.286
 08  4 28 14  4 28.0000000  0  8 04 07 08 10 13 23 25 27
  23007972.169    23007971.7464   23007976.6054  120907710.641 6  94213801.32944
     -2626.176       -2046.377
  20371636.440    20371636.3684   20371638.9804  107053725.781 8  83418489.47147
        37.840          29.483
  21236464.273    21236463.9814   21236468.3604  111598458.108 7  86959856.08846
      2898.198        2258.335
  22042227.452    22042226.3924   22042230.8024  115832711.802 7  90259259.90345
      3270.283        2548.267
  21223045.816    21223045.5544   21223048.1464  111527884.084 7  86904861.93646
     -1589.465       -1238.538
  24051405.065    24051403.6514   24051407.1424  126390985.125 5  98486480.97742
     -2559.384       -1994.336
  21410823.669    21410823.2064   21410826.6164  112514692.119 8  87673790.93446
     -1503.448       -1171.521
  20626099.429    20626098.7614   20626102.5694  108390932.629 8  84460495.91647
       288.566         224.854
 08  4 28 14  4 29.0000000  0  8 04 07 08 10 13 23 25 27
  23008472.203    23008471.6264   23008476.4454  120910336.923 6  94215847.77844
     -2626.400       -2046.537
  20371629.189    20371629.2204   20371631.8564  107053688.259 8  83418460.23347
        37.207          28.993
  21235912.871    21235912.5174   21235916.9024  111595560.142 8  86957597.93446
      2897.728        2257.968
  22041605.165    22041604.1224   22041608.5184  115829441.702 7  90256711.77245
      3269.942        2548.008
  21223348.307    21223347.9874   21223350.6524  111529473.661 8  86906100.56646
     -1589.703       -1238.728
  24051892.243    24051890.4214   24051894.2484  126393544.551 5  98488475.32842
     -2559.468       -1994.379
  21411109.726    21411109.3444   21411112.7524  112516195.792 8  87674962.62746
     -1503.889       -1171.861
  20626044.596    20626043.9234   20626047.7134  108390644.326 8  84460271.26547
       288.042         224.449
 08  4 28 14  4 30.0000000  0  8 04 07 08 10 13 23 25 27
  23008971.993    23008971.3414   23008976.2294  120912963.497 6  94217894.45544
     -2626.721       -2046.791
  20371622.361    20371622.1804   20371624.8464  107053651.359 8  83418431.47747
        36.589          28.515
  21235361.432    21235361.1654   21235365.4894  111592662.664 8  86955340.16146
      2897.233        2257.583
  22040983.015    22040981.9224   22040986.3914  115826171.920 7  90254163.88645
      3269.622        2547.764
  21223650.942    21223650.5494   21223653.1934  111531063.499 8  86907339.39846
     -1589.968       -1238.934
  24052378.903    24052377.7114   24052381.5254  126396104.036 6  98490469.73442
     -2559.514       -1994.433
  21411395.969    21411395.5984   21411398.9754  112517699.882 8  87676134.64446
     -1504.299       -1172.178
  20625989.826    20625989.1824   20625992.9604  108390356.541 8  84460047.01847
       287.525         224.044
 08  4 28 14  4 31.0000000  0  8 04 07 08 10 13 23 25 27
  23009471.536    23009471.2104   23009476.1854  120915590.305 7  94219941.32044
     -2626.924       -2046.959
  20371615.328    20371615.2794   20371617.9564  107053615.066 8  83418403.19947
        35.990          28.040
  21234810.227    21234809.8344   21234814.2024  111589765.644 8  86953082.73946
      2896.792        2257.245
  22040360.840    22040359.7944   22040364.1994  115822902.443 7  90251616.24245
      3269.325        2547.523
  21223953.468    21223953.0964   21223955.8324  111532653.591 7  86908578.42846
     -1590.219       -1239.129
  24052865.804    24052864.7834   24052868.5334  126398663.577 6  98492464.18542
     -2559.569       -1994.474
  21411682.284    21411681.8694   21411685.2214  112519204.392 8  87677306.99046
     -1504.719       -1172.511
  20625935.139    20625934.4984   20625938.2964  108390069.261 8  84459823.16347
       287.028         223.659
 08  4 28 14  4 32.0000000  0  8 04 07 08 10 13 23 25 27
  23009971.597    23009971.3104   23009975.9744  120918217.404 7  94221988.40644
     -2627.245       -2047.197
  20371608.570    20371608.5024   20371611.1624  107053579.429 8  83418375.42747
        35.309          27.518
  21234259.095    21234258.6324   21234263.0044  111586869.148 8  86950825.72946
      2896.233        2256.804
  22039738.822    22039737.6614   22039742.1454  115819633.281 7  90249068.84745
      3269.004        2547.271
  21224255.882    21224255.7414   21224258.4804  111534243.953 8  86909817.67246
     -1590.497       -1239.351
  24053352.700    24053352.1274   24053355.7224  126401223.226 5  98494458.71042
     -2559.703       -1994.562
  21411968.658    21411968.2484   21411971.6264  112520709.333 8  87678479.67046
     -1505.156       -1172.847
  20625880.777    20625879.9314   20625883.7274  108389782.534 8  84459599.73747
       286.450         223.212
 08  4 28 14  4 33.0000000  0  8 04 07 08 10 13 23 25 27
  23010471.809    23010471.3294   23010476.0234  120920844.731 6  94224035.67444
     -2627.441       -2047.358
  20371601.962    20371601.8434   20371604.4714  107053544.406 8  83418348.13847
        34.716          27.047
  21233708.031    21233707.5604   21233711.9574  111583973.113 8  86948569.07846
      2895.806        2256.473
  22039116.716    22039115.6334   22039120.2024  115816364.426 7  90246521.69245
      3268.702        2547.034
  21224558.500    21224558.3954   21224561.1634  111535834.594 8  86911057.13646
     -1590.780       -1239.574
  24053840.217    24053839.2774   24053842.6484  126403783.004 5  98496453.33442
     -2559.843       -1994.673
  21412255.066    21412254.7774   21412258.0994  112522214.709 8  87679652.69046
     -1505.593       -1173.191
  20625826.249    20625825.4494   20625829.2674  108389496.313 8  84459376.70847
       285.968         222.830
 08  4 28 14  4 34.0000000  0  8 04 07 08 10 13 23 25 27
  23010971.931    23010971.3524   23010976.0874  120923472.345 6  94226083.16544
     -2627.757       -2047.604
  20371595.433    20371595.2934   20371597.9174  107053510.013 8  83418321.33847
        34.078          26.557
  21233157.027    21233156.5814   21233160.9854  111581077.571 7  86946312.81346
      2895.295        2256.071
  22038494.726    22038493.5604   22038498.2124  115813095.885 7  90243974.77545
      3268.385        2546.799
  21224861.327    21224861.0934   21224863.8914  111537425.483 8  86912296.79146
     -1591.013       -1239.751
  24054327.984    24054326.4524   24054329.3554  126406342.800 5  98498447.97342
     -2559.804       -1994.647
  21412541.708    21412541.3094   21412544.6404  112523720.492 8  87680826.02746
     -1505.986       -1173.496
  20625771.839    20625771.0854   20625774.8614  108389210.615 8  84459154.08847
       285.436         222.415
 08  4 28 14  4 35.0000000  0  8 04 07 08 10 13 23 25 27
  23011471.995    23011471.5974   23011476.1314  120926100.279 6  94228130.90344
     -2628.094       -2047.862
  20371589.075    20371588.8924   20371591.5084  107053476.301 8  83418295.06847
        33.371          26.004
  21232606.004    21232605.6424   21232610.0414  111578182.557 8  86944056.95846
      2894.750        2255.650
  22037872.774    22037871.6484   22037876.2374  115809827.709 7  90241428.14045
      3267.993        2546.493
  21225164.181    21225163.9004   21225166.6624  111539016.695 8  86913536.69346
     -1591.374       -1240.026
  24054814.742    24054813.1684   24054816.3564  126408902.706 5  98500442.71142
     -2559.961       -1994.788
  21412828.456    21412827.9224   21412831.3004  112525226.763 8  87681999.74446
     -1506.515       -1173.906
  20625717.583    20625716.8544   20625720.5874  108388925.496 8  84458931.91747
       284.830         221.947
 08  4 28 14  4 36.0000000  0  8 04 07 08 10 13 23 25 27
  23011972.181    23011971.5914   23011976.2584  120928728.307 6  94230178.71244
     -2628.074       -2047.844
  20371582.736    20371582.5664   20371585.2084  107053443.081 8  83418269.18247
        32.974          25.695
  21232055.332    21232054.8594   21232059.2294  111575287.890 8  86941801.37546
      2894.494        2255.448
  22037250.994    22037249.7604   22037254.3434  115806559.681 7  90238881.62645
      3267.955        2546.453
  21225467.070    21225466.7744   21225469.4854  111540608.037 8  86914776.69846
     -1591.407       -1240.056
  24055301.555    24055300.2084   24055303.1704  126411462.593 5  98502437.42742
     -2559.877       -1994.704
  21413115.032    21413114.5874   21413117.9764  112526733.323 8  87683173.68746
     -1506.705       -1174.056
  20625663.394    20625662.6644   20625666.4594  108388640.761 8  84458710.04347
       284.542         221.725
 08  4 28 14  4 37.0000000  0  8 04 07 08 10 13 23 25 27
  23012472.271    23012471.8504   23012476.3604  120931356.596 6  94232226.72344
     -2628.420       -2048.112
  20371576.573    20371576.3834   20371578.9634  107053410.443 8  83418243.75047
        32.347          25.204
  21231504.583    21231504.0604   21231508.4784  111572393.678 8  86939546.14146
      2893.984        2255.058
  22036628.962    22036628.0764   22036632.5044  115803291.942 7  90236335.34245
      3267.593        2546.169
  21225770.014    21225769.6034   21225772.3164  111542199.598 8  86916016.87446
     -1591.670       -1240.261
  24055788.227    24055787.3834   24055790.6804  126414022.502 5  98504432.15742
     -2559.921       -1994.736
  21413401.676    21413401.3444   21413404.7364  112528240.264 8  87684347.92446
     -1507.132       -1174.385
  20625609.338    20625608.5604   20625612.3824  108388356.506 8  84458488.54447
       284.016         221.313
 08  4 28 14  4 38.0000000  0  8 04 07 08 10 13 23 25 27
  23012972.761    23012972.0244   23012976.4954  120933985.099 6  94234274.91144
     -2628.611       -2048.277
  20371570.614    20371570.2944   20371572.8484  107053378.430 8  83418218.80747
        31.701          24.699
  21230953.882    21230953.3914   21230957.8474  111569499.931 8  86937291.27746
      2893.514        2254.680
  22036007.085    22036006.2104   22036010.7504  115800024.518 7  90233789.29745
      3267.268        2545.926
  21226072.797    21226072.5454   21226075.2474  111543791.421 8  86917257.25846
     -1591.954       -1240.488
  24056275.680    24056274.3354   24056277.7744  126416582.482 5  98506426.95342
     -2560.014       -1994.830
  21413688.540    21413688.2014   21413691.5744  112529747.626 8  87685522.49546
     -1507.573       -1174.737
  20625555.180    20625554.6064   20625558.3634  108388072.762 8  84458267.44747
       283.487         220.895
 08  4 28 14  4 39.0000000  0  8 04 07 08 10 13 23 25 27
  23013472.595    23013472.2224   23013476.8134  120936613.902 7  94236323.33044
     -2628.952       -2048.534
  20371564.668    20371564.3124   20371566.8954  107053347.082 8  83418194.38047
        31.015          24.168
  21230403.496    21230402.8084   21230407.2364  111566606.703 8  86935036.81146
      2892.969        2254.267
  22035385.401    22035384.4624   22035388.9544  115796757.426 7  90231243.50845
      3266.926        2545.660
  21226375.792    21226375.4994   21226378.1954  111545383.548 8  86918497.87846
     -1592.278       -1240.738
  24056762.763    24056762.0754   24056765.1284  126419142.581 5  98508421.82942
     -2560.160       -1994.916
  21413975.324    21413975.1144   21413978.5214  112531255.444 8  87686697.41846
     -1508.045       -1175.099
  20625501.305    20625500.7354   20625504.4744  108387789.584 8  84458046.78647
       282.895         220.442
 08  4 28 14  4 40.0000000  0  8 04 07 08 10 13 23 25 27
  23013972.944    23013972.5314   23013977.1764  120939243.004 6  94238371.97644
     -2629.252       -2048.760
  20371558.868    20371558.4504   20371561.0364  107053316.362 8  83418170.44147
        30.406          23.696
  21229852.971    21229852.3244   21229856.7334  111563713.970 8  86932782.73546
      2892.485        2253.880
  22034763.667    22034762.7514   22034767.2924  115793490.665 7  90228697.98445
      3266.595        2545.392
  21226678.752    21226678.5554   21226681.2164  111546975.927 8  86919738.69346
     -1592.505       -1240.913
  24057249.866    24057249.5334   24057252.3574  126421702.794 5  98510416.79842
     -2560.269       -1995.016
  21414262.242    21414262.1244   21414265.5084  112532763.682 8  87687872.66946
     -1508.449       -1175.415
  20625447.526    20625446.9204   20625450.6674  108387506.923 8  84457826.53147
       282.403         220.052
 08  4 28 14  4 41.0000000  0  8 04 07 08 10 13 23 25 27
  23014473.056    23014472.9674   23014477.4574  120941872.261 7  94240420.74944
     -2629.334       -2048.835
  20371553.055    20371552.6834   20371555.2824  107053286.211 8  83418146.94547
        29.866          23.274
  21229302.539    21229301.9124   21229306.3194  111560821.649 8  86930528.98046
      2892.115        2253.595
  22034141.998    22034141.1184   22034145.7374  115790224.135 7  90226152.63545
      3266.415        2545.261
  21226981.794    21226981.6644   21226984.2724  111548568.525 8  86920979.67846
     -1592.707       -1241.070
  24057737.249    24057736.5734   24057739.8734  126424262.976 5  98512411.74242
     -2560.167       -1994.930
  21414549.405    21414549.1484   21414552.5544  112534272.286 8  87689048.20346
     -1508.786       -1175.676
  20625393.838    20625393.2344   20625396.9494  108387224.728 8  84457606.63847
       281.961         219.712
 08  4 28 14  4 42.0000000  0  8 04 07 08 10 13 23 25 27
  23014973.382    23014973.2884   23014977.8234  120944501.851 6  94242469.77144
     -2629.755       -2049.147
  20371547.479    20371547.0824   20371549.7054  107053256.719 8  83418123.96547
        29.162          22.723
  21228752.199    21228751.6354   21228756.0474  111557929.860 8  86928275.63946
      2891.524        2253.135
  22033520.379    22033519.5304   22033524.1514  115786957.964 7  90223607.56945
      3265.992        2544.926
  21227284.702    21227284.7924   21227287.3634  111550161.433 8  86922220.90346
     -1593.064       -1241.344
  24058224.861    24058224.1534   24058227.0374  126426823.302 5  98514406.77342
     -2560.397       -1995.076
  21414836.552    21414836.3234   21414839.7294  112535781.343 8  87690224.09446
     -1509.285       -1176.070
  20625340.177    20625339.6364   20625343.3804  108386943.080 8  84457387.17547
       281.375         219.249
 08  4 28 14  4 43.0000000  0  8 04 07 08 10 13 23 25 27
  23015473.475    23015473.7224   23015478.2234  120947131.644 6  94244518.96744
     -2629.896       -2049.283
  20371542.055    20371541.5784   20371544.1964  107053227.841 8  83418101.46147
        28.573          22.265
  21228202.077    21228201.4494   21228205.8484  111555038.536 8  86926022.66046
      2891.090        2252.797
  22032899.069    22032898.1224   22032902.6694  115783692.087 7  90221062.73045
      3265.730        2544.725
  21227588.060    21227587.9214   21227590.5744  111551754.569 8  86923462.30246
     -1593.249       -1241.486
  24058712.368    24058711.3154   24058714.0224  126429383.633 5  98516401.84542
     -2560.333       -1995.092
  21415123.951    21415123.6064   21415126.9514  112537290.816 8  87691400.30246
     -1509.680       -1176.366
  20625286.868    20625286.1284   20625289.9044  108386661.951 8  84457168.11247
       280.869         218.862
 08  4 28 14  4 44.0000000  0  8 04 07 08 10 13 23 25 27
  23015974.104    23015974.0904   23015978.7024  120949761.741 6  94246568.39644
     -2630.249       -2049.545
  20371536.606    20371536.2034   20371538.8154  107053199.609 8  83418079.46147
        27.907          21.749
  21227651.897    21227651.3654   21227655.7464  111552147.723 8  86923770.07646
      2890.558        2252.387
  22032277.542    22032276.6734   22032281.2804  115780426.535 7  90218518.14145
      3265.389        2544.463
  21227891.188    21227891.1524   21227893.8584  111553348.017 8  86924703.94646
     -1593.604       -1241.767
  24059199.058    24059198.7664   24059200.8134  126431944.163 5  98518397.06242
     -2560.630       -1995.290
  21415411.335    21415410.9584   21415414.3004  112538800.736 8  87692576.86346
     -1510.145       -1176.738
  20625233.408    20625232.7364   20625236.5274  108386381.348 8  84456949.46347
       280.340         218.443
 08  4 28 14  4 45.0000000  0  8 04 07 08 10 13 23 25 27
  23016474.792    23016474.5694   23016479.2694  120952392.048 7  94248617.98044
     -2630.411       -2049.661
  20371531.134    20371530.9264   20371533.5634  107053171.938 8  83418057.89847
        27.390          21.344
  21227101.790    21227101.3074   21227105.7144  111549257.330 7  86921517.82246
      2890.183        2252.089
  22031656.264    22031655.2284   22031659.8874  115777161.247 7  90215973.76945
      3265.156        2544.264
  21228194.570    21228194.4274   21228197.0844  111554941.640 8  86925945.73446
     -1593.711       -1241.860
  24059686.332    24059686.1674   24059688.1224  126434504.648 5  98520392.25442
     -2560.462       -1995.178
  21415698.745    21415698.3324   21415701.6614  112540311.006 8  87693753.69846
     -1510.444       -1176.972
  20625180.008    20625179.4514   20625183.2534  108386101.207 8  84456731.17347
       279.910         218.109
 08  4 28 14  4 46.0000000  0  8 04 07 08 10 13 23 25 27
  23016975.374    23016975.1404   23016979.8494  120955022.633 6  94250667.78544
     -2630.725       -2049.917
  20371526.297    20371525.7824   20371528.4234  107053144.895 8  83418036.82647
        26.730          20.827
  21226551.843    21226551.3804   21226555.7964  111546367.426 7  86919265.94746
      2889.660        2251.686
  22031034.992    22031033.8854   22031038.5544  115773896.275 7  90213429.63345
      3264.813        2544.017
  21228497.922    21228497.7534   21228500.3434  111556535.536 8  86927187.73146
     -1594.032       -1242.101
  24060173.906    24060173.6854   24060175.5344  126437065.221 5  98522387.51242
     -2560.617       -1995.291
  21415986.149    21415985.8384   21415989.1164  112541821.715 8  87694930.87146
     -1510.929       -1177.341
  20625126.749    20625126.2104   20625130.0454  108385821.597 8  84456513.29447
       279.345         217.674
 08  4 28 14  4 47.0000000  0  8 04 07 08 10 13 23 25 27
  23017475.857    23017475.6354   23017480.5064  120957653.414 6  94252717.74944
     -2630.879       -2050.043
  20371521.023    20371520.7564   20371523.3784  107053118.449 8  83418016.21947
        26.146          20.373
  21226001.882    21226001.5674   21226005.9394  111543477.976 7  86917014.43346
      2889.222        2251.333
  22030413.784    22030412.6694   22030417.2854  115770631.565 7  90210885.70045
      3264.580        2543.832
  21228801.200    21228801.0104   21228803.7644  111558129.671 8  86928429.91546
     -1594.254       -1242.277
  24060660.549    24060660.3904   24060662.8904  126439625.839 5  98524382.79142
     -2560.640       -1995.291
  21416273.840    21416273.3664   21416276.6694  112543332.816 8  87696108.34846
     -1511.297       -1177.630
  20625073.567    20625073.0894   20625076.9234  108385542.479 8  84456295.79947
       278.872         217.303
 08  4 28 14  4 48.0000000  0  8 04 07 08 10 13 23 25 27
  23017976.626    23017976.3234   23017981.1774  120960284.461 6  94254767.90744
     -2631.179       -2050.256
  20371516.292    20371515.8304   20371518.4884  107053092.598 8  83417996.07847
        25.553          19.909
  21225452.212    21225451.7784   21225456.1654  111540588.987 7  86914763.27246
      2888.759        2250.985
  22029792.337    22029791.5284   22029796.1454  115767367.130 7  90208341.98745
      3264.297        2543.603
  21229104.624    21229104.4244   21229107.1744  111559724.032 8  86929672.27246
     -1594.475       -1242.443
  24061147.573    24061147.7364   24061150.1164  126442186.506 5  98526378.11742
     -2560.691       -1995.349
  21416561.503    21416560.9664   21416564.3284  112544844.302 8  87697286.13046
     -1511.677       -1177.935
  20625020.606    20625020.0684   20625023.8964  108385263.847 8  84456078.68347
       278.389         216.926
 08  4 28 14  4 49.0000000  0  8 04 07 08 10 13 23 25 27
  23018477.340    23018476.9284   23018481.9874  120962915.778 6  94256818.28944
     -2631.453       -2050.492
  20371511.314    20371511.0354   20371513.6864  107053067.399 8  83417976.44247
        24.874          19.383
  21224902.695    21224902.0944   21224906.5004  111537700.503 7  86912512.50446
      2888.231        2250.570
  22029171.349    22029170.3764   22029175.0514  115764103.054 7  90205798.55045
      3263.896        2543.299
  21229408.002    21229407.8904   21229410.6474  111561318.688 8  86930914.86246
     -1594.803       -1242.707
  24061635.282    24061634.7844   24061637.5704  126444747.318 5  98528373.54642
     -2560.885       -1995.481
  21416849.034    21416848.6934   21416852.0664  112546356.240 8  87698464.26846
     -1512.164       -1178.315
  20624967.773    20624967.1554   20624970.9614  108384985.759 8  84455861.99147
       277.816         216.480
 08  4 28 14  4 50.0000000  0  8 04 07 08 10 13 23 25 27
  23018978.070    23018977.7874   23018982.7294  120965547.336 7  94258868.85344
     -2631.677       -2050.656
  20371506.732    20371506.3204   20371508.9804  107053042.813 8  83417957.28347
        24.278          18.921
  21224353.060    21224352.5164   21224356.9174  111534812.485 8  86910262.09946
      2887.785        2250.224
  22028550.478    22028549.4394   22028553.9204  115760839.281 7  90203255.35145
      3263.621        2543.080
  21229711.437    21229711.3994   21229714.1584  111562913.600 8  86932157.65246
     -1595.041       -1242.890
  24062122.864    24062122.0104   24062124.9024  126447308.192 5  98530369.02142
     -2560.905       -1995.498
  21417136.949    21417136.4364   21417139.8784  112547868.588 8  87699642.72146
     -1512.553       -1178.611
  20624915.014    20624914.3444   20624918.1004  108384708.179 8  84455645.69547
       277.324         216.099
 08  4 28 14  4 51.0000000  0  8 04 07 08 10 13 23 25 27
  23019478.834    23019478.6474   23019483.4684  120968179.228 7  94260919.67244
     -2632.060       -2050.946
  20371502.297    20371501.7884   20371504.4384  107053018.929 8  83417938.67247
        23.535          18.337
  21223803.718    21223803.0974   21223807.4454  111531925.037 8  86908012.13846
      2887.163        2249.739
  22027929.384    22027928.4374   22027932.9594  115757575.867 7  90200712.43145
      3263.236        2542.781
  21230015.052    21230014.9524   21230017.7254  111564508.843 8  86933400.69646
     -1595.408       -1243.171
  24062609.964    24062609.4704   24062612.2714  126449869.192 5  98532364.60442
     -2561.062       -1995.637
  21417424.812    21417424.3904   21417427.7784  112549381.431 8  87700821.55946
     -1513.091       -1179.031
  20624862.325    20624861.6284   20624865.3874  108384431.196 8  84455429.86347
       276.685         215.599
 08  4 28 14  4 52.0000000  0  8 04 07 08 10 13 23 25 27
  23019979.600    23019979.5814   23019984.4134  120970811.369 7  94262970.68744
     -2632.265       -2051.113
  20371497.877    20371497.3824   20371500.0314  107052995.649 8  83417920.53247
        22.977          17.904
  21223254.372    21223253.7504   21223258.0334  111529038.047 8  86905762.53946
      2886.760        2249.419
  22027308.466    22027307.4524   22027311.9824  115754312.783 7  90198169.76845
      3262.918        2542.534
  21230318.818    21230318.5574   21230321.3124  111566104.347 8  86934643.94346
     -1595.634       -1243.349
  24063097.002    24063096.8684   24063099.6824  126452430.273 5  98534360.24742
     -2561.123       -1995.673
  21417712.753    21417712.3354   21417715.7794  112550894.684 8  87702000.71346
     -1513.458       -1179.312
  20624809.756    20624809.0554   20624812.7874  108384154.713 8  84455214.42247
       276.232         215.246
 08  4 28 14  4 53.0000000  0  8 04 07 08 10 13 23 25 27
  23020480.608    23020480.5234   23020485.1784  120973443.809 6  94265021.93644
     -2632.590       -2051.366
  20371493.742    20371493.0854   20371495.7284  107052973.075 8  83417902.94047
        22.221          17.317
  21222704.977    21222704.4724   21222708.7744  111526151.614 8  86903513.37046
      2886.155        2248.954
  22026687.407    22026686.6304   22026691.0704  115751050.060 7  90195627.38545
      3262.542        2542.244
  21230622.521    21230622.2724   21230625.0304  111567700.184 8  86935887.45346
     -1596.003       -1243.640
  24063585.035    24063584.1714   24063586.7194  126454991.496 5  98536356.01142
     -2561.293       -1995.825
  21418000.917    21418000.3814   21418003.7884  112552408.429 8  87703180.25346
     -1513.991       -1179.734
  20624757.202    20624756.5054   20624760.2524  108383878.827 8  84454999.44647
       275.589         214.743
 08  4 28 14  4 54.0000000  0  8 04 07 08 10 13 23 25 27
  23020981.657    23020981.5384   23020986.2134  120976076.419 6  94267073.32444
     -2632.695       -2051.459
  20371489.291    20371488.8994   20371491.5354  107052951.002 8  83417885.74347
        21.822          17.001
  21222155.722    21222155.2564   21222159.5884  111523265.564 8  86901264.50146
      2885.860        2248.718
  22026066.690    22026065.7674   22026070.2904  115747787.567 7  90193085.18545
      3262.379        2542.107
  21230926.073    21230925.9994   21230928.6704  111569296.164 8  86937131.07546
     -1596.051       -1243.679
  24064072.097    24064071.9974   24064074.2274  126457552.681 5  98538351.74742
     -2561.166       -1995.721
  21418289.049    21418288.5374   21418291.9294  112553922.482 8  87704360.03846
     -1514.207       -1179.907
  20624704.907    20624704.0764   20624707.8324  108383603.347 8  84454784.78747
       275.277         214.500
 08  4 28 14  4 55.0000000  0  8 04 07 08 10 13 23 25 27
  23021482.763    23021482.5354   23021487.2474  120978709.199 6  94269124.83644
     -2632.865       -2051.573
  20371485.205    20371484.7904   20371487.4324  107052929.487 8  83417868.97947
        21.235          16.547
  21221606.605    21221606.1474   21221610.4444  111520379.914 8  86899015.94246
      2885.449        2248.404
  22025445.869    22025444.9764   22025449.4744  115744525.306 7  90190543.16045
      3262.145        2541.938
  21231229.744    21231229.6934   21231232.4114  111570892.327 8  86938374.83746
     -1596.255       -1243.832
  24064559.069    24064559.0284   24064561.6564  126460113.861 5  98540347.44342
     -2561.178       -1995.677
  21418577.172    21418576.7074   21418580.0864  112555436.886 8  87705540.08846
     -1514.580       -1180.183
  20624652.479    20624651.7584   20624655.5144  108383328.319 8  84454570.47847
       274.801         214.135
 08  4 28 14  4 56.0000000  0  8 04 07 08 10 13 23 25 27
  23021984.141    23021983.6714   23021988.2754  120981342.321 6  94271176.61944
     -2633.293       -2051.918
  20371481.123    20371480.8184   20371483.4694  107052908.686 8  83417852.77147
        20.444          15.931
  21221057.713    21221057.1444   21221061.4674  111517494.827 7  86896767.82446
      2884.806        2247.898
  22024825.115    22024824.2144   22024828.5974  115741263.414 7  90188001.43245
      3261.707        2541.580
  21231533.511    21231533.5274   21231536.2304  111572488.850 8  86939618.88246
     -1596.703       -1244.186
  24065046.340    24065046.5434   24065049.2604  126462675.228 6  98542343.30442
     -2561.461       -1995.943
  21418865.493    21418864.9684   21418868.3854  112556951.797 8  87706720.54146
     -1515.164       -1180.655
  20624600.201    20624599.5484   20624603.2834  108383053.894 8  84454356.64047
       274.124         213.602
 08  4 28 14  4 57.0000000  0  8 04 07 08 10 13 23 25 27
  23022485.305    23022484.8204   23022489.1914  120983975.648 6  94273228.56344
     -2633.429       -2052.025
  20371477.267    20371476.9474   20371479.6084  107052888.452 8  83417837.00447
        19.951          15.546
  21220508.782    21220508.1974   21220512.5664  111514610.176 8  86894520.04546
      2884.433        2247.609
  22024204.342    22024203.5874   22024208.0204  115738001.803 7  90185459.92045
      3261.471        2541.403
  21231837.455    21231837.3674   21231840.0624  111574085.576 8  86940863.07846
     -1596.827       -1244.272
  24065533.890    24065533.9534   24065536.6804  126465236.582 5  98544339.17842
     -2561.347       -1995.881
  21419153.813    21419153.3064   21419156.7544  112558467.065 8  87707901.26846
     -1515.446       -1180.863
  20624548.109    20624547.4024   20624551.1554  108382779.919 8  84454143.15647
       273.750         213.307
 08  4 28 14  4 58.0000000  0  8 04 07 08 10 13 23 25 27
  23022986.457    23022986.0874   23022990.3744  120986609.243 6  94275280.70644
     -2633.729       -2052.241
  20371473.511    20371473.1974   20371475.8864  107052868.863 8  83417821.74047
        19.266          15.012
  21219959.977    21219959.3654   21219963.7534  111511726.024 8  86892272.65146
      2883.902        2247.202
  22023583.822    22023582.9634   22023587.4624  115734740.486 7  90182918.63145
      3261.170        2541.179
  21232141.332    21232141.2994   21232143.9884  111575682.578 7  86942107.49646
     -1597.141       -1244.529
  24066021.119    24066020.9884   24066024.3984  126467798.035 6  98546335.11342
     -2561.503       -1995.964
  21419442.182    21419441.7554   21419445.2354  112559982.779 8  87709082.34346
     -1515.937       -1181.250
  20624495.974    20624495.3954   20624499.1694  108382506.493 8  84453930.09347
       273.152         212.852
 08  4 28 14  4 59.0000000  0  8 04 07 08 10 13 23 25 27
  23023487.578    23023487.3324   23023491.7034  120989243.044 6  94277333.01644
     -2633.904       -2052.394
  20371469.733    20371469.5844   20371472.2614  107052849.797 8  83417806.88447
        18.805          14.652
  21219411.146    21219410.6124   21219414.9534  111508842.261 8  86890025.56246
      2883.569        2246.937
  22022963.586    22022962.4124   22022966.8924  115731479.452 7  90180377.55745
      3260.893        2540.966
  21232445.294    21232445.1944   21232447.9094  111577279.742 7  86943352.04046
     -1597.244       -1244.607
  24066508.464    24066508.5654   24066511.6284  126470359.499 6  98548331.05742
     -2561.469       -1995.948
  21419730.714    21419730.2434   21419733.6694  112561498.817 8  87710263.67346
     -1516.199       -1181.456
  20624443.991    20624443.4514   20624447.2684  108382233.481 8  84453717.35647
       272.804         212.574
 08  4 28 14  5  0.0000000  0  8 04 07 08 10 13 23 25 27
  23023988.542    23023988.4384   23023992.9904  120991877.098 7  94279385.52244
     -2634.181       -2052.604
  20371466.176    20371466.0764   20371468.7414  107052831.371 8  83417792.52747
        18.104          14.108
  21218862.619    21218861.9764   21218866.2504  111505959.001 8  86887778.86646
      2883.007        2246.499
  22022342.979    22022342.0194   22022346.3264  115728218.667 7  90177836.69345
      3260.661        2540.759
  21232749.303    21232749.1904   21232751.8854  111578877.164 8  86944596.78246
     -1597.552       -1244.843
  24066996.422    24066995.9714   24066999.3444  126472920.983 6  98550327.01442
     -2561.495       -1995.964
  21420019.215    21420018.7864   21420022.2304  112563015.268 8  87711445.32446
     -1516.658       -1181.813
  20624392.258    20624391.5734   20624395.3744  108381960.999 8  84453505.03347
       272.217         212.116
 08  4 28 14  5  1.0000000  0  8 04 07 08 10 13 23 25 27
  23024489.708    23024489.6414   23024494.1994  120994511.337 7  94281438.17444
     -2634.332       -2052.725
  20371463.012    20371462.6934   20371465.3624  107052813.524 8  83417778.61847
        17.558          13.685
  21218314.027    21218313.3924   21218317.6654  111503076.166 8  86885532.50146
      2882.623        2246.200
  22021722.549    22021721.5044   22021725.8764  115724958.183 7  90175296.06045
      3260.334        2540.518
  21233053.333    21233053.2114   21233055.8934  111580474.821 8  86945841.70846
     -1597.774       -1245.016
  24067483.911    24067483.5424   24067486.6454  126475482.555 6  98552323.05142
     -2561.615       -1996.077
  21420307.780    21420307.4234   21420310.8924  112564532.104 8  87712627.27246
     -1517.028       -1182.095
  20624340.577    20624339.8544   20624343.5974  108381688.985 8  84453293.07247
       271.781         211.780
 08  4 28 14  5  2.0000000  0  8 04 07 08 10 13 23 25 27
  23024991.118    23024991.0794   23024995.6384  120997145.792 7  94283490.99744
     -2634.562       -2052.908
  20371459.775    20371459.4134   20371462.0434  107052796.241 8  83417765.15247
        17.001          13.244
  21217765.665    21217764.8084   21217769.1554  111500193.772 8  86883286.47946
      2882.174        2245.851
  22021102.125    22021101.1434   22021105.5924  115721697.903 7  90172755.58845
      3260.177        2540.391
  21233357.338    21233357.2264   21233359.9814  111582072.677 8  86947086.79146
     -1597.955       -1245.162
  24067971.331    24067970.9284   24067973.9904  126478044.156 6  98554319.11142
     -2561.615       -1996.070
  21420596.648    21420596.1204   21420599.5754  112566049.303 7  87713809.50646
     -1517.381       -1182.378
  20624288.851    20624288.1574   20624291.9504  108381417.442 8  84453081.48147
       271.307         211.407
 08  4 28 14  5  3.0000000  0  8 04 07 08 10 13 23 25 27
  23025492.453    23025492.5214   23025497.0884  120999780.663 7  94285544.14044
     -2635.080       -2053.303
  20371456.493    20371456.2544   20371458.9104  107052779.758 8  83417752.30747
        16.083          12.536
  21217217.157    21217216.4424   21217220.7844  111497312.025 8  86881040.96146
      2881.423        2245.265
  22020481.696    22020480.7544   22020485.2444  115718438.159 7  90170215.52245
      3259.476        2539.862
  21233661.488    21233661.3154   21233664.1054  111583670.976 8  86948332.21946
     -1598.521       -1245.601
  24068459.280    24068458.3614   24068461.4214  126480605.993 5  98556315.33442
     -2561.957       -1996.305
  21420885.445    21420884.9524   21420888.3934  112567567.109 7  87714992.21046
     -1518.109       -1182.939
  20624237.166    20624236.6144   20624240.4064  108381146.589 8  84452870.42947
       270.507         210.781
 08  4 28 14  5  4.0000000  0  8 04 07 08 10 13 23 25 27
  23025994.057    23025993.9784   23025998.4244  121002415.786 7  94287597.48344
     -2635.248       -2053.444
  20371453.614    20371453.2344   20371455.8904  107052763.885 8  83417739.93747
        15.568          12.132
  21216668.798    21216668.1304   21216672.4994  111494430.760 8  86878795.82046
      2881.024        2244.953
  22019861.511    22019860.4964   22019865.0004  115715178.700 7  90167675.68245
      3259.316        2539.728
  21233965.697    21233965.5214   21233968.3144  111585269.510 8  86949577.82946
     -1598.651       -1245.701
  24068947.034    24068945.7454   24068948.7184  126483167.890 6  98558311.59742
     -2561.925       -1996.284
  21421174.451    21421173.8264   21421177.3244  112569085.307 8  87716175.22046
     -1518.395       -1183.162
  20624185.849    20624185.1604   20624188.9474  108380876.250 8  84452659.77247
       270.083         210.460
 08  4 28 14  5  5.0000000  0  8 04 07 08 10 13 23 25 27
  23026495.363    23026495.3924   23026499.9914  121005051.109 6  94289650.97644
     -2635.424       -2053.567
  20371450.729    20371450.3174   20371452.9974  107052748.578 8  83417728.01147
        15.023          11.705
  21216120.609    21216119.8884   21216124.2824  111491549.910 8  86876551.00646
      2880.644        2244.650
  22019241.235    22019240.2184   22019244.7514  115711919.482 7  90165136.02945
      3259.097        2539.559
  21234270.022    21234269.7914   21234272.5764  111586868.262 8  86950823.61046
     -1598.860       -1245.866
  24069434.263    24069433.2934   24069435.9054  126485729.806 6  98560307.89442
     -2561.926       -1996.314
  21421463.417    21421462.8494   21421466.2554  112570603.870 8  87717358.51646
     -1518.744       -1183.439
  20624134.510    20624133.7934   20624137.5904  108380606.367 8  84452449.47347
       269.654         210.120
 08  4 28 14  5  6.0000000  0  8 04 07 08 10 13 23 25 27
  23026996.912    23026996.8744   23027001.4974  121007686.699 6  94291704.67644
     -2635.722       -2053.805
  20371447.689    20371447.4864   20371450.1964  107052733.869 8  83417716.55147
        14.410          11.226
  21215572.334    21215571.8034   21215576.2364  111488669.534 8  86874306.55846
      2880.137        2244.264
  22018620.730    22018620.0224   22018624.6274  115708660.552 7  90162596.60945
      3258.786        2539.304
  21234574.293    21234574.0694   21234576.8154  111588467.249 7  86952069.57546
     -1599.105       -1246.057
  24069922.055    24069920.9944   24069923.5374  126488291.797 5  98562304.24742
     -2562.030       -1996.380
  21421752.514    21421751.8914   21421755.3104  112572122.828 8  87718542.12146
     -1519.156       -1183.759
  20624083.363    20624082.5354   20624086.3134  108380336.970 8  84452239.55547
       269.154         209.728
 08  4 28 14  5  7.0000000  0  8 04 07 08 10 13 23 25 27
  23027498.424    23027498.4274   23027503.2294  121010322.500 6  94293758.55444
     -2635.907       -2053.967
  20371444.971    20371444.8404   20371447.5384  107052719.786 8  83417705.57747
        13.771          10.731
  21215024.354    21215023.7604   21215028.1244  111485789.629 8  86872062.47546
      2879.670        2243.902
  22018000.717    22017999.9654   22018004.6844  115705401.948 7  90160057.43645
      3258.442        2539.049
  21234878.563    21234878.3794   21234881.1664  111590066.489 7  86953315.73546
     -1599.366       -1246.256
  24070409.704    24070408.4684   24070411.4494  126490853.817 6  98564300.62342
     -2562.033       -1996.388
  21422041.529    21422041.0214   21422044.4284  112573642.196 8  87719726.04346
     -1519.572       -1184.081
  20624032.211    20624031.3614   20624035.1354  108380068.086 8  84452030.03747
       268.627         209.318
 08  4 28 14  5  8.0000000  0  8 04 07 08 10 13 23 25 27
  23028000.248    23028000.1494   23028004.7834  121012958.507 7  94295812.57944
     -2636.111       -2054.098
  20371442.584    20371442.2604   20371444.9534  107052706.269 8  83417695.04447
        13.234          10.314
  21214476.341    21214475.8304   21214480.1824  111482910.152 8  86869818.72746
      2879.263        2243.580
  22017380.820    22017379.8764   22017384.6374  115702143.629 7  90157518.48545
      3258.175        2538.841
  21235182.752    21235182.7824   21235185.5094  111591665.943 8  86954562.06146
     -1599.560       -1246.409
  24070897.219    24070895.8214   24070899.3494  126493415.877 6  98566297.03242
     -2562.081       -1996.425
  21422330.724    21422330.2204   21422333.6354  112575161.942 8  87720910.26046
     -1519.936       -1184.365
  20623981.209    20623980.3014   20623984.0804  108379799.670 8  84451820.88347
       268.182         208.972
 08  4 28 14  5  9.0000000  0  8 04 07 08 10 13 23 25 27
  23028501.862    23028501.7514   23028506.4184  121015594.784 7  94297866.82644
     -2636.411       -2054.357
  20371440.071    20371439.8264   20371442.5064  107052693.383 8  83417685.00247
        12.571           9.796
  21213928.556    21213927.9784   21213932.3564  111480031.164 8  86867575.36046
      2878.744        2243.177
  22016760.909    22016759.9734   22016764.5324  115698885.597 7  90154979.76045
      3257.890        2538.611
  21235487.163    21235487.1714   21235489.8504  111593265.673 8  86955808.60146
     -1599.869       -1246.647
  24071384.472    24071383.7584   24071386.6674  126495978.063 6  98568293.53042
     -2562.248       -1996.544
  21422619.988    21422619.5244   21422622.8604  112576682.115 8  87722094.80846
     -1520.385       -1184.713
  20623930.182    20623929.3364   20623933.0714  108379531.770 8  84451612.12747
       267.642         208.556
 08  4 28 14  5 10.0000000  0  8 04 07 08 10 13 23 25 27
  23029003.906    23029003.4084   23029008.1594  121018231.342 6  94299921.28844
     -2636.698       -2054.570
  20371437.572    20371437.4914   20371440.1784  107052681.161 8  83417675.47847
        11.889           9.264
  21213380.732    21213380.2544   21213384.5964  111477152.714 8  86865332.41046
      2878.181        2242.741
  22016140.948    22016140.0334   22016144.5824  115695627.932 7  90152441.32245
      3257.481        2538.295
  21235791.900    21235791.6814   21235794.3844  111594865.681 8  86957055.36346
     -1600.147       -1246.873
  24071872.034    24071871.2424   24071874.4784  126498540.315 6  98570290.07742
     -2562.286       -1996.571
  21422909.202    21422908.8864   21422912.2254  112578202.732 8  87723279.70446
     -1520.839       -1185.071
  20623879.142    20623878.4614   20623882.2254  108379264.432 8  84451403.81547
       267.058         208.091
 08  4 28 14  5 11.0000000  0  8 04 07 08 10 13 23 25 27
  23029505.626    23029505.1434   23029509.9514  121020868.104 6  94301975.90844
     -2636.865       -2054.699
  20371435.324    20371435.2714   20371437.9274  107052669.548 8  83417666.42947
        11.309           8.813
  21212833.117    21212832.5714   21212836.9734  111474274.700 8  86863089.80346
      2877.795        2242.436
  22015521.008    22015520.1944   22015524.6644  115692370.523 7  90149903.08545
      3257.281        2538.136
  21236096.443    21236096.1664   21236098.9094  111596465.955 8  86958302.32746
     -1600.407       -1247.066
  24072360.028    24072358.7224   24072361.7194  126501102.623 6  98572286.68842
     -2562.336       -1996.643
  21423198.590    21423198.3014   21423201.6204  112579723.763 8  87724464.92446
     -1521.239       -1185.382
  20623828.350    20623827.6744   20623831.4514  108378997.589 8  84451195.88647
       266.595         207.737
 08  4 28 14  5 12.0000000  0  8 04 07 08 10 13 23 25 27
  23030007.354    23030006.9394   23030011.7544  121023505.129 7  94304030.72844
     -2637.155       -2054.920
  20371433.339    20371433.1714   20371435.8144  107052658.510 8  83417657.83047
        10.750           8.374
  21212285.502    21212285.0054   21212289.4234  111471397.160 8  86860847.56446
      2877.304        2242.054
  22014901.407    22014900.4374   22014904.9074  115689113.390 7  90147365.05545
      3256.994        2537.926
  21236401.032    21236400.8054   21236403.4344  111598066.436 8  86959549.45546
     -1600.584       -1247.210
  24072847.782    24072846.7204   24072849.2764  126503664.973 5  98574283.31942
     -2562.371       -1996.640
  21423488.241    21423487.8364   21423491.1974  112581245.163 8  87725650.43146
     -1521.583       -1185.650
  20623777.704    20623776.9764   20623780.7904  108378731.228 8  84450988.33147
       266.121         207.367
 08  4 28 14  5 13.0000000  0  8 04 07 08 10 13 23 25 27
  23030509.179    23030508.5804   23030513.6814  121026142.400 6  94306085.73644
     -2637.396       -2055.102
  20371431.407    20371431.1874   20371433.8384  107052648.084 8  83417649.70547
        10.121           7.887
  21211738.091    21211737.5444   21211741.8944  111468520.075 8  86858605.68346
      2876.857        2241.703
  22014281.584    22014280.6464   22014285.1864  115685856.583 7  90144827.28645
      3256.644        2537.639
  21236705.791    21236705.3774   21236708.1144  111599667.171 7  86960796.78346
     -1600.863       -1247.427
  24073335.458    24073334.3214   24073337.1954  126506227.386 5  98576280.01042
     -2562.444       -1996.723
  21423777.784    21423777.4024   21423780.8314  112582766.977 8  87726836.25946
     -1522.021       -1185.989
  20623727.056    20623726.3934   20623730.2104  108378465.372 8  84450781.17347
       265.602         206.960
 08  4 28 14  5 14.0000000  0  8 04 07 08 10 13 23 25 27
  23031011.169    23031010.4934   23031015.5344  121028779.926 6  94308140.94744
     -2637.652       -2055.313
  20371429.506    20371429.2974   20371431.9904  107052638.267 8  83417642.05747
         9.511           7.410
  21211190.774    21211190.1304   21211194.4724  111465643.467 8  86856364.17046
      2876.369        2241.328
  22013661.902    22013660.9114   22013665.5354  115682600.024 7  90142289.70745
      3256.436        2537.485
  21237010.352    21237010.0324   21237012.7374  111601268.133 8  86962044.28346
     -1601.075       -1247.587
  24073822.856    24073821.4714   24073824.8834  126508789.833 5  98578276.73642
     -2562.464       -1996.742
  21424067.497    21424067.0664   21424070.4924  112584289.172 8  87728022.38646
     -1522.386       -1186.276
  20623676.566    20623675.8864   20623679.6894  108378200.019 8  84450574.40347
       265.102         206.576
 08  4 28 14  5 15.0000000  0  8 04 07 08 10 13 23 25 27
  23031513.091    23031512.4904   23031517.5174  121031417.742 6  94310196.38444
     -2637.961       -2055.550
  20371427.661    20371427.5414   20371430.2524  107052629.121 8  83417634.92947
         8.810           6.868
  21210643.448    21210642.8304   21210647.1414  111462767.380 8  86854123.06446
      2875.827        2240.903
  22013042.311    22013041.2684   22013045.9284  115679343.858 7  90139752.43845
      3255.969        2537.114
  21237315.105    21237314.7674   21237317.4654  111602869.416 8  86963292.03746
     -1601.444       -1247.881
  24074309.854    24074308.9854   24074312.4374  126511352.439 5  98580273.56242
     -2562.685       -1996.877
  21424357.257    21424356.8514   21424360.2334  112585811.854 8  87729208.89046
     -1522.924       -1186.693
  20623626.087    20623625.5354   20623629.3004  108377935.226 8  84450368.07047
       264.513         206.115
 08  4 28 14  5 16.0000000  0  8 04 07 08 10 13 23 25 27
  23032014.913    23032014.4644   23032019.5694  121034055.865 6  94312252.06244
     -2638.277       -2055.798
  20371425.894    20371425.9164   20371428.6684  107052620.661 8  83417628.33447
         8.117           6.329
  21210096.325    21210095.6404   21210099.9564  111459891.838 8  86851882.38246
      2875.269        2240.469
  22012422.637    22012421.8074   22012426.3644  115676088.104 7  90137215.48345
      3255.548        2536.798
  21237619.896    21237619.5094   21237622.2284  111604471.031 8  86964540.04546
     -1601.780       -1248.135
  24074797.482    24074797.1874   24074800.2104  126513915.182 5  98582270.49942
     -2562.812       -1996.993
  21424647.158    21424646.6914   21424650.0634  112587335.019 8  87730395.77046
     -1523.407       -1187.068
  20623575.800    20623575.2614   20623579.0054  108377671.007 8  84450162.18747
       263.933         205.657
 08  4 28 14  5 17.0000000  0  8 04 07 08 10 13 23 25 27
  23032516.692    23032516.5874   23032521.4424  121036694.151 6  94314307.87244
     -2638.367       -2055.876
  20371424.493    20371424.4064   20371427.1374  107052612.753 8  83417622.17147
         7.633           5.947
  21209549.174    21209548.5284   21209552.8434  111457016.708 7  86849642.01746
      2874.925        2240.208
  22011803.155    22011802.3184   22011806.8474  115672832.522 7  90134678.66445
      3255.496        2536.751
  21237924.475    21237924.2624   21237927.0554  111606072.832 8  86965788.20146
     -1601.895       -1248.229
  24075285.766    24075284.7894   24075287.9414  126516477.933 5  98584267.43542
     -2562.755       -1996.934
  21424936.950    21424936.5834   21424940.0114  112588858.528 8  87731582.92046
     -1523.681       -1187.285
  20623525.680    20623525.0584   20623528.8044  108377407.239 8  84449956.65347
       263.542         205.359
 08  4 28 14  5 18.0000000  0  8 04 07 08 10 13 23 25 27
  23033018.945    23033018.6634   23033023.5404  121039332.621 6  94316363.81944
     -2638.562       -2056.016
  20371423.202    20371423.0104   20371425.6984  107052605.357 8  83417616.41047
         7.140           5.559
  21209002.105    21209001.5014   21209005.8244  111454141.969 8  86847401.96346
      2874.543        2239.897
  22011183.643    22011182.7594   22011187.3524  115669577.186 7  90132142.03545
      3255.212        2536.534
  21238229.159    21238229.0784   21238231.9314  111607674.766 8  86967036.46146
     -1601.999       -1248.313
  24075773.271    24075772.6534   24075775.3264  126519040.616 5  98586264.33542
     -2562.648       -1996.883
  21425226.799    21425226.5544   21425229.9884  112590382.340 8  87732770.30846
     -1523.963       -1187.506
  20623475.465    20623474.9454   20623478.7154  108377143.885 8  84449751.44047
       263.146         205.052
 08  4 28 14  5 19.0000000  0  8 04 07 08 10 13 23 25 27
  23033521.215    23033520.7294   23033525.6604  121041971.354 6  94318419.97644
     -2638.864       -2056.262
  20371422.076    20371421.7174   20371424.4224  107052598.612 8  83417611.15547
         6.419           5.003
  21208455.016    21208454.5474   21208458.8854  111451267.710 8  86845162.28346
      2874.019        2239.493
  22010564.347    22010563.3494   22010568.0034  115666322.182 7  90129605.67545
      3254.838        2536.226
  21238534.080    21238533.9874   21238536.8194  111609277.011 7  86968284.96246
     -1602.401       -1248.622
  24076260.614    24076260.0194   24076262.9484  126521603.435 5  98588261.34342
     -2562.888       -1997.061
  21425516.955    21425516.6404   21425520.0354  112591906.618 8  87733958.05446
     -1524.512       -1187.926
  20623425.528    20623424.9194   20623428.7014  108376881.068 8  84449546.64847
       262.550         204.582
 08  4 28 14  5 20.0000000  0  8 04 07 08 10 13 23 25 27
  23034023.490    23034023.0674   23034027.7164  121044610.335 6  94320476.32144
     -2639.105       -2056.439
  20371421.056    20371420.5294   20371423.2394  107052592.482 8  83417606.37547
         5.822           4.542
  21207908.095    21207907.6754   21207912.0844  111448393.948 8  86842922.98446
      2873.515        2239.109
  22009945.068    22009944.0254   22009948.5764  115663067.440 7  90127069.51445
      3254.611        2536.061
  21238839.007    21238838.9234   21238841.7684  111610879.492 8  86969533.64646
     -1602.598       -1248.776
  24076748.138    24076747.7634   24076750.2274  126524166.317 5  98590258.38542
     -2562.913       -1997.059
  21425807.247    21425806.8014   21425810.2314  112593431.276 8  87735146.09946
     -1524.847       -1188.194
  20623375.571    20623375.0104   20623378.8164  108376618.758 8  84449342.25247
       262.055         204.197
 08  4 28 14  5 21.0000000  0  8 04 07 08 10 13 23 25 27
  23034525.596    23034525.3334   23034529.9744  121047249.587 6  94322532.88444
     -2639.388       -2056.670
  20371419.992    20371419.4934   20371422.1974  107052586.977 8  83417602.08947
         5.193           4.039
  21207361.468    21207360.9234   21207365.2974  111445520.682 8  86840684.07746
      2873.017        2238.712
  22009325.848    22009324.7934   22009329.3614  115659813.063 7  90124533.63745
      3254.195        2535.736
  21239144.046    21239143.9244   21239146.7734  111612482.242 8  86970782.54746
     -1602.886       -1249.009
  24077235.587    24077235.3124   24077237.9094  126526729.283 5  98592255.50042
     -2563.008       -1997.152
  21426097.387    21426096.9704   21426100.4304  112594956.366 8  87736334.48146
     -1525.307       -1188.550
  20623325.768    20623325.2074   20623328.9774  108376356.973 8  84449138.26647
       261.524         203.782
 08  4 28 14  5 22.0000000  0  8 04 07 08 10 13 23 25 27
  23035027.891    23035027.7984   23035032.3124  121049889.078 7  94324589.63444
     -2639.610       -2056.844
  20371418.991    20371418.5764   20371421.2714  107052582.109 8  83417598.29247
         4.549           3.552
  21206814.902    21206814.2404   21206818.5884  111442647.898 7  86838445.54246
      2872.543        2238.349
  22008706.840    22008705.6084   22008710.1474  115656558.990 7  90121997.99045
      3253.921        2535.531
  21239449.074    21239448.9994   21239451.7484  111614085.276 8  86972031.66246
     -1603.175       -1249.223
  24077723.400    24077723.0264   24077725.5004  126529292.313 5  98594252.66542
     -2563.062       -1997.190
  21426387.755    21426387.3284   21426390.7384  112596481.888 8  87737523.19646
     -1525.737       -1188.882
  20623276.083    20623275.4934   20623279.2464  108376095.718 8  84448934.68947
       260.989         203.372
 08  4 28 14  5 23.0000000  0  8 04 07 08 10 13 23 25 27
  23035530.190    23035530.2184   23035534.6754  121052528.804 7  94326646.56044
     -2639.844       -2057.015
  20371418.065    20371417.7684   20371420.4534  107052577.843 8  83417594.96847
         3.965           3.089
  21206268.234    21206267.6664   21206271.9894  111439775.569 8  86836207.36746
      2872.102        2237.994
  22008087.618    22008086.4164   22008090.9024  115653305.210 7  90119462.58245
      3253.632        2535.289
  21239754.286    21239754.1104   21239756.8764  111615688.549 8  86973280.96346
     -1603.392       -1249.394
  24078211.651    24078210.8474   24078213.3424  126531855.438 5  98596249.89742
     -2563.173       -1997.265
  21426678.163    21426677.6894   21426681.0294  112598007.805 8  87738712.22346
     -1526.115       -1189.183
  20623226.379    20623225.8724   20623229.6344  108375834.949 8  84448731.49247
       260.527         203.007
 08  4 28 14  5 24.0000000  0  8 04 07 08 10 13 23 25 27
  23036032.451    23036032.7044   23036037.0544  121055168.801 7  94328703.69244
     -2640.132       -2057.235
  20371417.170    20371417.0864   20371419.8004  107052574.211 8  83417592.13547
         3.315           2.586
  21205721.693    21205721.1764   21205725.4784  111436903.727 8  86833969.56946
      2871.597        2237.610
  22007468.364    22007467.1904   22007471.8654  115650051.765 7  90116927.43345
      3253.278        2535.020
  21240059.391    21240059.2274   21240062.0514  111617292.093 8  86974530.47646
     -1603.680       -1249.619
  24078699.664    24078698.4944   24078701.0214  126534418.645 5  98598247.20642
     -2563.249       -1997.347
  21426968.444    21426968.1314   21426971.5054  112599534.157 8  87739901.58746
     -1526.569       -1189.532
  20623176.771    20623176.3274   20623180.1284  108375574.708 8  84448528.70647
       259.977         202.580
 08  4 28 14  5 25.0000000  0  8 04 07 08 10 13 23 25 27
  23036535.117    23036535.0494   23036539.5454  121057809.064 7  94330761.03844
     -2640.396       -2057.453
  20371416.414    20371416.5344   20371419.2254  107052571.215 8  83417589.80347
         2.678           2.082
  21205175.202    21205174.8114   21205179.1034  111434032.411 8  86831732.17846
      2871.054        2237.188
  22006848.991    22006848.1134   22006852.7684  115646798.628 7  90114392.52145
      3252.983        2534.792
  21240364.662    21240364.4154   21240367.2554  111618895.909 8  86975780.20246
     -1603.953       -1249.832
  24079187.009    24079186.2174   24079188.7064  126536981.911 5  98600244.55842
     -2563.294       -1997.375
  21427259.046    21427258.7054   21427262.0664  112601060.931 8  87741091.28246
     -1526.985       -1189.861
  20623127.471    20623126.9444   20623130.6994  108375315.006 8  84448326.34147
       259.431         202.154
 08  4 28 14  5 26.0000000  0  8 04 07 08 10 13 23 25 27
  23037037.454    23037037.5874   23037041.9894  121060449.521 7  94332818.53344
     -2640.552       -2057.569
  20371415.907    20371416.0784   20371418.7444  107052568.776 8  83417587.90247
         2.161           1.686
  21204628.912    21204628.4614   21204632.8154  111431161.495 8  86829495.10246
      2870.715        2236.918
  22006230.005    22006229.0764   22006233.6714  115643545.754 7  90111857.81145
      3252.742        2534.611
  21240669.767    21240669.6624   21240672.5624  111620499.920 8  86977030.07946
     -1604.107       -1249.953
  24079674.851    24079674.3294   24079676.7394  126539545.205 5  98602241.92642
     -2563.309       -1997.376
  21427549.878    21427549.2854   21427552.6344  112602588.065 8  87742281.25646
     -1527.314       -1190.114
  20623078.246    20623077.5874   20623081.3744  108375055.756 8  84448124.32947
       259.025         201.836
 08  4 28 14  5 27.0000000  0  8 04 07 08 10 13 23 25 27
  23037539.939    23037540.0204   23037544.5614  121063090.233 6  94334876.23044
     -2640.840       -2057.800
  20371415.568    20371415.7484   20371418.4204  107052566.947 8  83417586.47947
         1.523           1.184
  21204082.726    21204082.1974   21204086.6154  111428291.066 8  86827258.40546
      2870.187        2236.508
  22005611.375    22005610.1884   22005614.7544  115640293.200 7  90109323.35445
      3252.394        2534.329
  21240975.045    21240974.9724   21240977.7764  111622104.172 8  86978280.14846
     -1604.373       -1250.165
  24080162.253    24080162.6074   24080164.6544  126542108.521 5  98604239.31142
     -2563.327       -1997.393
  21427840.415    21427839.9534   21427843.2674  112604115.612 8  87743471.55046
     -1527.754       -1190.454
  20623029.036    20623028.3404   20623032.0934  108374797.010 8  84447922.70947
       258.494         201.423
 08  4 28 14  5 28.0000000  0  8 04 07 08 10 13 23 25 27
  23038042.119    23038042.4554   23038046.9984  121065731.159 6  94336934.09144
     -2641.032       -2057.942
  20371415.275    20371415.4794   20371418.2014  107052565.720 8  83417585.52447
         0.927           0.720
  21203536.494    21203536.0664   21203540.4754  111425421.082 8  86825022.05746
      2869.760        2236.173
  22004992.501    22004991.2544   22004995.8014  115637040.906 7  90106789.10445
      3252.165        2534.148
  21241280.299    21241280.3004   21241283.0474  111623708.668 8  86979530.40746
     -1604.618       -1250.354
  24080649.874    24080650.2834   24080652.5054  126544671.942 5  98606236.78642
     -2563.474       -1997.521
  21428131.149    21428130.6914   21428134.0324  112605643.550 8  87744662.15046
     -1528.134       -1190.752
  20622979.885    20622979.2154   20622982.9144  108374538.754 8  84447721.46947
       258.010         201.049
 08  4 28 14  5 29.0000000  0  8 04 07 08 10 13 23 25 27
  23038544.975    23038544.9614   23038549.6244  121068372.338 7  94338992.15244
     -2641.307       -2058.161
  20371415.167    20371415.3514   20371418.0614  107052565.091 8  83417585.03447
         0.329           0.258
  21202990.661    21202990.0854   21202994.4344  111422551.571 8  86822786.07246
      2869.275        2235.802
  22004373.869    22004372.4494   22004377.0014  115633788.897 7  90104255.06745
      3251.866        2533.930
  21241585.682    21241585.6784   21241588.4714  111625313.407 8  86980780.85246
     -1604.861       -1250.537
  24081137.859    24081138.1174   24081140.4024  126547235.415 5  98608234.30342
     -2563.499       -1997.537
  21428421.989    21428421.5274   21428424.8954  112607171.877 8  87745853.05446
     -1528.521       -1191.056
  20622930.730    20622930.1684   20622933.8934  108374280.994 8  84447520.61547
       257.512         200.662
 08  4 28 14  5 30.0000000  0  8 04 07 08 10 13 23 25 27
  23039047.547    23039047.7074   23039052.2444  121071013.750 7  94341050.39344
     -2641.528       -2058.331
  20371415.213    20371415.3454   20371418.0654  107052565.083 8  83417585.02647
        -0.302          -0.233
  21202444.731    21202444.1064   21202448.4554  111419682.544 8  86820550.46746
      2868.786        2235.416
  22003755.000    22003753.6674   22003758.2484  115630537.228 7  90101721.29845
      3251.498        2533.635
  21241891.159    21241891.0494   21241893.8664  111626918.390 7  86982031.48346
     -1605.104       -1250.724
  24081625.480    24081625.8374   24081627.9504  126549798.917 5  98610231.82642
     -2563.516       -1997.526
  21428712.955    21428712.4394   21428715.7604  112608700.603 8  87747044.26746
     -1528.926       -1191.368
  20622881.777    20622881.2124   20622884.9764  108374023.745 8  84447320.16447
       256.993         200.249
 08  4 28 14  5 31.0000000  0  8 04 07 08 10 13 23 25 27
  23039550.362    23039550.3564   23039554.8834  121073655.381 7  94343108.80044
     -2641.741       -2058.490
  20371415.347    20371415.4614   20371418.1644  107052565.671 8  83417585.48547
        -0.888          -0.693
  21201898.758    21201898.1984   21201902.6384  111416813.962 8  86818315.21146
      2868.359        2235.082
  22003136.177    22003134.8604   22003139.5354  115627285.810 7  90099187.72645
      3251.294        2533.474
  21242196.618    21242196.4854   21242199.3424  111628523.610 8  86983282.30446
     -1605.339       -1250.916
  24082114.216    24082113.4554   24082116.1004  126552362.477 5  98612229.39442
     -2563.590       -1997.592
  21429003.862    21429003.4324   21429006.8304  112610229.717 8  87748235.78846
     -1529.307       -1191.675
  20622832.872    20622832.3414   20622836.1074  108373766.988 8  84447120.09347
       256.511         199.882
 08  4 28 14  5 32.0000000  0  8 04 07 08 10 13 23 25 27
  23040053.268    23040053.0624   23040057.6704  121076297.287 6  94345167.43044
     -2642.043       -2058.742
  20371415.540    20371415.6844   20371418.3984  107052566.889 8  83417586.43347
        -1.531          -1.192
  21201352.967    21201352.4344   21201356.8534  111413945.884 8  86816080.34346
      2867.826        2234.673
  22002517.376    22002516.2704   22002520.7984  115624034.742 7  90096654.43145
      3250.892        2533.156
  21242501.958    21242502.0444   21242504.9114  111630129.108 8  86984533.34046
     -1605.638       -1251.145
  24082602.203    24082601.2814   24082604.1054  126554926.170 5  98614227.06742
     -2563.760       -1997.725
  21429294.973    21429294.5424   21429297.8294  112611759.276 8  87749427.65546
     -1529.781       -1192.040
  20622784.105    20622783.5824   20622787.3454  108373510.754 8  84446920.43047
       255.973         199.458
 08  4 28 14  5 33.0000000  0  8 04 07 08 10 13 23 25 27
  23040555.929    23040555.8304   23040560.5744  121078939.395 6  94347226.21444
     -2642.208       -2058.859
  20371415.894    20371416.0314   20371418.7324  107052568.721 8  83417587.86247
        -2.140          -1.670
  21200807.396    21200806.7434   21200811.1644  111411078.276 8  86813845.84646
      2867.372        2234.313
  22001898.791    22001897.6454   22001902.1874  115620783.964 7  90094121.35445
      3250.634        2532.969
  21242807.555    21242807.5954   21242810.4774  111631734.839 8  86985784.56046
     -1605.847       -1251.311
  24083089.793    24083089.2204   24083092.0794  126557489.878 5  98616224.75942
     -2563.715       -1997.701
  21429585.999    21429585.6224   21429588.9914  112613289.226 8  87750619.82246
     -1530.147       -1192.317
  20622735.519    20622734.9064   20622738.7014  108373255.030 8  84446721.16647
       255.469         199.065
 08  4 28 14  5 34.0000000  0  8 04 07 08 10 13 23 25 27
  23041058.715    23041058.6934   23041063.6084  121081581.788 6  94349285.22244
     -2642.537       -2059.121
  20371416.166    20371416.5014   20371419.2144  107052571.170 8  83417589.77447
        -2.757          -2.153
  21200261.803    21200261.1274   21200265.4814  111408211.161 8  86811611.73246
      2866.868        2233.922
  22001279.885    22001279.1164   22001283.6254  115617533.505 7  90091588.53245
      3250.299        2532.695
  21243113.205    21243113.2584   21243116.0964  111633340.845 8  86987035.99646
     -1606.144       -1251.544
  24083577.889    24083577.2304   24083579.5644  126560053.700 5  98618222.52942
     -2563.878       -1997.808
  21429877.377    21429876.8244   21429880.2034  112614819.599 8  87751812.32246
     -1530.584       -1192.667
  20622687.059    20622686.3594   20622690.1344  108372999.825 8  84446522.30547
       254.945         198.659
 08  4 28 14  5 35.0000000  0  8 04 07 08 10 13 23 25 27
  23041561.561    23041561.6534   23041566.4654  121084224.419 6  94351344.40944
     -2642.750       -2059.275
  20371416.587    20371417.0784   20371419.8174  107052574.223 8  83417592.15247
        -3.355          -2.611
  21199716.224    21199715.6344   21199719.9474  111405344.514 8  86809377.97846
      2866.414        2233.573
  22000661.460    22000660.5384   22000665.1644  115614283.337 7  90089055.93045
      3250.023        2532.491
  21243418.802    21243418.8864   21243421.6934  111634947.079 7  86988287.60646
     -1606.348       -1251.697
  24084065.849    24084064.9834   24084067.3494  126562617.580 5  98620220.34542
     -2563.910       -1997.840
  21430168.610    21430168.1784   21430171.4564  112616350.364 8  87753005.12646
     -1530.960       -1192.956
  20622638.585    20622637.9094   20622641.6664  108372745.107 8  84446323.82347
       254.474         198.293
 08  4 28 14  5 36.0000000  0  8 04 07 08 10 13 23 25 27
  23042064.444    23042064.6394   23042069.4244  121086867.227 6  94353403.74444
     -2642.896       -2059.410
  20371417.217    20371417.7664   20371420.4904  107052577.839 8  83417594.96847
        -3.897          -3.036
  21199170.900    21199170.2324   21199174.5174  111402478.279 8  86807144.54846
      2866.029        2233.269
  22000043.014    22000042.0814   22000046.9024  115611033.441 7  90086523.54945
      3249.760        2532.271
  21243724.579    21243724.5374   21243727.4044  111636553.537 8  86989539.38846
     -1606.570       -1251.869
  24084553.484    24084553.0964   24084555.3854  126565181.471 5  98622218.18042
     -2563.896       -1997.843
  21430459.969    21430459.5684   21430462.8564  112617881.509 8  87754198.22246
     -1531.335       -1193.242
  20622590.091    20622589.5274   20622593.2914  108372490.848 8  84446125.69947
       254.030         197.944
 08  4 28 14  5 37.0000000  0  8 04 07 08 10 13 23 25 27
  23042567.425    23042567.5974   23042572.3774  121089510.315 7  94355463.28744
     -2643.228       -2059.648
  20371418.008    20371418.5864   20371421.3104  107052582.102 8  83417598.29047
        -4.588          -3.574
  21198625.517    21198624.9084   21198629.2134  111399612.572 8  86804911.53146
      2865.442        2232.809
  21999424.719    21999423.6954   21999428.5674  115607783.849 7  90083991.40345
      3249.440        2532.029
  21244030.401    21244030.3354   21244033.1904  111638160.262 8  86990791.37946
     -1606.859       -1252.094
  24085041.015    24085041.1334   24085043.5434  126567745.410 5  98624216.06842
     -2563.963       -1997.915
  21430751.428    21430751.0454   21430754.2784  112619413.075 8  87755391.65046
     -1531.777       -1193.593
  20622541.848    20622541.2374   20622545.0204  108372237.139 8  84445928.00647
       253.434         197.478
 08  4 28 14  5 38.0000000  0  8 04 07 08 10 13 23 25 27
  23043070.386    23043070.5934   23043075.3224  121092153.662 7  94357523.03744
     -2643.477       -2059.852
  20371418.950    20371419.5134   20371422.2054  107052586.965 8  83417602.07747
        -5.162          -4.019
  21198080.132    21198079.6594   21198083.9704  111396747.330 7  86802678.87646
      2865.009        2232.475
  21998806.440    21998805.3474   21998810.2034  115604534.594 7  90081459.51245
      3249.086        2531.764
  21244336.250    21244336.1394   21244338.9964  111639767.232 8  86992043.56346
     -1607.092       -1252.281
  24085528.756    24085528.5904   24085531.2564  126570309.434 5  98626214.01642
     -2564.067       -1997.979
  21431042.886    21431042.5624   21431045.8344  112620945.043 8  87756585.39246
     -1532.169       -1193.900
  20622493.654    20622493.0594   20622496.8224  108371983.919 8  84445730.69247
       252.976         197.124
 08  4 28 14  5 39.0000000  0  8 04 07 08 10 13 23 25 27
  23043573.541    23043573.5834   23043578.4624  121094797.250 7  94359582.97044
     -2643.709       -2060.025
  20371420.030    20371420.5864   20371423.2404  107052592.450 8  83417606.35047
        -5.797          -4.516
  21197535.032    21197534.5274   21197538.8344  111393882.567 8  86800446.59046
      2864.525        2232.101
  21998188.127    21998187.0984   21998191.9024  115601285.631 7  90078927.84945
      3248.817        2531.547
  21244641.996    21244641.9264   21244644.7754  111641374.463 8  86993295.95146
     -1607.362       -1252.490
  24086016.569    24086016.5964   24086019.0084  126572873.574 5  98628212.05142
     -2564.197       -1998.078
  21431334.392    21431334.1394   21431337.4474  112622477.427 8  87757779.45746
     -1532.591       -1194.227
  20622445.516    20622444.9734   20622448.7444  108371731.220 8  84445533.78147
       252.438         196.709
 08  4 28 14  5 40.0000000  0  8 04 07 08 10 13 23 25 27
  23044076.739    23044076.5984   23044081.4004  121097441.051 7  94361643.07544
     -2643.906       -2060.191
  20371421.402    20371421.7404   20371424.3924  107052598.543 8  83417611.09847
        -6.397          -4.986
  21196989.822    21196989.4844   21196993.7134  111391018.263 8  86798214.66646
      2864.074        2231.744
  21997569.939    21997569.0134   21997573.7074  115598036.947 7  90076396.40545
      3248.545        2531.336
  21244947.945    21244947.8214   21244950.6644  111642981.937 8  86994548.52646
     -1607.596       -1252.668
  24086505.087    24086504.4174   24086506.5954  126575437.695 5  98630210.07042
     -2564.112       -1998.011
  21431625.999    21431625.8044   21431629.1294  112624010.207 8  87758973.83346
     -1532.978       -1194.531
  20622397.566    20622396.9814   20622400.6884  108371479.015 8  84445337.26247
       251.957         196.323
 08  4 28 14  5 41.0000000  0  8 04 07 08 10 13 23 25 27
  23044579.975    23044579.7704   23044584.4344  121100085.208 6  94363703.45744
     -2644.335       -2060.520
  20371422.984    20371423.0204   20371425.7004  107052605.350 8  83417616.40247
        -7.163          -5.581
  21196445.104    21196444.5334   21196448.8414  111388154.545 8  86795983.19746
      2863.425        2231.241
  21996951.866    21996950.9374   21996955.5544  115594788.681 7  90073865.29245
      3248.057        2530.947
  21245254.021    21245253.7744   21245256.5714  111644589.766 8  86995801.37846
     -1608.006       -1252.991
  24086992.354    24086992.3484   24086994.4704  126578002.043 5  98632208.25742
     -2564.460       -1998.271
  21431917.833    21431917.5964   21431920.9084  112625543.503 8  87760168.60946
     -1533.554       -1194.976
  20622349.753    20622349.1034   20622352.8324  108371227.426 8  84445141.21447
       251.282         195.812
 08  4 28 14  5 42.0000000  0  8 04 07 08 10 13 23 25 27
  23045083.107    23045082.9434   23045087.5624  121102729.530 6  94365763.96544
     -2644.405       -2060.572
  20371424.547    20371424.4064   20371427.0894  107052612.695 8  83417622.12547
        -7.615          -5.933
  21195900.310    21195899.6314   21195903.9604  111385291.231 8  86793752.04446
      2863.113        2230.994
  21996333.794    21996332.8634   21996337.4924  115591540.682 7  90071334.38945
      3247.865        2530.798
  21245559.866    21245559.8114   21245562.5474  111646197.764 8  86997054.36346
     -1608.081       -1253.051
  24087480.676    24087480.4204   24087482.3894  126580566.350 5  98634206.40442
     -2564.287       -1998.128
  21432209.597    21432209.4184   21432212.7014  112627077.127 8  87761363.64446
     -1533.788       -1195.165
  20622302.017    20622301.3394   20622305.0484  108370976.256 8  84444945.49947
       250.961         195.550
 08  4 28 14  5 43.0000000  0  8 04 07 08 10 13 23 25 27
  23045586.021    23045586.2844   23045590.8504  121105374.063 7  94367824.64244
     -2644.638       -2060.762
  20371426.021    20371425.9144   20371428.6384  107052620.639 8  83417628.31447
        -8.243          -6.421
  21195355.711    21195354.8694   21195359.1944  111382428.371 8  86791521.24946
      2862.632        2230.616
  21995715.730    21995714.9344   21995719.4854  115588292.924 7  90068803.66945
      3247.637        2530.628
  21245866.018    21245865.9134   21245868.5954  111647805.989 8  86998307.52646
     -1608.340       -1253.252
  24087968.983    24087968.4614   24087970.4454  126583130.715 5  98636204.61842
     -2564.395       -1998.247
  21432501.516    21432501.3004   21432504.6414  112628611.145 8  87762558.97846
     -1534.215       -1195.482
  20622254.374    20622253.6484   20622257.3574  108370725.588 8  84444750.17247
       250.416         195.132
 08  4 28 14  5 44.0000000  0  8 04 07 08 10 13 23 25 27
  23046089.219    23046089.4304   23046094.0424  121108018.844 7  94369885.50644
     -2644.906       -2060.957
  20371427.484    20371427.5234   20371430.2514  107052629.186 8  83417634.97047
        -8.848          -6.890
  21194811.099    21194810.1854   21194814.5114  111379565.978 8  86789290.81046
      2862.160        2230.260
  21995098.026    21995096.9284   21995101.6874  115585045.492 7  90066273.20145
      3247.269        2530.343
  21246172.220    21246171.9614   21246174.6284  111649414.458 8  86999560.87846
     -1608.591       -1253.447
  24088456.125    24088456.5924   24088458.2034  126585695.141 5  98638202.86042
     -2564.456       -1998.255
  21432793.585    21432793.2744   21432796.6384  112630145.567 8  87763754.62746
     -1534.623       -1195.807
  20622206.727    20622206.0314   20622209.7564  108370475.410 8  84444555.22747
       249.934         194.755
 08  4 28 14  5 45.0000000  0  8 04 07 08 10 13 23 25 27
  23046592.674    23046592.7224   23046597.3924  121110663.909 6  94371946.58944
     -2645.207       -2061.192
  20371429.065    20371429.2654   20371432.0114  107052638.388 8  83417642.14147
        -9.528          -7.428
  21194266.324    21194265.6084   21194269.9264  111376704.104 8  86787060.78146
      2861.615        2229.825
  21994480.096    21994478.9804   21994483.7674  115581798.377 7  90063742.97745
      3246.957        2530.101
  21246478.336    21246478.0314   21246480.7934  111651023.216 8  87000814.45646
     -1608.902       -1253.690
  24088945.030    24088944.3744   24088946.1614  126588259.651 5  98640201.17342
     -2564.551       -1998.349
  21433085.828    21433085.3734   21433088.7144  112631680.423 8  87764950.61846
     -1535.072       -1196.162
  20622159.173    20622158.5264   20622162.2444  108370225.790 8  84444360.71847
       249.341         194.291
 08  4 28 14  5 46.0000000  0  8 04 07 08 10 13 23 25 27
  23047096.236    23047096.1864   23047100.8184  121113309.179 6  94374007.84444
     -2645.372       -2061.341
  20371431.001    20371431.1464   20371433.8714  107052648.184 8  83417649.77247
       -10.094          -7.862
  21193721.672    21193721.0954   21193725.4104  111373842.692 8  86784831.10846
      2861.180        2229.494
  21993862.436    21993861.2144   21993865.7804  115578551.575 7  90061213.00445
      3246.646        2529.848
  21246784.581    21246784.2824   21246787.0144  111652632.233 8  87002068.23446
     -1609.146       -1253.878
  24089432.807    24089432.7414   24089434.2074  126590824.273 5  98642199.57142
     -2564.679       -1998.440
  21433377.894    21433377.4834   21433380.8554  112633215.692 8  87766146.93046
     -1535.476       -1196.472
  20622111.807    20622111.1124   20622114.8574  108369976.654 8  84444166.58547
       248.894         193.944
 08  4 28 14  5 47.0000000  0  8 04 07 08 10 13 23 25 27
  23047599.487    23047599.6564   23047604.2174  121115954.692 7  94376069.28644
     -2645.635       -2061.535
  20371433.239    20371433.1314   20371435.8214  107052658.577 8  83417657.87547
       -10.691          -8.338
  21193177.151    21193176.6634   21193180.9944  111370981.740 8  86782601.79646
      2860.723        2229.132
  21993244.565    21993243.4024   21993248.0064  115575305.068 7  90058683.25945
      3246.359        2529.630
  21247090.677    21247090.4924   21247093.2664  111654241.458 7  87003322.17546
     -1609.329       -1254.023
  24089920.976    24089920.2874   24089922.6134  126593388.882 5  98644197.97242
     -2564.602       -1998.402
  21433670.160    21433669.7504   21433673.0574  112634751.326 8  87767343.53046
     -1535.816       -1196.744
  20622064.488    20622063.8044   20622067.5434  108369728.013 8  84443972.83947
       248.393         193.552
 08  4 28 14  5 48.0000000  0  8 04 07 08 10 13 23 25 27
  23048103.271    23048103.1154   23048107.7224  121118600.450 7  94378130.91244
     -2645.880       -2061.719
  20371435.729    20371435.2464   20371437.9444  107052669.573 8  83417666.44447
       -11.298          -8.803
  21192632.777    21192632.3194   21192636.6154  111368121.261 8  86780372.85146
      2860.242        2228.761
  21992626.820    21992625.6004   21992630.3164  115572058.875 7  90056153.75745
      3246.035        2529.381
  21247396.975    21247396.7704   21247399.5444  111655850.950 8  87004576.32546
     -1609.625       -1254.253
  24090408.755    24090408.0904   24090410.5634  126595953.612 5  98646196.44842
     -2564.791       -1998.513
  21433962.514    21433962.0234   21433965.3764  112636287.380 8  87768540.45546
     -1536.264       -1197.088
  20622017.323    20622016.5814   20622020.3354  108369479.876 8  84443779.48847
       247.885         193.154
 08  4 28 14  5 49.0000000  0  8 04 07 08 10 13 23 25 27
  23048606.915    23048606.6764   23048611.2674  121121246.440 6  94380192.72244
     -2646.106       -2061.901
  20371437.918    20371437.4224   20371440.1474  107052681.167 8  83417675.48147
       -11.894          -9.270
  21192088.595    21192088.0294   21192092.3864  111365261.242 8  86778144.26546
      2859.788        2228.405
  21992009.215    21992007.8354   21992012.5254  115568812.956 7  90053624.46945
      3245.783        2529.182
  21247703.323    21247703.1074   21247705.8924  111657460.663 8  87005830.64246
     -1609.824       -1254.401
  24090896.965    24090896.1664   24090898.5294  126598518.352 5  98648194.93842
     -2564.745       -1998.498
  21434254.848    21434254.3994   21434257.7354  112637823.811 8  87769737.67546
     -1536.620       -1197.368
  20621970.163    20621969.4314   20621973.1564  108369232.228 8  84443586.51447
       247.403         192.785
 08  4 28 14  5 50.0000000  0  8 04 07 08 10 13 23 25 27
  23049110.710    23049110.2694   23049114.8434  121123892.707 7  94382254.74444
     -2646.406       -2062.128
  20371440.058    20371439.8004   20371442.4784  107052693.427 8  83417685.03547
       -12.593          -9.813
  21191544.434    21191543.9104   21191548.2384  111362401.760 8  86775916.09946
      2859.214        2227.956
  21991391.384    21991390.2334   21991394.9144  115565567.408 7  90051095.47145
      3245.362        2528.853
  21248009.693    21248009.4904   21248012.2974  111659070.671 8  87007085.19546
     -1610.156       -1254.671
  24091385.012    24091384.2874   24091386.6994  126601083.189 5  98650193.50342
     -2564.886       -1998.602
  21434547.179    21434546.8864   21434550.1804  112639360.698 8  87770935.25046
     -1537.116       -1197.753
  20621923.030    20621922.4334   20621926.1674  108368985.145 8  84443393.98547
       246.801         192.306
 08  4 28 14  5 51.0000000  0  8 04 07 08 10 13 23 25 27
  23049613.960    23049613.9554   23049618.4724  121126539.211 7  94384316.95244
     -2646.623       -2062.301
  20371442.534    20371442.2314   20371444.9124  107052706.261 8  83417695.03447
       -13.120         -10.222
  21191000.345    21190999.8364   21191004.1924  111359542.713 8  86773688.27246
      2858.829        2227.658
  21990773.829    21990772.7144   21990777.3564  115562322.116 7  90048566.67245
      3245.164        2528.699
  21248316.161    21248315.8914   21248318.7104  111660680.902 8  87008339.91946
     -1610.342       -1254.810
  24091873.729    24091872.2744   24091874.7834  126603648.126 5  98652192.17142
     -2564.986       -1998.719
  21434839.828    21434839.3854   21434842.6904  112640897.957 8  87772133.11346
     -1537.444       -1198.006
  20621875.943    20621875.4784   20621879.2744  108368738.516 8  84443201.80447
       246.402         192.006
 08  4 28 14  5 52.0000000  0  8 04 07 08 10 13 23 25 27
  23050117.973    23050117.5524   23050122.1454  121129185.931 7  94386379.33144
     -2646.828       -2062.464
  20371445.363    20371444.7734   20371447.4764  107052719.741 8  83417705.53647
       -13.804         -10.753
  21190456.495    21190455.8644   21190460.2054  111356684.155 8  86771460.82346
      2858.313        2227.260
  21990156.271    21990155.2874   21990159.8084  115559077.152 7  90046038.13245
      3244.800        2528.411
  21248622.479    21248622.3904   21248625.1314  111662291.406 8  87009594.85646
     -1610.640       -1255.043
  24092361.759    24092360.0904   24092362.8484  126606213.056 5  98654190.82442
     -2564.927       -1998.646
  21435132.394    21435131.9934   21435135.2914  112642435.651 8  87773331.31446
     -1537.912       -1198.370
  20621829.075    20621828.6554   20621832.4134  108368492.438 8  84443010.05347
       245.802         191.537
 08  4 28 14  5 53.0000000  0  8 04 07 08 10 13 23 25 27
  23050621.414    23050621.3144   23050625.9094  121131832.941 7  94388441.93944
     -2647.156       -2062.723
  20371447.904    20371447.4714   20371450.1514  107052733.851 8  83417716.53247
       -14.425         -11.244
  21189912.650    21189911.9904   21189916.3414  111353826.112 8  86769233.77846
      2857.786        2226.843
  21989539.028    21989537.7804   21989542.4194  115555832.560 7  90043509.87545
      3244.407        2528.115
  21248928.955    21248928.8984   21248931.7024  111663902.185 8  87010850.00946
     -1610.917       -1255.261
  24092849.576    24092848.6554   24092851.0424  126608778.110 5  98656189.55542
     -2565.115       -1998.770
  21435425.217    21435424.7054   21435427.9764  112643973.776 8  87774529.85046
     -1538.340       -1198.703
  20621782.528    20621781.9294   20621785.7054  108368246.871 8  84442818.70447
       245.310         191.148
 08  4 28 14  5 54.0000000  0  8 04 07 08 10 13 23 25 27
  23051125.357    23051125.1264   23051129.6144  121134480.205 7  94390504.73544
     -2647.390       -2062.890
  20371450.454    20371450.2794   20371452.9654  107052748.580 8  83417728.00947
       -15.038         -11.717
  21189368.868    21189368.2154   21189372.5914  111350968.551 8  86767007.10946
      2857.320        2226.481
  21988921.591    21988920.4484   21988925.0424  115552588.238 7  90040981.83445
      3244.186        2527.934
  21249235.362    21249235.4614   21249238.2674  111665513.223 8  87012105.36246
     -1611.167       -1255.453
  24093338.370    24093336.6594   24093339.1694  126611343.241 5  98658188.36542
     -2565.171       -1998.850
  21435718.103    21435717.4974   21435720.7504  112645512.314 8  87775728.71046
     -1538.744       -1199.022
  20621735.949    20621735.3064   20621739.0804  108368001.831 8  84442627.76147
       244.777         190.740
 08  4 28 14  5 55.0000000  0  8 04 07 08 10 13 23 25 27
  23051628.989    23051628.8764   23051633.4764  121137127.706 7  94392567.72244
     -2647.619       -2063.083
  20371453.341    20371453.1964   20371455.9254  107052763.926 8  83417739.96947
       -15.653         -12.202
  21188825.095    21188824.5364   21188828.9484  111348111.469 8  86764780.80946
      2856.843        2226.115
  21988304.463    21988303.1144   21988307.6684  115549344.257 7  90038454.05445
      3243.811        2527.649
  21249542.161    21249542.0644   21249544.8584  111667124.509 7  87013360.91146
     -1611.410       -1255.646
  24093826.786    24093824.7304   24093827.6694  126613908.437 5  98660187.21942
     -2565.228       -1998.876
  21436010.954    21436010.3414   21436013.6454  112647051.263 8  87776927.89346
     -1539.155       -1199.344
  20621689.498    20621688.7594   20621692.5484  108367757.298 8  84442437.21847
       244.280         190.342
 08  4 28 14  5 56.0000000  0  8 04 07 08 10 13 23 25 27
  23052132.939    23052132.6914   23052137.3714  121139775.463 6  94394630.90944
     -2647.885       -2063.286
  20371456.472    20371456.2244   20371458.9234  107052779.885 8  83417752.40447
       -16.267         -12.672
  21188281.581    21188280.9794   21188285.3484  111345254.873 8  86762554.89246
      2856.352        2225.725
  21987686.815    21987685.8104   21987690.5454  115546100.556 7  90035926.50345
      3243.561        2527.437
  21249848.979    21249848.7214   21249851.5814  111668736.045 8  87014616.65146
     -1611.661       -1255.837
  24094314.231    24094313.0664   24094316.0604  126616473.719 5  98662186.11842
     -2565.324       -1998.921
  21436303.802    21436303.2314   21436306.6044  112648590.620 8  87778127.39046
     -1539.560       -1199.655
  20621643.049    20621642.3344   20621646.1054  108367513.274 8  84442247.06547
       243.770         189.958
 08  4 28 14  5 57.0000000  0  8 04 07 08 10 13 23 25 27
  23052636.684    23052636.6324   23052641.1734  121142423.437 7  94396694.26344
     -2648.083       -2063.438
  20371459.579    20371459.3674   20371462.0874  107052796.439 8  83417765.30147
       -16.851         -13.129
  21187738.102    21187737.4874   21187741.8084  111342398.734 8  86760329.32746
      2855.911        2225.388
  21987069.520    21987068.5184   21987073.3604  115542857.164 7  90033399.17545
      3243.238        2527.216
  21250155.723    21250155.4354   21250158.3384  111670347.803 8  87015872.56546
     -1611.868       -1256.000
  24094801.788    24094801.0224   24094804.2944  126619038.963 5  98664185.02142
     -2565.226       -1998.906
  21436596.742    21436596.2874   21436599.5974  112650130.347 8  87779327.17846
     -1539.911       -1199.932
  20621596.587    20621595.9714   20621599.7904  108367269.730 8  84442057.29447
       243.303         189.580
 08  4 28 14  5 58.0000000  0  8 04 07 08 10 13 23 25 27
  23053140.400    23053140.4564   23053145.2294  121145071.594 6  94398757.75844
     -2648.248       -2063.565
  20371462.802    20371462.6384   20371465.3554  107052813.552 8  83417778.63847
       -17.392         -13.557
  21187194.544    21187194.0654   21187198.3864  111339543.014 8  86758104.09046
      2855.511        2225.074
  21986452.646    21986451.4404   21986456.1264  115539613.993 7  90030872.03445
      3243.060        2527.047
  21250462.422    21250462.1744   21250465.1164  111671959.784 7  87017128.65546
     -1612.093       -1256.179
  24095289.870    24095289.1304   24095292.6634  126621604.355 5  98666184.02942
     -2565.465       -1999.059
  21436889.814    21436889.3444   21436892.6914  112651670.452 8  87780527.26146
     -1540.295       -1200.231
  20621550.269    20621549.7414   20621553.5104  108367026.646 8  84441867.87647
       242.855         189.241
 08  4 28 14  5 59.0000000  0  8 04 07 08 10 13 23 25 27
  23053644.218    23053644.4884   23053649.1894  121147719.978 6  94400821.43744
     -2648.498       -2063.771
  20371466.355    20371466.0294   20371468.6804  107052831.266 8  83417792.44247
       -18.015         -14.037
  21186651.249    21186650.7144   21186655.0394  111336687.750 8  86755879.21046
      2855.035        2224.701
  21985835.538    21985834.3654   21985838.9644  115536371.141 7  90028345.13945
      3242.693        2526.772
  21250769.228    21250768.9614   21250771.8634  111673571.994 8  87018384.92146
     -1612.324       -1256.354
  24095777.768    24095777.1404   24095780.3714  126624169.726 5  98668183.01942
     -2565.361       -1998.982
  21437182.881    21437182.5224   21437185.8024  112653210.942 8  87781727.64146
     -1540.682       -1200.529
  20621503.985    20621503.5764   20621507.3444  108366784.049 8  84441678.84247
       242.353         188.843
 08  4 28 14  6  0.0000000  0  8 04 07 08 10 13 23 25 27
  23054148.210    23054148.5214   23054153.1384  121150368.688 6  94402885.35944
     -2648.873       -2064.044
  20371469.792    20371469.5384   20371472.1754  107052849.659 8  83417806.77447
       -18.732         -14.597
  21186108.029    21186107.4804   21186111.7654  111333833.043 8  86753654.76646
      2854.428        2224.225
  21985218.699    21985217.3654   21985222.0004  115533128.664 7  90025818.52945
      3242.290        2526.468
  21251075.963    21251075.7714   21251078.6874  111675184.508 8  87019641.42746
     -1612.666       -1256.626
  24096266.811    24096265.7364   24096268.4874  126626735.224 6  98670182.09342
     -2565.561       -1999.116
  21437476.206    21437475.7674   21437479.0334  112654751.906 8  87782928.39146
     -1541.201       -1200.935
  20621457.982    20621457.5184   20621461.2754  108366542.036 8  84441490.26047
       241.721         188.355
 08  4 28 14  6  1.0000000  0  8 04 07 08 10 13 23 25 27
  23054652.427    23054652.5544   23054657.1324  121153017.703 6  94404949.52244
     -2649.167       -2064.283
  20371473.299    20371473.1644   20371475.7994  107052868.726 8  83417821.63047
       -19.404         -15.118
  21185564.937    21185564.3724   21185568.6554  111330978.876 8  86751430.73946
      2853.897        2223.819
  21984601.741    21984600.3814   21984605.0684  115529886.520 7  90023292.18845
      3241.976        2526.206
  21251382.919    21251382.7494   21251385.6044  111676797.337 8  87020898.17446
     -1612.987       -1256.868
  24096754.942    24096754.3744   24096756.8794  126629300.851 5  98672181.29442
     -2565.692       -1999.265
  21437769.530    21437769.0784   21437772.3554  112656293.323 8  87784129.49246
     -1541.643       -1201.276
  20621411.847    20621411.5824   20621415.3884  108366300.583 8  84441302.11547
       241.173         187.927
 08  4 28 14  6  2.0000000  0  8 04 07 08 10 13 23 25 27
  23055156.663    23055156.7294   23055161.3014  121155666.883 6  94407013.81844
     -2649.262       -2064.363
  20371477.140    20371476.9134   20371479.5604  107052888.343 8  83417836.91647
       -19.892         -15.501
  21185021.736    21185021.3014   21185025.5894  111328125.122 8  86749207.03946
      2853.547        2223.537
  21983984.746    21983983.4174   21983988.0524  115526644.647 7  90020766.05745
      3241.738        2526.026
  21251689.893    21251689.7114   21251692.5744  111678410.371 8  87022155.08346
     -1613.136       -1256.990
  24097242.907    24097242.5554   24097244.7984  126631866.518 5  98674180.51742
     -2565.686       -1999.234
  21438062.882    21438062.4744   21438065.7724  112657835.104 8  87785330.88246
     -1541.964       -1201.534
  20621365.981    20621365.6944   20621369.5384  108366059.586 8  84441114.32547
       240.769         187.612
 08  4 28 14  6  3.0000000  0  8 04 07 08 10 13 23 25 27
  23055660.940    23055660.9324   23055665.3724  121158316.236 6  94409078.25044
     -2649.439       -2064.501
  20371480.831    20371480.7524   20371483.3924  107052908.506 8  83417852.63147
       -20.437         -15.929
  21184478.735    21184478.3634   21184482.6064  111325271.780 8  86746983.65246
      2853.135        2223.230
  21983367.671    21983366.6074   21983371.2224  115523403.035 7  90018240.12845
      3241.481        2525.828
  21251996.943    21251996.7234   21251999.5894  111680023.592 8  87023412.13546
     -1613.314       -1257.123
  24097730.409    24097730.7734   24097732.9194  126634432.170 5  98676179.70742
     -2565.645       -1999.173
  21438356.388    21438355.9774   21438359.1934  112659377.233 7  87786532.54046
     -1542.302       -1201.792
  20621320.327    20621319.9454   20621323.7334  108365819.034 8  84440926.88447
       240.331         187.266
 08  4 28 14  6  4.0000000  0  8 04 07 08 10 13 23 25 27
  23056165.497    23056165.1854   23056169.4864  121160965.892 6  94411142.91144
     -2649.807       -2064.775
  20371484.597    20371484.7424   20371487.3514  107052929.336 8  83417868.86047
       -21.163         -16.487
  21183935.789    21183935.4744   21183939.7644  111322418.968 8  86744760.68446
      2852.548        2222.758
  21982750.765    21982749.9134   21982754.5564  115520161.770 7  90015714.46845
      3241.091        2525.526
  21252304.001    21252303.6924   21252306.6104  111681637.108 7  87024669.42346
     -1613.664       -1257.405
  24098218.548    24098219.0244   24098221.3364  126636997.955 5  98678179.01842
     -2565.851       -1999.370
  21438649.934    21438649.4904   21438652.7254  112660919.808 7  87787734.55046
     -1542.799       -1202.185
  20621274.642    20621274.2744   20621278.0524  108365579.023 8  84440739.86147
       239.740         186.814
 08  4 28 14  6  5.0000000  0  8 04 07 08 10 13 23 25 27
  23056669.704    23056669.4664   23056673.9324  121163615.822 7  94413207.79844
     -2650.067       -2065.000
  20371488.875    20371488.8194   20371491.4484  107052950.798 8  83417885.58347
       -21.778         -16.970
  21183393.040    21183392.7094   21183396.9894  111319566.677 8  86742538.11946
      2852.030        2222.364
  21982133.911    21982133.1354   21982137.8064  115516920.833 7  90013189.06045
      3240.773        2525.281
  21252611.136    21252610.8184   21252613.7084  111683250.883 8  87025926.91446
     -1613.904       -1257.593
  24098706.801    24098706.9024   24098709.5974  126639563.811 5  98680178.39042
     -2565.892       -1999.403
  21438943.510    21438943.0824   21438946.4024  112662462.804 8  87788936.88246
     -1543.205       -1202.494
  20621229.193    20621228.7204   20621232.4744  108365339.558 8  84440553.26847
       239.191         186.379
 08  4 28 14  6  6.0000000  0  8 04 07 08 10 13 23 25 27
  23057173.942    23057173.7904   23057178.2534  121166265.957 6  94415272.83844
     -2650.239       -2065.116
  20371493.018    20371493.0304   20371495.6494  107052972.857 8  83417902.77347
       -22.358         -17.423
  21182850.346    21182850.0364   21182854.3404  111316714.831 8  86740315.89946
      2851.624        2222.046
  21981517.442    21981516.4764   21981521.0974  115513680.205 7  90010663.89845
      3240.474        2525.040
  21252918.244    21252917.9804   21252920.7784  111684864.911 8  87027184.59646
     -1614.153       -1257.778
  24099195.154    24099195.1394   24099197.8974  126642129.717 6  98682177.78642
     -2565.930       -1999.408
  21439237.245    21439236.7754   21439240.0554  112664006.207 8  87790139.52946
     -1543.607       -1202.803
  20621183.706    20621183.2314   20621186.9824  108365100.584 8  84440367.05147
       238.730         186.028
 08  4 28 14  6  7.0000000  0  8 04 07 08 10 13 23 25 27
  23057678.125    23057678.0404   23057682.6144  121168916.339 7  94417338.06844
     -2650.504       -2065.325
  20371497.451    20371497.3444   20371499.9274  107052995.527 8  83417920.43347
       -22.974         -17.896
  21182307.995    21182307.4064   21182311.7254  111313863.460 8  86738094.05346
      2851.134        2221.659
  21980900.704    21980899.8054   21980904.4564  115510439.863 7  90008138.95845
      3240.198        2524.829
  21253225.530    21253225.2164   21253227.9984  111686479.167 8  87028442.45546
     -1614.371       -1257.947
  24099683.584    24099683.3984   24099686.4644  126644695.671 5  98684177.23942
     -2565.977       -1999.481
  21439530.967    21439530.5544   21439533.8594  112665549.989 8  87791342.47746
     -1543.971       -1203.100
  20621138.308    20621137.8714   20621141.6034  108364862.110 8  84440181.22647
       238.223         185.629
 08  4 28 14  6  8.0000000  0  8 04 07 08 10 13 23 25 27
  23058182.582    23058182.4664   23058186.9344  121171567.000 7  94419403.51444
     -2650.801       -2065.555
  20371501.794    20371501.7804   20371504.3834  107053018.829 8  83417938.59147
       -23.618         -18.406
  21181765.455    21181764.8934   21181769.1894  111311012.588 8  86735872.59746
      2850.622        2221.261
  21980284.376    21980283.3334   21980288.0004  115507199.870 7  90005614.28645
      3239.819        2524.538
  21253532.647    21253532.4804   21253535.2404  111688093.720 8  87029700.54846
     -1614.702       -1258.211
  24100172.308    24100171.8984   24100174.6574  126647261.766 5  98686176.78342
     -2566.166       -1999.591
  21439824.968    21439824.4184   21439827.6774  112667094.224 8  87792545.78146
     -1544.462       -1203.481
  20621093.087    20621092.5914   20621096.3244  108364624.161 8  84439995.81347
       237.686         185.208
 08  4 28 14  6  9.0000000  0  8 04 07 08 10 13 23 25 27
  23058686.847    23058686.9574   23058691.2034  121174217.899 7  94421469.15144
     -2651.018       -2065.732
  20371506.319    20371506.3094   20371508.9144  107053042.763 8  83417957.24347
       -24.251         -18.899
  21181223.208    21181222.4684   21181226.7094  111308162.210 8  86733651.52646
      2850.131        2220.879
  21979667.917    21979666.9574   21979671.3854  115503960.168 7  90003089.84445
      3239.556        2524.327
  21253839.890    21253839.7564   21253842.5674  111689708.521 8  87030958.83446
     -1614.924       -1258.381
  24100661.165    24100660.2024   24100662.5124  126649827.900 6  98688176.37242
     -2566.153       -1999.610
  21440118.738    21440118.3514   21440121.6314  112668638.872 8  87793749.40046
     -1544.854       -1203.777
  20621047.965    20621047.3924   20621051.1574  108364386.741 8  84439810.81247
       237.155         184.794
 08  4 28 14  6 10.0000000  0  8 04 07 08 10 13 23 25 27
  23059191.350    23059191.4734   23059195.5894  121176869.023 7  94423534.95944
     -2651.235       -2065.893
  20371511.136    20371510.9904   20371513.6144  107053067.290 8  83417976.35347
       -24.823         -19.338
  21180680.776    21180680.1224   21180684.4124  111305312.297 8  86731430.81746
      2849.681        2220.528
  21979051.199    21979050.4734   21979054.9654  115500720.756 7  90000565.62345
      3239.267        2524.111
  21254147.233    21254147.1124   21254149.9174  111691323.554 8  87032217.30146
     -1615.149       -1258.559
  24101149.251    24101148.7534   24101151.0474  126652394.095 6  98690176.00542
     -2566.227       -1999.655
  21440412.734    21440412.3404   21440415.6244  112670183.899 8  87794953.31546
     -1545.216       -1204.062
  20621002.885    20621002.3004   20621006.0534  108364149.804 8  84439626.18647
       236.695         184.439
 08  4 28 14  6 11.0000000  0  8 04 07 08 10 13 23 25 27
  23059696.098    23059696.1334   23059700.0834  121179520.452 7  94425601.01144
     -2651.583       -2066.175
  20371515.980    20371515.8184   20371518.3564  107053092.511 8  83417996.00547
       -25.568         -19.924
  21180138.513    21180137.9184   21180142.1944  111302462.941 8  86729210.53946
      2849.078        2220.062
  21978435.169    21978434.1824   21978438.5914  115497481.774 7  89998041.74245
      3238.767        2523.710
  21254454.656    21254454.5124   21254457.2494  111692938.931 8  87033476.03346
     -1615.548       -1258.864
  24101637.509    24101637.0624   24101639.8634  126654960.419 6  98692175.74142
     -2566.388       -1999.788
  21440706.757    21440706.4614   21440709.7114  112671729.419 8  87796157.61946
     -1545.766       -1204.498
  20620957.978    20620957.3184   20620961.1214  108363913.452 8  84439442.01647
       236.059         183.941
 08  4 28 14  6 12.0000000  0  8 04 07 08 10 13 23 25 27
  23060200.323    23060200.7564   23060204.8664  121182172.066 6  94427667.20044
     -2651.706       -2066.256
  20371521.034    20371520.7274   20371523.2684  107053118.278 8  83418016.08347
       -26.040         -20.291
  21179596.361    21179595.7754   21179600.0814  111299613.993 8  86726990.58046
      2848.743        2219.800
  21977818.977    21977817.7644   21977822.2774  115494242.994 7  89995518.01745
      3238.679        2523.648
  21254762.001    21254761.8944   21254764.7184  111694554.491 8  87034734.91246
     -1615.653       -1258.952
  24102126.171    24102125.5604   24102128.4224  126657526.779 6  98694175.49242
     -2566.377       -1999.759
  21441000.901    21441000.6424   21441003.8574  112673275.281 8  87797362.18446
     -1546.033       -1204.696
  20620913.141    20620912.4244   20620916.2374  108363677.543 8  84439258.18947
       235.689         183.655
 08  4 28 14  6 13.0000000  0  8 04 07 08 10 13 23 25 27
  23060705.192    23060705.2194   23060709.5164  121184823.927 7  94429733.58344
     -2651.984       -2066.481
  20371526.076    20371525.7284   20371528.2914  107053144.650 8  83418036.63447
       -26.675         -20.787
  21179054.318    21179053.7454   21179058.0234  111296765.523 8  86724770.99146
      2848.232        2219.404
  21977202.630    21977201.5204   21977206.1064  115491004.544 7  89992994.55045
      3238.284        2523.337
  21255069.432    21255069.3414   21255072.1884  111696170.275 7  87035993.96646
     -1615.896       -1259.141
  24102614.588    24102614.1004   24102616.8234  126660093.177 6  98696175.26542
     -2566.417       -1999.784
  21441295.125    21441294.8474   21441298.0874  112674821.540 8  87798567.06046
     -1546.457       -1205.031
  20620868.308    20620867.6544   20620871.4304  108363442.138 8  84439074.75647
       235.151         183.236
 08  4 28 14  6 14.0000000  0  8 04 07 08 10 13 23 25 27
  23061209.677    23061209.8304   23061214.3284  121187476.021 7  94431800.14444
     -2652.212       -2066.650
  20371531.288    20371530.8934   20371533.4204  107053171.615 8  83418057.64547
       -27.261         -21.242
  21178512.258    21178511.7794   21178516.1114  111293917.504 8  86722551.75746
      2847.793        2219.057
  21976586.577    21976585.3254   21976589.9204  115487766.366 7  89990471.28945
      3238.042        2523.157
  21255376.823    21255376.8784   21255379.7144  111697786.310 8  87037253.21146
     -1616.159       -1259.341
  24103102.663    24103102.4964   24103105.2524  126662659.613 6  98698175.09742
     -2566.456       -1999.861
  21441589.477    21441589.1594   21441592.4064  112676368.186 8  87799772.23746
     -1546.839       -1205.328
  20620823.490    20620822.9454   20620826.7484  108363207.216 8  84438891.69847
       234.682         182.870
 08  4 28 14  6 15.0000000  0  8 04 07 08 10 13 23 25 27
  23061714.691    23061714.4764   23061719.0564  121190128.304 7  94433866.86244
     -2652.377       -2066.795
  20371536.353    20371536.1154   20371538.6604  107053199.170 8  83418079.12047
       -27.851         -21.707
  21177970.399    21177969.8754   21177974.2614  111291069.940 8  86720332.87846
      2847.336        2218.702
  21975970.420    21975969.0614   21975973.8174  115484528.472 7  89987948.26145
      3237.753        2522.912
  21255684.499    21255684.4184   21255687.2934  111699402.571 8  87038512.63746
     -1616.375       -1259.516
  24103591.127    24103590.8814   24103593.4854  126665226.093 6  98700174.95042
     -2566.501       -1999.865
  21441883.894    21441883.5844   21441886.8204  112677915.222 8  87800977.71946
     -1547.231       -1205.634
  20620778.861    20620778.3374   20620782.1094  108362972.778 8  84438709.02047
       234.195         182.488
 08  4 28 14  6 16.0000000  0  8 04 07 08 10 13 23 25 27
  23062219.369    23062219.2654   23062223.9194  121192780.893 7  94435933.80544
     -2652.741       -2067.056
  20371541.757    20371541.4774   20371544.0324  107053227.359 8  83418101.08347
       -28.506         -22.206
  21177428.718    21177428.0684   21177432.4674  111288222.888 8  86718114.39446
      2846.796        2218.286
  21975354.339    21975352.9274   21975357.6944  115481290.896 7  89985425.48145
      3237.417        2522.656
  21255992.049    21255992.0014   21255994.8964  111701019.098 8  87039772.26646
     -1616.660       -1259.731
  24104079.665    24104079.3044   24104082.1444  126667792.656 6  98702174.85942
     -2566.606       -1999.935
  21442178.208    21442178.0744   21442181.3234  112679462.668 8  87802183.52246
     -1547.651       -1205.963
  20620734.338    20620733.8274   20620737.5624  108362738.867 8  84438526.75347
       233.648         182.061
 08  4 28 14  6 17.0000000  0  8 04 07 08 10 13 23 25 27
  23062724.007    23062724.1944   23062728.5254  121195433.651 6  94438000.88744
     -2652.842       -2067.151
  20371547.219    20371546.9424   20371549.4984  107053256.127 8  83418123.50047
       -29.058         -22.645
  21176887.010    21176886.3504   21176890.7724  111285376.276 8  86715896.25646
      2846.393        2217.965
  21974738.367    21974736.9164   21974741.6064  115478053.609 7  89982902.91945
      3237.141        2522.454
  21256299.794    21256299.6604   21256302.5014  111702635.854 8  87041032.07446
     -1616.870       -1259.897
  24104568.144    24104567.6214   24104570.6624  126670359.279 6  98704174.82542
     -2566.653       -1999.995
  21442472.847    21442472.6124   21442475.8634  112681010.506 8  87803389.63046
     -1548.035       -1206.261
  20620689.876    20620689.3844   20620693.1604  108362505.428 8  84438344.85647
       233.202         181.713
 08  4 28 14  6 18.0000000  0  8 04 07 08 10 13 23 25 27
  23063228.963    23063229.0654   23063233.3134  121198086.641 6  94440068.15344
     -2653.106       -2067.358
  20371552.873    20371552.5354   20371555.0864  107053285.506 8  83418146.39547
       -29.684         -23.133
  21176345.330    21176344.7804   21176349.1584  111282530.149 8  86713678.49446
      2845.883        2217.574
  21974122.107    21974120.9144   21974125.5954  115474816.634 7  89980380.60245
      3236.820        2522.195
  21256607.586    21256607.3204   21256610.1404  111704252.849 8  87042292.07346
     -1617.116       -1260.095
  24105056.138    24105056.2704   24105058.8714  126672925.958 6  98706174.83942
     -2566.707       -2000.039
  21442767.480    21442767.2434   21442770.5164  112682558.741 8  87804596.04746
     -1548.433       -1206.570
  20620645.725    20620645.0374   20620648.8274  108362272.501 8  84438163.35347
       232.671         181.305
 08  4 28 14  6 19.0000000  0  8 04 07 08 10 13 23 25 27
  23063734.117    23063733.9344   23063738.2054  121200739.857 6  94442135.59344
     -2653.329       -2067.528
  20371558.412    20371558.2504   20371560.7764  107053315.492 8  83418169.76347
       -30.291         -23.605
  21175803.864    21175803.2924   21175807.5934  111279684.498 8  86711461.10046
      2845.414        2217.208
  21973506.201    21973505.0184   21973509.7184  115471579.951 7  89977858.51345
      3236.536        2521.975
  21256915.330    21256915.0704   21256917.9234  111705870.097 8  87043552.26446
     -1617.373       -1260.287
  24105544.200    24105544.4434   24105547.1344  126675492.675 6  98708174.87042
     -2566.736       -2000.040
  21443062.144    21443061.9354   21443065.2094  112684107.377 8  87805802.77546
     -1548.837       -1206.884
  20620601.524    20620600.7994   20620604.5784  108362040.084 8  84437982.24947
       232.161         180.905
 08  4 28 14  6 20.0000000  0  8 04 07 08 10 13 23 25 27
  23064239.054    23064238.9164   23064243.1514  121203393.341 6  94444203.24244
     -2653.618       -2067.753
  20371564.257    20371564.0654   20371566.6144  107053346.088 8  83418193.60147
       -30.900         -24.073
  21175262.430    21175261.8624   21175266.2204  111276839.329 8  86709244.08446
      2844.927        2216.827
  21972890.205    21972889.1484   21972893.8454  115468343.590 7  89975336.66845
      3236.200        2521.723
  21257223.161    21257222.9214   21257225.7324  111707487.584 8  87044812.64246
     -1617.607       -1260.470
  24106032.712    24106033.0274   24106035.5544  126678059.461 6  98710174.96642
     -2566.822       -2000.127
  21443357.021    21443356.7094   21443359.9334  112685656.395 8  87807009.80046
     -1549.208       -1207.174
  20620557.303    20620556.6734   20620560.4424  108361808.165 8  84437801.53147
       231.671         180.525
 08  4 28 14  6 21.0000000  0  9 04 07 08 10 13 23 24 25 27
  23064743.989    23064743.8014   23064748.1134  121206046.999 6  94446271.02944
     -2653.744       -2067.857
  20371570.221    20371570.0234   20371572.5504  107053377.257 8  83418217.89247
       -31.456         -24.517
  21174720.950    21174720.5394   21174724.9074  111273994.577 8  86707027.39546
      2844.543        2216.526
  21972274.299    21972273.3564   21972278.0914  115465107.524 7  89972815.05845
      3235.919        2521.491
  21257530.990    21257530.7534   21257533.5564  111709105.307 8  87046073.20346
     -1617.841       -1260.653
  24106521.253    24106521.2124   24106524.0384  126680626.284 6  98712175.10142
     -2566.840       -2000.155
  25158067.698                                   132206504.559 4
      3217.050
  21443652.121    21443651.5144   21443654.8244  112687205.806 8  87808217.13446
     -1549.608       -1207.488
  20620513.348    20620512.6374   20620516.4224  108361576.717 8  84437621.18247
       231.213         180.165
 08  4 28 14  6 22.0000000  0  9 04 07 08 10 13 23 24 25 27
  23065249.183    23065248.9604   23065253.2564  121208701.021 7  94448339.09444
     -2654.205       -2068.203
  20371576.495    20371576.1024   20371578.5964  107053409.144 8  83418242.73547
       -32.245         -25.120
  21174179.676    21174179.3074   21174183.6614  111271150.420 8  86704811.17146
      2843.860        2215.991
  21971658.669    21971657.6754   21971662.3834  115461871.821 7  89970293.73145
      3235.520        2521.187
  21257838.886    21257838.6504   21257841.5414  111710723.367 8  87047334.02846
     -1618.228       -1260.957
  24107009.805    24107009.4624   24107012.7084  126683193.286 6  98714175.35142
     -2567.092       -2000.307
  25157453.599                                   132203285.356 4
      3219.203
  21443947.060    21443946.4434   21443949.7914  112688755.702 8  87809424.84446
     -1550.139       -1207.898
  20620469.408    20620468.7214   20620472.5234  108361345.873 8  84437441.30247
       230.541         179.645
 08  4 28 14  6 23.0000000  0  9 04 07 08 10 13 23 24 25 27
  23065754.071    23065753.8354   23065758.2444  121211355.197 7  94450407.28044
     -2654.253       -2068.248
  20371582.572    20371582.2684   20371584.7984  107053441.554 8  83418267.99147
       -32.673         -25.462
  21173638.599    21173638.1354   21173642.5084  111268306.669 8  86702595.26546
      2843.549        2215.748
  21971043.046    21971042.0054   21971046.6354  115458636.350 7  89967772.58445
      3235.356        2521.057
  21258146.851    21258146.5404   21258149.5124  111712341.587 8  87048594.97846
     -1618.301       -1261.013
  24107498.613    24107498.1014   24107500.9874  126685760.240 6  98716175.57042
     -2566.930       -2000.205
  25156840.960                                   132200066.515 5
      3218.660
  21444242.022    21444241.4414   21444244.7704  112690305.929 8  87810632.81046
     -1550.392       -1208.093
  20620425.623    20620424.8704   20620428.6674  108361115.458 8  84437261.75747
       230.201         179.377
 08  4 28 14  6 24.0000000  0  9 04 07 08 10 13 23 24 25 27
  23066259.444    23066259.0264   23066263.3824  121214009.604 7  94452475.65044
     -2654.522       -2068.460
  20371588.843    20371588.5674   20371591.0734  107053474.578 8  83418293.72247
       -33.331         -25.968
  21173097.567    21173097.0994   21173101.4474  111265463.388 8  86700379.72446
      2843.044        2215.357
  21970427.372    21970426.3364   21970431.1174  115455401.232 7  89965251.71445
      3234.941        2520.732
  21258454.975    21258454.5264   21258457.4644  111713960.069 8  87049856.13746
     -1618.613       -1261.264
  24107987.188    24107986.7724   24107989.2714  126688327.288 6  98718175.87342
     -2567.095       -2000.344
  25156228.618                                   132196847.991 5
      3218.365
  21444537.048    21444536.5194   21444539.8634  112691856.567 8  87811841.10146
     -1550.844       -1208.454
  20620381.811    20620381.1124   20620384.9484  108360885.538 8  84437082.60147
       229.671         178.962
 08  4 28 14  6 25.0000000  0  9 04 07 08 10 13 23 24 25 27
  23066764.377    23066764.2234   23066768.7034  121216664.242 7  94454544.19244
     -2654.753       -2068.629
  20371595.260    20371594.9664   20371597.4664  107053508.215 8  83418319.93247
       -33.943         -26.450
  21172556.611    21172556.1144   21172560.4384  111262620.593 8  86698164.56346
      2842.552        2214.972
  21969811.782    21969810.7424   21969815.5064  115452166.396 7  89962731.06345
      3234.695        2520.540
  21258762.966    21258762.5854   21258765.4594  111715578.780 8  87051117.47046
     -1618.826       -1261.421
  24108475.510    24108475.2424   24108477.7874  126690894.398 5  98720176.20442
     -2567.140       -2000.346
  25155616.043                                   132193629.754 4
      3218.094
  21444832.238    21444831.6654   21444835.0094  112693407.602 8  87813049.69946
     -1551.233       -1208.752
  20620338.129    20620337.4694   20620341.2874  108360656.137 8  84436903.84847
       229.142         178.551
 08  4 28 14  6 26.0000000  0  9 04 07 08 10 13 23 24 25 27
  23067269.664    23067269.4454   23067273.9164  121219319.122 7  94456612.93244
     -2655.002       -2068.838
  20371601.641    20371601.4724   20371603.9874  107053542.430 8  83418346.59547
       -34.505         -26.888
  21172015.873    21172015.2194   21172019.6004  111259778.244 8  86695949.74346
      2842.126        2214.649
  21969196.341    21969195.2794   21969199.9794  115448931.836 7  89960210.63245
      3234.423        2520.322
  21259070.933    21259070.6894   21259073.5414  111717197.742 8  87052378.99746
     -1619.087       -1261.624
  24108963.861    24108963.9324   24108966.2924  126693461.581 6  98722176.60142
     -2567.221       -2000.429
  25155003.735                                   132190411.997 4
      3217.517
  21445127.389    21445126.9154   21445130.2074  112694959.022 8  87814258.60046
     -1551.612       -1209.052
  20620294.486    20620293.9064   20620297.6974  108360427.199 8  84436725.45647
       228.707         178.212
 08  4 28 14  6 27.0000000  0  9 04 07 08 10 13 23 24 25 27
  23067775.107    23067774.6384   23067779.3244  121221974.255 7  94458681.86444
     -2655.259       -2069.028
  20371608.315    20371608.1034   20371610.6214  107053577.298 8  83418373.76047
       -35.194         -27.418
  21171475.038    21171474.4904   21171478.7854  111256936.409 8  86693735.32746
      2841.578        2214.213
  21968580.805    21968579.9114   21968584.4924  115445697.625 7  89957690.47045
      3234.036        2520.027
  21259378.986    21259378.7594   21259381.7254  111718816.953 8  87053640.71646
     -1619.335       -1261.814
  24109452.582    24109452.3894   24109454.7974  126696028.785 6  98724177.01642
     -2567.214       -2000.425
  25154391.083                                   132187194.463 5
      3217.422
  21445422.715    21445422.2114   21445425.4964  112696510.860 8  87815467.82646
     -1552.047       -1209.390
  20620250.903    20620250.4574   20620254.2204  108360198.810 8  84436547.48947
       228.114         177.755
 08  4 28 14  6 28.0000000  0  9 04 07 08 10 13 23 24 25 27
  23068280.211    23068279.9404   23068284.6154  121224629.648 6  94460751.00644
     -2655.523       -2069.247
  20371615.085    20371614.8834   20371617.3674  107053612.813 8  83418401.43747
       -35.839         -27.931
  21170934.476    21170933.8024   21170938.1064  111254095.084 8  86691521.30546
      2841.070        2213.825
  21967965.336    21967964.5524   21967969.0864  115442463.743 7  89955170.56445
      3233.717        2519.779
  21259687.160    21259686.9894   21259689.9224  111720436.464 8  87054902.67446
     -1619.661       -1262.078
  24109941.158    24109940.9164   24109943.5774  126698596.150 6  98726177.56442
     -2567.446       -2000.614
  25153778.099                                   132183977.384 5
      3216.851
  21445718.079    21445717.6244   21445720.8824  112698063.155 8  87816677.40646
     -1552.524       -1209.756
  20620207.567    20620207.1084   20620210.8434  108359970.955 8  84436369.94047
       227.588         177.339
 08  4 28 14  6 29.0000000  0  9 04 07 08 10 13 23 24 25 27
  23068785.454    23068785.3614   23068790.0564  121227285.270 7  94462820.31644
     -2655.737       -2069.394
  20371621.886    20371621.7484   20371624.2294  107053648.906 8  83418429.56347
       -36.382         -28.352
  21170393.905    21170393.2054   21170397.5084  111251254.217 8  86689307.64346
      2840.638        2213.483
  21967349.837    21967349.3014   21967353.7344  115439230.139 7  89952650.87345
      3233.464        2519.583
  21259995.388    21259995.2354   21259998.1434  111722056.184 8  87056164.79446
     -1619.825       -1262.201
  24110429.842    24110429.0304   24110432.3774  126701163.536 5  98728178.12442
     -2567.396       -2000.566
  25153166.300                                   132180760.668 5
      3216.536
  21446013.484    21446013.0954   21446016.3244  112699615.815 8  87817887.26946
     -1552.842       -1210.005
  20620164.360    20620163.8084   20620167.5554  108359743.570 8  84436192.75947
       227.150         176.998
 08  4 28 14  6 30.0000000  0  9 04 07 08 10 13 23 24 25 27
  23069290.959    23069290.7634   23069295.3694  121229941.167 7  94464889.84744
     -2656.034       -2069.641
  20371629.000    20371628.7364   20371631.2304  107053685.659 8  83418458.20247
       -37.082         -28.895
  21169853.429    21169852.6884   21169856.9904  111248413.867 8  86687094.38646
      2840.092        2213.054
  21966734.517    21966734.0734   21966738.5494  115435996.908 7  89950131.46745
      3233.045        2519.262
  21260303.738    21260303.5034   21260306.3614  111723676.198 8  87057427.14346
     -1620.161       -1262.463
  24110918.958    24110917.5744   24110920.9174  126703731.014 6  98730178.76142
     -2567.524       -2000.676
  25152554.087                                   132177544.370 5
      3216.088
  21446308.937    21446308.6164   21446311.8074  112701168.921 8  87819097.48046
     -1553.329       -1210.385
  20620121.181    20620120.6784   20620124.4084  108359516.741 8  84436016.00747
       226.552         176.537
 08  4 28 14  6 31.0000000  0  9 04 07 08 10 13 23 24 25 27
  23069796.596    23069796.1754   23069800.7544  121232597.258 7  94466959.52544
     -2656.187       -2069.752
  20371635.959    20371635.8314   20371638.3434  107053722.998 8  83418487.29947
       -37.633         -29.325
  21169312.852    21169312.2694   21169316.5964  111245573.977 8  86684881.47846
      2839.659        2212.733
  21966119.615    21966118.8484   21966123.2374  115432763.944 7  89947612.27045
      3232.830        2519.094
  21260612.124    21260611.7984   21260614.6864  111725296.443 8  87058689.67346
     -1620.360       -1262.620
  24111407.758    24111406.3014   24111409.3644  126706298.546 6  98732179.42242
     -2567.560       -2000.672
  25151941.698                                   132174328.373 5
      3215.846
  21446604.621    21446604.2224   21446607.4764  112702722.413 8  87820307.99446
     -1553.685       -1210.665
  20620078.028    20620077.5864   20620081.3594  108359290.396 8  84435839.63547
       226.102         176.182
 08  4 28 14  6 32.0000000  0  9 04 07 08 10 13 23 24 25 27
  23070301.590    23070301.7794   23070306.3414  121235253.575 6  94469029.38144
     -2656.431       -2069.944
  20371643.337    20371643.0684   20371645.5834  107053760.920 8  83418516.84847
       -38.212         -29.776
  21168772.484    21168771.9684   21168776.2734  111242734.534 8  86682668.92746
      2839.221        2212.373
  21965504.415    21965503.7534   21965507.9744  115429531.272 7  89945093.30645
      3232.527        2518.846
  21260920.552    21260920.1334   21260923.0714  111726916.902 8  87059952.36646
     -1620.566       -1262.775
  24111896.680    24111894.8424   24111898.1244  126708866.110 6  98734180.12342
     -2567.579       -2000.721
  25151329.670                                   132171112.696 5
      3215.517
  21446900.346    21446899.9464   21446903.1654  112704276.271 8  87821518.79346
     -1554.042       -1210.942
  20620035.107    20620034.6254   20620038.3824  108359064.528 8  84435663.63347
       225.630         175.816
 08  4 28 14  6 33.0000000  0  9 04 07 08 10 13 23 24 25 27
  23070807.223    23070807.3054   23070812.0244  121237910.142 7  94471099.42744
     -2656.692       -2070.142
  20371650.746    20371650.4044   20371652.9184  107053799.454 8  83418546.87447
       -38.841         -30.264
  21168232.245    21168231.6644   21168236.0654  111239895.570 8  86680456.74746
      2838.724        2211.993
  21964889.465    21964888.5274   21964892.9064  115426298.901 7  89942574.58045
      3232.220        2518.608
  21261228.876    21261228.5254   21261231.4984  111728537.613 7  87061215.25546
     -1620.838       -1262.986
  24112385.076    24112383.2524   24112386.3834  126711433.729 6  98736180.86342
     -2567.647       -2000.759
  25150717.552                                   132167897.401 5
      3215.104
  21447196.118    21447195.7384   21447198.9394  112705830.544 8  87822729.91446
     -1554.480       -1211.281
  20619992.228    20619991.7084   20619995.5024  108358839.166 8  84435488.02847
       225.109         175.408
 08  4 28 14  6 34.0000000  0  9 04 07 08 10 13 23 24 25 27
  23071312.901    23071312.8314   23071317.4664  121240566.952 7  94473169.66844
     -2656.931       -2070.338
  20371658.129    20371657.8674   20371660.3754  107053838.637 8  83418577.40447
       -39.507         -30.781
  21167692.094    21167691.5194   21167695.9164  111237057.112 8  86678244.96346
      2838.205        2211.587
  21964274.582    21964273.4614   21964277.8394  115423066.872 7  89940056.11445
      3231.857        2518.334
  21261537.394    21261536.9794   21261540.0034  111730158.601 8  87062478.35846
     -1621.126       -1263.210
  24112873.467    24112871.9824   24112875.1354  126714001.404 6  98738181.65442
     -2567.702       -2000.816
  25150105.385                                   132164682.453 5
      3214.774
  21447491.914    21447491.5294   21447494.7954  112707385.245 8  87823941.36746
     -1554.914       -1211.619
  20619949.429    20619948.9314   20619952.7244  108358614.344 8  84435312.84347
       224.552         174.975
 08  4 28 14  6 35.0000000  0  9 04 07 08 10 13 23 24 25 27
  23071818.610    23071818.4304   23071823.0324  121243224.014 6  94475240.10844
     -2657.188       -2070.540
  20371665.654    20371665.4574   20371667.9704  107053878.407 8  83418608.39147
       -40.063         -31.215
  21167152.070    21167151.4244   21167155.8614  111234219.124 8  86676033.54746
      2837.753        2211.232
  21963659.582    21963658.4814   21963662.7604  115419835.135 7  89937537.87545
      3231.591        2518.127
  21261845.788    21261845.5264   21261848.4744  111731779.834 8  87063741.66046
     -1621.355       -1263.401
  24113362.070    24113360.7204   24113363.7894  126716569.200 5  98740182.53142
     -2567.857       -2000.921
  25149493.848                                   132161467.927 5
      3214.314
  21447787.796    21447787.4364   21447790.6934  112708940.340 8  87825153.12846
     -1555.292       -1211.915
  20619906.813    20619906.2414   20619910.0594  108358390.000 8  84435138.03047
       224.105         174.627
 08  4 28 14  6 36.0000000  0  9 04 07 08 10 13 23 24 25 27
  23072324.501    23072324.0474   23072328.7214  121245881.260 6  94477310.68944
     -2657.339       -2070.651
  20371673.251    20371673.1344   20371675.6384  107053918.747 8  83418639.82647
       -40.625         -31.660
  21166612.019    21166611.4764   21166615.9144  111231381.570 8  86673822.46546
      2837.337        2210.914
  21963044.708    21963043.4934   21963047.9344  115416603.685 7  89935019.86145
      3231.306        2517.901
  21262154.388    21262154.1264   21262157.0074  111733401.281 8  87065005.12246
     -1621.554       -1263.543
  24113850.680    24113849.2764   24113852.4104  126719137.023 5  98742183.43242
     -2567.835       -2000.912
  25148882.355                                   132158253.682 5
      3214.105
  21448083.750    21448083.4504   21448086.6984  112710495.796 8  87826365.17246
     -1555.637       -1212.185
  20619864.201    20619863.6594   20619867.4444  108358166.122 8  84434963.57847
       223.644         174.270
 08  4 28 14  6 37.0000000  0  9 04 07 08 10 13 23 24 25 27
  23072830.141    23072829.7514   23072834.3754  121248538.727 6  94479381.44644
     -2657.577       -2070.845
  20371681.114    20371680.9314   20371683.4224  107053959.704 8  83418671.74447
       -41.266         -32.159
  21166072.131    21166071.5894   21166076.0024  111228544.514 8  86671611.77146
      2836.807        2210.500
  21962429.637    21962428.6364   21962433.1494  115413372.514 7  89932502.06445
      3231.032        2517.688
  21262462.927    21262462.7314   21262465.5724  111735022.973 8  87066268.77646
     -1621.815       -1263.749
  24114338.806    24114337.7674   24114340.9284  126721704.872 5  98744184.34642
     -2567.862       -2000.920
  25148271.318                                   132155039.729 5
      3213.805
  21448379.724    21448379.5444   21448382.8064  112712051.656 8  87827577.53146
     -1556.061       -1212.517
  20619821.807    20619821.1624   20619824.9344  108357942.770 8  84434789.53847
       223.089         173.835
 08  4 28 14  6 38.0000000  0  9 04 07 08 10 13 23 24 25 27
  23073335.523    23073335.4264   23073340.1744  121251196.386 7  94481452.34944
     -2657.755       -2070.976
  20371688.897    20371688.8594   20371691.2964  107054001.230 8  83418704.10247
       -41.811         -32.577
  21165532.357    21165531.8124   21165536.1484  111225707.885 8  86669401.41246
      2836.415        2210.192
  21961814.906    21961813.8344   21961818.3594  115410141.642 7  89929984.50745
      3230.722        2517.437
  21262771.569    21262771.3264   21262774.2234  111736644.881 8  87067532.60046
     -1622.016       -1263.909
  24114827.290    24114826.6124   24114829.7304  126724272.783 5  98746185.32842
     -2567.942       -2001.016
  25147660.379                                   132151826.174 5
      3213.357
  21448675.852    21448675.6264   21448678.9254  112713607.889 8  87828790.17946
     -1556.420       -1212.792
  20619779.284    20619778.7774   20619782.5134  108357719.874 8  84434615.85447
       222.668         173.506
 08  4 28 14  6 39.0000000  0  9 04 07 08 10 13 23 24 25 27
  23073841.509    23073841.2604   23073845.8914  121253854.316 7  94483523.45844
     -2658.065       -2071.211
  20371696.921    20371696.8994   20371699.3344  107054043.376 8  83418736.94347
       -42.455         -33.082
  21164992.770    21164992.1354   21164996.4514  111222871.751 8  86667191.43846
      2835.887        2209.782
  21961200.189    21961199.0784   21961203.7074  115406911.097 7  89927467.20245
      3230.382        2517.179
  21263080.330    21263080.0544   21263082.9114  111738267.044 8  87068796.62146
     -1622.289       -1264.119
  24115316.245    24115315.4094   24115318.3534  126726840.768 6  98748186.34842
     -2568.023       -2001.038
  25147049.114                                   132148612.952 5
      3213.055
  21448972.059    21448971.8134   21448975.1184  112715164.521 8  87830003.13946
     -1556.832       -1213.116
  20619737.127    20619736.4554   20619740.1984  108357497.492 8  84434442.56947
       222.126         173.085
 08  4 28 14  6 40.0000000  0  9 04 07 08 10 13 23 24 25 27
  23074347.108    23074347.4394   23074351.6654  121256512.536 7  94485594.79444
     -2658.366       -2071.450
  20371705.147    20371705.0224   20371707.4694  107054086.186 8  83418770.30047
       -43.143         -33.616
  21164453.175    21164452.4824   21164456.8684  111220036.143 8  86664981.87446
      2835.345        2209.359
  21960585.537    21960584.3554   21960589.1084  115403680.924 7  89924950.18845
      3229.986        2516.869
  21263389.118    21263388.8274   21263391.6724  111739889.507 8  87070060.87946
     -1622.614       -1264.377
  24115804.663    24115804.0914   24115807.2144  126729408.887 6  98750187.46442
     -2568.185       -2001.164
  25146437.502                                   132145400.123 5
      3212.634
  21449268.433    21449268.1234   21449271.4154  112716721.616 8  87831216.45746
     -1557.325       -1213.496
  20619694.857    20619694.2134   20619698.0004  108357275.665 8  84434269.71647
       221.548         172.637
 08  4 28 14  6 41.0000000  0  9 04 07 08 10 13 23 24 25 27
  23074852.851    23074853.2634   23074857.5584  121259170.917 6  94487666.25144
     -2658.461       -2071.517
  20371713.377    20371713.2854   20371715.7274  107054129.563 8  83418804.09847
       -43.660         -34.018
  21163913.666    21163912.9964   21163917.3754  111217200.973 8  86662772.65146
      2834.950        2209.051
  21959970.946    21959969.6964   21959974.4624  115400450.960 7  89922433.33245
      3229.860        2516.777
  21263697.838    21263697.6114   21263700.4694  111741512.165 8  87071325.28946
     -1622.755       -1264.485
  24116293.449    24116292.7954   24116295.9544  126731976.972 5  98752188.56842
     -2568.069       -2001.098
  25145826.242                                   132142187.699 5
      3212.221
  21449564.927    21449564.4774   21449567.7954  112718279.055 8  87832430.04946
     -1557.612       -1213.730
  20619652.758    20619652.0834   20619655.8704  108357054.301 8  84434097.22347
       221.134         172.313
 08  4 28 14  6 42.0000000  0  9 04 07 08 10 13 23 24 25 27
  23075358.839    23075359.1194   23075363.3534  121261829.575 6  94489737.93244
     -2658.796       -2071.793
  20371721.689    20371721.6634   20371724.1014  107054173.551 8  83418838.37647
       -44.294         -34.518
  21163374.262    21163373.5544   21163377.9854  111214366.281 8  86660563.80046
      2834.454        2208.666
  21959356.382    21959355.1194   21959359.8534  115397221.366 7  89919916.76245
      3229.408        2516.427
  21264006.624    21264006.4424   21264009.3574  111743135.083 8  87072589.90246
     -1623.049       -1264.715
  24116782.283    24116781.7534   24116784.1174  126734545.168 5  98754189.77142
     -2568.250       -2001.252
  25145215.001    25145210.7904   25145228.3334  132138975.523 5 102965448.8504
      3212.052        2504.496
  21449861.424    21449860.9794   21449864.2084  112719836.916 8  87833643.96746
     -1558.071       -1214.080
  20619610.649    20619610.0884   20619613.8364  108356833.441 8  84433925.12547
       220.608         171.900
 08  4 28 14  6 43.0000000  0  9 04 07 08 10 13 23 24 25 27
  23075865.036    23075865.0994   23075869.4434  121264488.492 6  94491809.80844
     -2659.047       -2071.974
  20371730.276    20371730.1454   20371732.5944  107054218.187 8  83418873.15847
       -44.960         -35.034
  21162834.954    21162834.2044   21162838.6494  111211532.102 8  86658355.35046
      2833.922        2208.250
  21958741.862    21958740.5444   21958745.2814  115393992.099 7  89917400.45145
      3229.104        2516.181
  21264315.502    21264315.3174   21264318.2434  111744758.273 8  87073854.72446
     -1623.325       -1264.927
  24117270.583    24117270.4504   24117273.0444  126737113.443 5  98756191.01342
     -2568.314       -2001.262
  25144604.579    25144600.4624   25144615.3314  132135763.782 5 102962946.2174
      3211.524        2502.633
  21450157.827    21450157.4974   21450160.7734  112721395.208 8  87834858.21946
     -1558.507       -1214.419
  20619568.701    20619568.1514   20619571.8984  108356613.120 8  84433753.44847
       220.051         171.467
 08  4 28 14  6 44.0000000  0  9 04 07 08 10 13 23 24 25 27
  23076371.006    23076371.1844   23076375.3524  121267147.621 6  94493881.85644
     -2659.235       -2072.134
  20371738.961    20371738.7594   20371741.1874  107054263.406 8  83418908.39447
       -45.512         -35.463
  21162295.690    21162294.9714   21162299.3914  111208698.377 8  86656147.25646
      2833.498        2207.916
  21958127.488    21958126.1034   21958130.8174  115390763.102 7  89914884.34845
      3228.862        2515.999
  21264624.407    21264624.2304   21264627.1584  111746381.695 8  87075119.72446
     -1623.538       -1265.089
  24117759.282    24117758.8794   24117761.7044  126739681.756 6  98758192.29142
     -2568.333       -2001.295
  25143993.074    25143990.5214   25144002.4494  132132552.360 5 102960443.81041
      3211.262        2502.294
  21450454.364    21450454.1414   21450457.4074  112722953.882 8  87836072.76846
     -1558.865       -1214.698
  20619526.867    20619526.3034   20619530.0884  108356393.281 8  84433582.14347
       219.598         171.119
 08  4 28 14  6 45.0000000  0  9 04 07 08 10 13 23 24 25 27
  23076877.243    23076877.2584   23076881.4364  121269807.032 7  94495954.12244
     -2659.551       -2072.375
  20371747.825    20371747.4824   20371749.9094  107054309.260 8  83418944.12447
       -46.171         -35.977
  21161756.549    21161755.8594   21161760.2984  111205865.169 8  86653939.55846
      2832.949        2207.500
  21957512.686    21957511.7454   21957516.4984  115387534.462 7  89912368.52645
      3228.461        2515.681
  21264933.448    21264933.1814   21264936.2164  111748005.394 8  87076384.94146
     -1623.837       -1265.325
  24118248.341    24118247.7244   24118250.7414  126742250.157 5  98760193.63742
     -2568.444       -2001.380
  25143382.197    25143379.1854   25143389.8934  132129341.295 5 102957941.69841
      3210.888        2501.964
  21450751.100    21450750.8364   21450754.0924  112724512.982 8  87837287.65346
     -1559.314       -1215.052
  20619485.056    20619484.5684   20619488.3364  108356173.973 8  84433411.25047
       219.044         170.687
 08  4 28 14  6 46.0000000  0  9 04 07 08 10 13 23 24 25 27
  23077383.550    23077383.3774   23077387.5164  121272466.655 7  94498026.55244
     -2659.729       -2072.513
  20371756.684    20371756.3314   20371758.7604  107054355.702 8  83418980.31247
       -46.736         -36.417
  21161217.461    21161216.8174   21161221.2434  111203032.421 8  86651732.22346
      2832.518        2207.153
  21956898.543    21956897.4514   21956902.1394  115384306.105 7  89909852.92645
      3228.216        2515.490
  21265242.331    21265242.2204   21265245.2014  111749629.314 7  87077650.33746
     -1624.031       -1265.486
  24118736.646    24118736.7084   24118739.3424  126744818.615 6  98762195.03942
     -2568.486       -2001.430
  25142770.768    25142768.4444   25142778.0784  132126130.646 5 102955439.89641
      3210.440        2501.647
  21451047.944    21451047.6374   21451050.8714  112726072.463 8  87838502.82846
     -1559.671       -1215.321
  20619443.334    20619442.9204   20619446.6914  108355955.146 8  84433240.73947
       218.585         170.320
 08  4 28 14  6 47.0000000  0  9 04 07 08 10 13 23 24 25 27
  23077889.835    23077889.5324   23077893.6594  121275126.507 7  94500099.16544
     -2659.968       -2072.704
  20371765.627    20371765.3034   20371767.7074  107054402.782 8  83419017.00047
       -47.399         -36.938
  21160678.418    21160677.9054   21160682.3054  111200200.175 8  86649525.27746
      2831.996        2206.751
  21956284.300    21956283.1814   21956287.7664  115381078.095 7  89907337.59345
      3227.835        2515.199
  21265551.259    21265551.2384   21265554.2274  111751253.503 8  87078915.93746
     -1624.325       -1265.701
  24119225.760    24119225.4464   24119228.5624  126747387.124 5  98764196.45742
     -2568.535       -2001.427
  25142159.504    25142158.1234   25142166.9334  132122920.387 5 102952938.37041
      3210.063        2501.388
  21451344.849    21451344.4344   21451347.7184  112727632.365 8  87839718.33846
     -1560.113       -1215.678
  20619401.856    20619401.3774   20619405.1314  108355736.858 8  84433070.64547
       218.020         169.886
 08  4 28 14  6 48.0000000  0  9 04 07 08 10 13 23 24 25 27
  23078396.203    23078395.5244   23078399.9544  121277786.633 6  94502171.99044
     -2660.261       -2072.932
  20371774.676    20371774.3734   20371776.7874  107054450.487 8  83419054.17147
       -48.018         -37.412
  21160139.448    21160139.0174   21160143.4094  111197368.417 8  86647318.71846
      2831.512        2206.365
  21955670.172    21955668.9154   21955673.4734  115377850.383 7  89904822.49545
      3227.563        2514.980
  21265860.512    21265860.4294   21265863.3404  111752877.974 8  87080181.75546
     -1624.611       -1265.928
  24119714.723    24119714.2344   24119717.2834  126749955.789 5  98766198.00942
     -2568.743       -2001.617
  25141549.486    25141547.6894   25141556.2404  132119710.440 5 102950437.10641
      3209.792        2501.134
  21451641.680    21451641.3464   21451644.6704  112729192.694 8  87840934.17646
     -1560.542       -1216.002
  20619360.381    20619359.9374   20619363.6954  108355519.081 8  84432900.94947
       217.521         169.496
 08  4 28 14  6 49.0000000  0  9 04 07 08 10 13 23 24 25 27
  23078902.191    23078901.6934   23078906.1214  121280446.945 7  94504244.96144
     -2660.406       -2073.042
  20371783.804    20371783.5754   20371785.9544  107054498.773 8  83419091.79647
       -48.576         -37.852
  21159600.641    21159600.2294   21159604.6074  111194537.119 8  86645112.50846
      2831.069        2206.035
  21955055.938    21955054.8734   21955059.2914  115374622.967 7  89902307.61745
      3227.269        2514.769
  21266169.811    21266169.5494   21266172.4264  111754502.643 8  87081447.72646
     -1624.768       -1266.046
  24120203.723    24120202.9214   24120205.5004  126752524.393 5  98768199.51742
     -2568.573       -2001.487
  25140938.271    25140936.9544   25140944.7974  132116500.903 5 102947936.14841
      3209.332        2500.804
  21451938.636    21451938.3184   21451941.7084  112730753.379 8  87842150.29546
     -1560.864       -1216.258
  20619319.091    20619318.5644   20619322.3704  108355301.785 8  84432731.62647
       217.056         169.137
 08  4 28 14  6 50.0000000  0  9 04 07 08 10 13 23 24 25 27
  23079408.558    23079408.1034   23079412.3654  121283107.530 6  94506318.14044
     -2660.722       -2073.284
  20371793.105    20371792.8514   20371795.3154  107054547.699 8  83419129.91747
       -49.245         -38.369
  21159062.063    21159061.5194   21159065.9394  111191706.315 8  86642906.68746
      2830.556        2205.628
  21954441.887    21954440.7194   21954445.3254  115371395.882 7  89899793.01045
      3226.919        2514.472
  21266479.012    21266478.8014   21266481.7104  111756127.603 8  87082713.93046
     -1625.106       -1266.322
  24120692.892    24120691.5364   24120694.3334  126755093.163 5  98770201.16342
     -2568.853       -2001.715
  25140327.934    25140326.2444   25140333.5084  132113291.683 5 102945435.45341
      3209.062        2500.565
  21452235.766    21452235.4134   21452238.7574  112732314.511 8  87843366.76046
     -1561.355       -1216.638
  20619277.907    20619277.3174   20619281.0914  108355085.014 8  84432562.71547
       216.508         168.704