     2.10           OBSERVATION         G (GPS)             RINEX VERSION / TYPE
Kinematic           Precision-gps.org   28-Apr-2008         PGM / RUN BY / DATE
Dummy antenna marker                                        MARKER NAME
<name>              <agency>                                OBSERVER / AGENCY
                    Antaris             <version>           REC # / TYPE / VERS
                                                            ANT # / TYPE
  4398277.7400   703856.8000  4550186.1000                  APPROX POSITION XYZ
        0.0000        0.0000        0.0000                  ANTENNA: DELTA H/E/N
     1     0                                                WAVELENGTH FACT L1/2
     4    C1    L1    S1    D1                              # / TYPES OF OBSERV
  2008     4    28    14     3   57.0000000                 TIME OF FIRST OBS
                                                            END OF HEADER
 08 04 28 14 03 57.0000000  0 11G04G07G08G10G13G23G25G27S20S24S26               
  22933692.024 6 120517339.76616        40.000 6     -1505.300 6
  20313279.380 7 106747015.32317        45.000 7      1169.743 7
  21194872.339 6 108228943.95916        38.000 6      4024.919 6
  22002586.102 6 115624474.90216        40.000 6      4392.215 6
  21155104.556 6 111170828.28516        41.000 6      -469.074 6
  23977829.237 5 126004216.24715        32.000 5     -1446.022 5
  21343375.379 6 112160221.42116        38.000 6      -378.286 6
  20569182.477 7 108091790.39517        45.000 7      1417.252 7
  38158802.181 6 200525907.68216        39.000 6      1634.225 6
  37726995.598 6 198256700.54016        40.000 6      1835.453 6
  36834506.692 5 193566645.04715        35.000 5      1631.355 5
 08 04 28 14 03 58.0000000  0 11G04G07G08G10G13G23G25G27S20S24S26               
  22933667.474 6 120517213.063 6        40.000 6     -1505.115 6
  20312746.209 7 106744213.458 7        45.000 7      1168.998 7
  21193796.327 6 108223286.127 6        37.000 6      4025.751 6
  22001439.644 6 115618450.408 6        39.000 6      4391.859 6
  21154883.351 6 111169664.920 6        41.000 6      -469.434 6
  23977793.318 5 126004028.340 5        31.000 5     -1447.109 5
  21343136.069 6 112158967.057 6        38.000 6      -378.409 6
  20568602.226 7 108088741.064 7        45.000 7      1416.777 7
  38158180.598 6 200522643.203 6        40.000 6      1633.474 6
  37726335.851 6 198253232.994 6        40.000 6      1833.554 6
  36833886.051 6 193563383.350 6        36.000 6      1630.329 6
 08 04 28 14 03 59.0000000  0 11G04G07G08G10G13G23G25G27S20S24S26               
  22933643.447 6 120517086.553 6        39.000 6     -1505.810 6
  20312213.055 7 106741412.160 7        45.000 7      1168.593 7
  21192720.996 6 108217628.791 6        39.000 6      4025.319 6
  22000294.006 6 115612426.244 6        40.000 6      4392.869 6
  21154662.338 7 111168501.775 7        42.000 7      -469.437 7
  23977757.932 5                        30.000 5     -1445.591 5
  21342898.243 6 112157713.089 6        38.000 6      -377.551 6
  20568021.765 7 108085692.189 7        45.000 7      1417.039 7
  38157559.207 6 200519378.703 6        39.000 6      1631.967 6
  37725676.123 6 198249765.071 6        41.000 6      1835.870 6
  36833265.724 5 193560125.56715        35.000 5      1627.012 5
 08 04 28 14 04  0.0000000  0 11G04G07G08G10G13G23G25G27S20S24S26               
  22933620.366 6 120516961.937 6        39.000 6     -1505.182 6
  20311680.341 7 106738613.130 7        43.000 7      1168.938 7
  21191646.522 6 108211973.455 6        39.000 6      4025.321 6
  21999148.013 6 115606403.950 6        40.000 6      4390.942 6
  21154441.869 6 111167340.464 6        40.000 6      -468.505 6
  23977725.270 4                        29.000 4     -1446.634 4
  21342660.019 6 112156461.103 6        36.000 6      -376.359 6
  20567441.786 7 108082645.459 7        44.000 7      1416.167 7
  38156938.274 6 200516115.810 6        39.000 6      1632.347 6
  37725016.363 6 198246298.791 6        40.000 6      1835.919 6
  36832645.245 5 193556865.619 5        35.000 5      1630.356 5
 08 04 28 14 04  1.0000000  0 11G04G07G08G10G13G23G25G27S20S24S26               
  22933596.069 6 120516835.988 6        37.000 6     -1505.080 6
  20311146.978 7 106735813.083 7        44.000 7      1167.424 7
  21190571.016 6 108206317.029 6        40.000 6      4024.453 6
  21998001.633 6 115600380.310 6        40.000 6      4390.886 6
  21154220.655 7 111166177.821 7        42.000 7      -469.891 7
  23977692.598 4                        29.000 4     -1445.227 4
  21342422.488 6 112155207.926 6        38.000 6      -379.360 6
  20566861.386 7 108079597.609 7        44.000 7      1415.435 7
  38156317.354 6 200512851.303 6        40.000 6      1632.065 6
  37724356.529 6 198242831.047 6        40.000 6      1834.088 6
  36832024.536 5 193553604.064 5        34.000 5      1631.597 5
 08 04 28 14 04  2.0000000  0 11G04G07G08G10G13G23G25G27S20S24S26               
  22933571.580 6 120516710.234 6        39.000 6     -1506.984 6
  20310614.286 7 106733013.652 7        44.000 7      1166.961 7
  21189495.336 6 108200661.038 6        41.000 6      4023.467 6
  21996855.629 6 115594357.011 6        40.000 6      4391.543 6
  21153999.590 6 111165015.425 6        41.000 6      -469.743 6
  23977660.666 4                        29.000 4     -1444.302 4
  21342184.217 6 112153955.160 6        39.000 6      -380.454 6
  20566281.126 7 108076550.272 7        43.000 7      1414.967 7
  38155695.912 6 200509586.830 6        40.000 6      1631.893 6
  37723696.775 6 198239363.769 6        39.000 6      1835.510 6
  36831403.825 5 193550340.48515        34.000 5      1627.158 5
 08 04 28 14 04  3.0000000  0 11G04G07G08G10G13G23G25G27S20S24S26               
  22933547.242 6 120516586.032 6        38.000 6     -1507.259 6
  20310082.139 7 106730216.122 7        44.000 7      1166.237 7
  21188419.511 6 108195006.826 6        41.000 6      4023.456 6
  21995709.462 6 115588335.260 6        40.000 6      4391.432 6
  21153779.435 6 111163854.561 6        41.000 6      -470.224 6
  23977626.068 4                        29.000 4     -1445.114 4
  21341946.926 6 112152704.077 6        39.000 6      -379.176 6
  20565701.401 7 108073504.747 7        43.000 7      1414.781 7
  38155074.952 6 200506323.781 6        39.000 6      1633.463 6
  37723037.032 6 198235897.737 6        40.000 6      1834.682 6
  36830783.433 5 193547080.079 5        34.000 5      1631.393 5
 08 04 28 14 04  4.0000000  0 11G04G07G08G10G13G23G25G27S20S24S26               
  22933523.137 6 120516460.540 6        38.000 6     -1506.779 6
  20309549.465 7 106727417.667 7        44.000 7      1164.979 7
  21187343.272 6 108189351.567 6        40.000 6      4022.622 6
  21994562.968 6 115582312.233 6        40.000 6      4390.259 6
  21153558.133 7 111162692.408 7        42.000 7      -470.502 7
  23977590.629 4                        29.000 4     -1445.485 4
  21341708.855 6 112151451.906 6        40.000 6      -380.460 6
  20565121.611 7 108070458.137 7        43.000 7      1413.923 7
  38154453.840 6 200503059.221 6        39.000 6      1631.054 6
  37722377.128 6 198232429.573 6        40.000 6      1834.342 6
  36830162.862 5 193543819.94415        34.000 5      1627.211 5
 08 04 28 14 04  5.0000000  0 11G04G07G08G10G13G23G25G27S20S24S26               
  22933498.387 6 120516335.423 6        38.000 6     -1506.478 6
  20309017.088 7 106724619.965 7        43.000 7      1164.855 7
  21186267.260 6 108183696.870 6        40.000 6      4022.238 6
  21993416.719 6 115576289.667 6        39.000 6      4390.646 6
  21153337.085 7 111161530.706 7        43.000 7      -470.359 7
  23977555.879 4                        29.000 4     -1445.251 4
  21341470.741 6 112150200.330 6        38.000 6      -380.914 6
  20564542.267 7 108067412.215 7        44.000 7      1414.017 7
  38153832.991 6 200499794.835 6        39.000 6      1632.253 6
  37721717.278 6 198228961.517 6        40.000 6      1837.810 6
  36829542.143 5 193540558.06815        35.000 5      1629.384 5
 08 04 28 14 04  6.0000000  0 11G04G07G08G10G13G23G25G27S20S24S26               
  22933475.346 6 120516210.859 6        39.000 6     -1508.365 6
  20308484.493 7 106721823.129 7        43.000 7      1164.712 7
  21185190.803 6 108178042.895 6        40.000 6      4022.536 6
  21992270.854 6 115570267.647 6        40.000 6      4389.436 6
  21153116.526 7 111160369.430 7        42.000 7      -471.406 7
  23977524.001 4                        28.000 4     -1442.218 4
  21341233.412 6 112148949.347 6        36.000 6      -380.111 6
  20563963.010 7 108064367.033 7        44.000 7      1412.143 7
  38153211.495 6 200496530.577 6        40.000 6      1630.344 6
  37721057.314 6 198225493.873 6        40.000 6      1834.641 6
  36828921.494 5 193537296.659 5        35.000 5      1627.385 5
 08 04 28 14 04  7.0000000  0 11G04G07G08G10G13G23G25G27S20S24S26               
  22933451.520 6 120516086.244 6        39.000 6     -1508.846 6
  20307952.726 7 106719026.640 7        44.000 7      1163.651 7
  21184114.817 6 108172389.068 6        40.000 6      4021.641 6
  21991125.216 6 115564245.675 6        39.000 6      4390.481 6
  21152895.583 7 111159208.179 7        43.000 7      -470.820 7
  23977490.725 4                        28.000 4     -1443.865 4
  21340995.559 6 112147698.482 6        36.000 6      -381.783 6
  20563383.648 7 108061322.130 7        44.000 7      1412.630 7
  38152590.533 6 200493266.058 6        39.000 6      1632.555 6
  37720397.271 6 198222025.802 6        40.000 6      1834.618 6
  36828300.942 5 193534034.811 5        35.000 5      1629.972 5
 08 04 28 14 04  8.0000000  0 11G04G07G08G10G13G23G25G27S20S24S26               
  22933428.261 6 120515962.069 6        41.000 6     -1508.071 6
  20307420.288 7 106716231.087 7        44.000 7      1163.451 7
  21183039.809 6 108166736.118 6        40.000 6      4020.850 6
  21989979.273 6 115558224.284 6        41.000 6      4389.536 6
  21152674.517 7 111158047.458 7        43.000 7      -471.149 7
  23977455.331 4                        25.000 4     -1441.564 4
  21340758.029 6 112146448.349 6        38.000 6      -382.548 6
  20562804.591 7 108058278.027 7        44.000 7      1411.587 7
  38151969.570 6 200490001.805 6        39.000 6      1631.890 6
  37719737.203 6 198218558.171 6        39.000 6      1837.114 6
  36827680.293 5 193530775.06415        33.000 5      1628.885 5
 08 04 28 14 04  9.0000000  0 11G04G07G08G10G13G23G25G27S20S24S26               
  22933404.089 5 120515839.750 5        34.000 5     -1508.558 5
  20306888.612 7 106713437.523 7        44.000 7      1162.335 7
  21181965.335 6 108161085.002 6        40.000 6      4019.169 6
  21988833.881 6 115552204.611 6        41.000 6      4387.914 6
  21152454.554 6 111156888.456 6        41.000 6      -471.370 6
  23977421.334 4                        25.000 4     -1444.195 4
  21340521.131 6 112145200.082 6        39.000 6      -381.803 6
  20562226.149 7 108055235.851 7        45.000 7      1411.396 7
  38151348.384 6 200486739.064 6        37.000 6      1634.954 6
  37719077.669 6 198215092.256 6        40.000 6      1834.906 6
  36827059.725 5 193527512.97015        33.000 5      1628.153 5
 08 04 28 14 04 10.0000000  0 11G04G07G08G10G13G23G25G27S20S24S26               
  22933380.935 6 120515716.381 6        39.000 6     -1510.343 6
  20306357.238 7 106710643.403 7        44.000 7      1161.121 7
  21180889.899 6 108155433.142 6        41.000 6      4019.372 6
  21987688.479 7 115546183.984 7        42.000 7      4387.262 7
  21152234.439 7 111155728.441 7        42.000 7      -472.642 7
  23977387.807 4                        24.000 4     -1436.611 4
  21340283.575 6 112143950.973 6        40.000 6      -383.060 6
  20561647.066 7 108052192.954 7        45.000 7      1410.087 7
  38150727.420 6 200483475.110 6        38.000 6      1631.453 6
  37718417.626 6 198211625.193 6        38.000 6      1834.994 6
  36826438.989 5 193524251.944 5        33.000 5      1628.755 5
 08 04 28 14 04 11.0000000  0 11G04G07G08G10G13G23G25G27S20S24S26               
  22933357.793 6 120515594.635 6        38.000 6     -1509.883 6
  20305826.330 7 106707851.259 7        44.000 7      1161.634 7
  21179814.213 6 108149783.177 6        41.000 6      4018.833 6
  21986543.342 7 115540165.092 7        42.000 7      4388.946 7
  21152013.429 7 111154570.066 7        42.000 7      -472.330 7
  23977355.170 3                        22.000 3     -1445.513 3
  21340046.467 6 112142703.709 6        40.000 6      -382.625 6
  20561068.571 7 108049151.951 7        46.000 7      1410.134 7
  38150106.556 6 200480212.531 6        36.000 6      1632.407 6
  37717758.101 6 198208159.773 6        39.000 6      1833.780 6
  36825818.884 5                        33.000 5      1628.085 5
 08 04 28 14 04 12.0000000  0 11G04G07G08G10G13G23G25G27S20S24S26               
  22933335.659 4                        24.000 4     -1511.832 4
  20305294.651 7 106705058.190 7        42.000 7      1160.770 7
  21178739.170 6 108144132.077 6        38.000 6      4017.744 6
  21985397.450 6 115534144.923 6        41.000 6      4387.045 6
  21151792.547 6 111153410.381 6        38.000 6      -473.473 6
  23977322.357 4                        25.000 4     -1445.388 4
  21339807.802 6 112141455.268 6        39.000 6      -384.388 6
  20560490.021 7 108046109.919 7        46.000 7      1409.435 7
  38149485.087 5 200476948.235 5        34.000 5      1629.959 5
  37717098.599 6 198204692.606 6        38.000 6      1834.186 6
  36825198.297 5 193517723.00015        30.000 5      1629.813 5
 08 04 28 14 04 13.0000000  0 11G04G07G08G10G13G23G25G27S20S24S26               
  22933304.359 6 120515329.26116        40.000 6     -1510.082 6
  20304763.586 7 106702267.072 7        44.000 7      1159.956 7
  21177664.147 6 108138482.800 6        39.000 6      4018.963 6
  21984251.955 6 115528126.433 6        40.000 6      4387.819 6
  21151572.567 6 111152252.397 6        40.000 6      -471.629 6
  23977284.845 4                        25.000 4     -1445.008 4
  21339570.547 6 112140208.604 6        39.000 6      -383.375 6
  20559911.177 7 108043069.731 7        45.000 7      1408.659 7
  38148864.389 6 200473685.214 6        39.000 6      1632.214 6
  37716439.188 6 198201226.386 6        40.000 6      1834.888 6
  36824578.035 6 193514463.099 6        37.000 6      1627.314 6
 08 04 28 14 04 14.0000000  0 11G04G07G08G10G13G23G25G27S20S24S26               
  22933283.945 6 120515206.639 6        38.000 6     -1509.958 6
  20304232.692 7 106699475.099 7        45.000 7      1159.527 7
  21176588.161 6 108132832.543 6        40.000 6      4017.480 6
  21983106.639 6 115522106.732 6        38.000 6      4387.733 6
  21151351.658 6 111151093.087 6        39.000 6      -473.272 6
  23977248.420 4                        28.000 4     -1444.310 4
  21339332.694 6 112138960.895 6        38.000 6      -385.239 6
  20559332.313 7 108040028.574 7        45.000 7      1408.700 7
  38148243.016 6 200470420.702 6        38.000 6      1630.916 6
  37715779.364 6 198197758.249 6        40.000 6      1836.272 6
  36823957.091 5 193511199.90915        33.000 5      1635.273 5
 08 04 28 14 04 15.0000000  0 11G04G07G08G10G13G23G25G27S20S24S26               
  22933268.050 6 120515084.122 6        41.000 6     -1509.914 6
  20303701.876 7 106696683.733 7        46.000 7      1158.699 7
  21175512.586 6 108127182.666 6        40.000 6      4017.479 6
  21981960.817 6 115516087.544 6        39.000 6      4385.318 6
  21151130.113 6 111149933.997 6        38.000 6      -474.165 6
  23977210.014 4                        28.000 4     -1446.687 4
  21339094.736 6 112137713.598 6        39.000 6      -385.355 6
  20558753.649 7 108036987.913 7        45.000 7      1408.495 7
  38147621.766 6 200467156.210 6        36.000 6      1634.155 6
  37715119.757 6 198194290.360 6        41.000 6      1835.534 6
  36823336.387 5 193507938.10215        33.000 5      1625.204 5
 08 04 28 14 04 16.0000000  0 11G04G07G08G10G13G23G25G27S20S24S26               
  22933247.168 7 120514962.530 7        42.000 7     -1508.642 7
  20303171.178 7 106693893.991 7        44.000 7      1158.770 7
  21174438.025 6 108121533.890 6        38.000 6      4018.146 6
  21980815.645 6 115510070.420 6        39.000 6      4386.167 6
  21150910.115 6 111148776.464 6        38.000 6      -472.947 6
  23977168.602 4                        27.000 4     -1444.166 4
  21338858.152 6 112136467.898 6        39.000 6      -384.190 6
  20558175.512 7 108033948.739 7        45.000 7      1408.402 7
  38147000.867 6 200463892.392 6        39.000 6      1633.809 6
  37714459.919 6 198190823.314 6        40.000 6      1836.661 6
  36822715.831 5                        34.000 5      1634.638 5
 08 04 28 14 04 17.0000000  0 11G04G07G08G10G13G23G25G27S20S24S26               
  22933219.713 6 120514839.567 6        41.000 6     -1508.589 6
  20302639.629 7 106691103.308 7        45.000 7      1158.483 7
  21173362.799 6 108115884.063 6        40.000 6      4017.739 6
  21979670.627 6 115504052.515 6        40.000 6      4386.244 6
  21150688.264 6 111147617.594 6        37.000 6      -473.934 6
  23977129.647 4                        25.000 4     -1446.910 4
  21338622.219 7 112135221.279 7        44.000 7      -385.549 7
  20557597.442 7 108030908.574 7        45.000 7      1408.348 7
  38146379.520 6 200460627.098 6        40.000 6      1632.735 6
  37713799.832 6 198187354.589 6        39.000 6      1835.342 6
  36822095.139 5 193501415.57715        35.000 5      1635.494 5
 08 04 28 14 04 18.0000000  0 11G04G07G08G10G13G23G25G27S20S24S26               
  22933196.896 7 120514715.090 7        42.000 7     -1508.824 7
  20302108.130 7 106688311.446 7        44.000 7      1157.410 7
  21172287.124 6 108110232.802 6        40.000 6      4018.038 6
  21978525.037 6 115498033.547 6        37.000 6      4384.927 6
  21150467.841 6 111146457.175 6        37.000 6      -472.724 6
  23977090.269 4                        25.000 4     -1447.838 4
  21338384.040 6 112133973.134 6        41.000 6      -385.322 6
  20557019.132 7 108027867.076 7        45.000 7      1407.390 7
  38145757.909 6 200457360.117 6        39.000 6      1634.160 6
  37713139.359 6 198183883.454 6        39.000 6      1837.556 6
  36821474.128 6 193498154.46216        37.000 6      1629.379 6
 08 04 28 14 04 19.0000000  0 11G04G07G08G10G13G23G25G27S20S24S26               
  22933174.571 7 120514592.139 7        42.000 7     -1509.949 7
  20301576.608 7 106685521.505 7        45.000 7      1157.642 7
  21171211.644 6 108104583.393 6        39.000 6      4017.901 6
  21977379.513 5 115492016.405 5        35.000 5      4386.870 5
  21150247.447 6 111145298.223 6        39.000 6      -474.027 6
  23977056.682 4                        24.000 4     -1440.694 4
  21338146.502 6 112132726.800 6        41.000 6      -384.740 6
  20556441.018 7 108024827.433 7        45.000 7      1407.672 7
  38145136.832 6 200454094.558 6        39.000 6      1634.313 6
  37712479.413 6 198180413.730 6        40.000 6      1838.878 6
  36820853.331 5 193494890.291 5        35.000 5      1630.757 5
 08 04 28 14 04 20.0000000  0 11G04G07G08G10G13G23G25G27S20S24S26               
  22933150.771 6 120514469.296 6        41.000 6     -1508.527 6
  20301045.732 7 106682732.066 7        44.000 7      1157.927 7
  21170136.741 6 108098934.210 6        39.000 6      4017.657 6
  21976233.648 5 115485999.454 5        35.000 5      4385.184 5
  21150027.325 6 111144139.435 6        36.000 6      -472.389 6
  23977019.157 4                        25.000 4     -1441.852 4
  21337909.958 6 112131480.737 6        41.000 6      -384.821 6
  20555863.384 7 108021788.160 7        46.000 7      1407.684 7
  38144515.494 6 200450828.618 6        38.000 6      1635.438 6
  37711819.239 6 198176943.633 6        40.000 6      1839.141 6
  36820231.741 5 193491626.133 5        34.000 5      1636.329 5
 08 04 28 14 04 21.0000000  0 11G04G07G08G10G13G23G25G27S20S24S26               
  22933128.027 6 120514346.511 6        40.000 6     -1510.904 6
  20300515.178 7 106679943.235 7        44.000 7      1156.186 7
  21169062.378 6 108093285.304 6        39.000 6      4016.174 6
  21975089.536 6 115479982.971 6        37.000 6      4383.154 6
  21149807.428 6 111142981.105 6        38.000 6      -474.308 6
  23976980.271 4                        24.000 4     -1447.139 4
  21337672.838 6 112130235.189 6        41.000 6      -387.759 6
  20555284.947 7 108018749.351 7        45.000 7      1406.051 7
  38143893.484 6 200447562.521 6        39.000 6      1632.237 6
  37711158.996 6 198173473.415 6        40.000 6      1837.512 6
  36819610.925 5 193488364.11915        34.000 5      1631.855 5
 08 04 28 14 04 22.0000000  0 11G04G07G08G10G13G23G25G27S20S24S26               
  22933104.454 6 120514224.103 6        40.000 6     -1508.642 6
  20299984.860 7 106677155.123 7        44.000 7      1156.384 7
  21167987.465 6 108087637.079 6        38.000 6      4015.433 6
  21973945.190 6 115473966.903 6        38.000 6      4385.318 6
  21149586.930 6 111141822.968 6        39.000 6      -474.568 6
  23976945.966 4                        25.000 4     -1444.495 4
  21337435.797 6 112128990.139 6        40.000 6      -386.753 6
  20554706.065 7 108015711.179 7        44.000 7      1406.005 7
  38143271.971 6 200444296.642 6        39.000 6      1633.500 6
  37710498.456 6 198170003.266 6        40.000 6      1841.148 6
  36818989.631 5 193485099.63915        35.000 5      1633.418 5
 08 04 28 14 04 23.0000000  0 11G04G07G08G10G13G23G25G27S20S24S26               
  22933081.597 6 120514101.802 6        41.000 6     -1509.593 6
  20299454.752 7 106674367.475 7        44.000 7      1155.477 7
  21166913.250 6 108081989.240 6        40.000 6      4015.081 6
  21972800.144 6 115467950.905 6        40.000 6      4383.533 6
  21149366.397 6 111140665.044 6        40.000 6      -473.607 6
  23976905.214 5                        30.000 5     -1445.263 5
  21337199.157 6 112127745.366 6        41.000 6      -388.512 6
  20554127.270 7 108012673.355 7        45.000 7      1405.582 7
  38142650.284 6 200441030.593 6        39.000 6      1633.405 6
  37709838.509 6 198166533.081 6        40.000 6      1839.094 6
  36818368.188 5 193481833.09515        33.000 5      1630.157 5
 08 04 28 14 04 24.0000000  0 11G04G07G08G10G13G23G25G27S20S24S26               
  22933057.393 6 120513977.682 6        41.000 6     -1509.639 6
  20298924.020 7 106671578.318 7        44.000 7      1154.333 7
  21165838.762 6 108076339.705 6        40.000 6      4015.067 6
  21971654.844 6 115461932.998 6        38.000 6      4384.859 6
  21149145.241 6 111139505.122 6        40.000 6      -473.419 6
  23976869.440 4                        26.000 4     -1444.217 4
  21336961.720 6 112126498.762 6        41.000 6      -388.173 6
  20553549.153 7 108009633.923 7        45.000 7      1405.328 7
  38142028.026 6 200437762.546 6        38.000 6      1631.136 6
  37709177.887 6 198163060.743 6        41.000 6      1837.994 6
  36817746.672 5 193478566.57215        33.000 5      1631.405 5
 08 04 28 14 04 25.0000000  0 11G04G07G08G10G13G23G25G27S20S24S26               
  22933033.721 7 120513853.568 7        42.000 7     -1509.918 7
  20298393.778 7 106668789.551 7        45.000 7      1154.565 7
  21164763.655 6 108070690.455 6        39.000 6      4014.652 6
  21970509.272 6 115455915.396 6        37.000 6      4383.724 6
  21148923.718 6 111138345.360 6        39.000 6      -474.490 6
  23976837.166 3                        23.000 3     -1443.797 3
  21336724.641 6 112125252.501 6        41.000 6      -388.174 6
  20552970.477 7 108006594.821 7        45.000 7      1404.409 7
  38141406.363 6 200434494.121 6        40.000 6      1633.751 6
  37708516.916 6 198159588.178 6        40.000 6      1836.462 6
  36817125.331 6 193475300.136 6        36.000 6      1632.181 6
 08 04 28 14 04 26.0000000  0 11G04G07G08G10G13G23G25G27S20S24S26               
  22933010.479 6 120513731.707 6        41.000 6     -1510.921 6
  20297863.634 7 106666003.429 7        45.000 7      1152.783 7
  21163688.655 6 108065043.581 6        39.000 6      4013.777 6
  21969364.812 6 115449900.047 6        37.000 6      4382.286 6
  21148703.063 6 111137187.795 6        37.000 6      -474.947 6
  23976801.448 4                        24.000 4     -1443.047 4
  21336487.932 6 112124008.635 6        40.000 6      -387.285 6
  20552392.765 7 108003558.197 7        45.000 7      1404.135 7
  38140784.824 6 200431227.669 6        38.000 6      1633.645 6
  37707856.638 6 198156117.953 6        40.000 6      1837.809 6
  36816503.941 5 193472037.41415        35.000 5      1633.084 5
 08 04 28 14 04 27.0000000  0 11G04G07G08G10G13G23G25G27S20S24S26               
  22932987.366 6 120513608.584 6        41.000 6     -1509.403 6
  20297332.816 7 106663216.297 7        45.000 7      1153.954 7
  21162613.609 6 108059395.784 6        39.000 6      4015.785 6
  21968219.667 6 115443883.377 6        38.000 6      4380.981 6
  21148481.933 6 111136028.870 6        38.000 6      -474.552 6
  23976769.398 4                        24.000 4     -1449.547 4
  21336250.373 6 112122763.503 6        40.000 6      -386.861 6
  20551814.604 7 108000520.521 7        45.000 7      1404.807 7
  38140162.889 6 200427959.730 6        38.000 6      1634.394 6
  37707196.078 6 198152646.257 6        39.000 6      1839.711 6
  36815882.224 6 193468769.02916        36.000 6      1633.120 6
 08 04 28 14 04 28.0000000  0 11G04G07G08G10G13G23G25G27S20S24S26               
  22932963.406 6 120513485.445 6        40.000 6     -1510.088 6
  20296802.163 7 106660429.558 7        45.000 7      1152.889 7
  21161538.326 6 108053748.090 6        39.000 6      4013.660 6
  21967074.567 6 115437867.084 6        38.000 6      4381.700 6
  21148261.929 6 111134869.905 6        37.000 6      -474.038 6
  23976730.467 4                        27.000 4     -1443.792 4
  21336013.546 6 112121518.603 6        41.000 6      -388.552 6
  20551236.478 7 107997483.105 7        45.000 7      1404.189 7
  38139540.606 6 200424691.500 6        37.000 6      1633.962 6
  37706535.064 6 198149173.742 6        40.000 6      1838.594 6
  36815260.786 6 193465502.425 6        36.000 6      1630.439 6
 08 04 28 14 04 29.0000000  0 11G04G07G08G10G13G23G25G27S20S24S26               
  22932940.461 6 120513363.970 6        41.000 6     -1511.573 6
  20296272.412 7 106657644.984 7        45.000 7      1151.969 7
  21160464.617 6 108048102.290 6        39.000 6      4012.056 6
  21965930.054 6 115431840.64516        36.000 6      4379.695 6
  21148042.870 6 111133712.798 6        38.000 6      -474.706 6
  23976693.482 3                        23.000 3     -1450.477 3
  21335777.752 6 112120275.703 6        41.000 6      -389.858 6
  20550659.193 7 107994447.694 7        45.000 7      1402.634 7
  38138918.648 6 200421424.663 6        38.000 6      1633.654 6
  37705874.479 6 198145702.330 6        39.000 6      1836.429 6
  36814639.920 6 193462237.564 6        37.000 6      1632.560 6
 08 04 28 14 04 30.0000000  0 11G04G07G08G10G13G23G25G27S20S24S26               
  22932916.833 6 120513241.332 6        39.000 6     -1511.144 6
  20295742.431 7 106654859.687 7        45.000 7      1151.873 7
  21159389.868 6 108042455.640 6        39.000 6      4011.917 6
  21964786.202 6 115425825.328 6        37.000 6      4380.198 6
  21147822.569 6 111132554.771 6        37.000 6      -475.219 6
  23976654.971 3                        23.000 3     -1442.554 3
  21335541.380 7 112119031.921 7        42.000 7      -390.269 7
  20550081.660 7 107991411.517 7        45.000 7      1402.053 7
  38138296.600 6 200418156.614 6        38.000 6      1634.685 6
  37705213.361 6 198142229.670 6        39.000 6      1838.065 6
  36814018.256 6 193458977.14616        36.000 6      1632.223 6
 08 04 28 14 04 31.0000000  0 11G04G07G08G10G13G23G25G27S20S24S26               
  22932894.263 6 120513120.364 6        40.000 6     -1511.849 6
  20295213.090 7 106652076.639 7        45.000 7      1150.958 7
  21158316.072 6 108036810.918 6        40.000 6      4013.340 6
  21963642.091 6 115419811.844 6        39.000 6      4381.834 6
  21147601.730 6 111131398.480 6        38.000 6      -477.085 6
  23976622.080 3                        23.000 3     -1440.179 3
  21335305.482 6 112117790.204 6        41.000 6      -390.578 6
  20549504.305 7 107988377.422 7        45.000 7      1402.255 7
  38137674.843 6 200414889.953 6        39.000 6      1635.297 6
  37704553.065 6 198138758.801 6        39.000 6      1837.483 6
  36813396.639 6 193455708.02716        36.000 6      1632.903 6
 08 04 28 14 04 32.0000000  0 11G04G07G08G10G13G23G25G27S20S24S26               
  22932871.176 7 120512997.857 7        42.000 7     -1510.185 7
  20294683.196 7 106649292.340 7        45.000 7      1149.851 7
  21157241.217 6 108031164.815 6        40.000 6      4012.208 6
  21962498.124 6 115413797.146 6        38.000 6      4379.864 6
  21147381.491 6 111130240.650 6        38.000 6      -475.916 6
  23976589.858 3                        23.000 3     -1437.679 3
  21335069.048 6 112116547.094 6        41.000 6      -392.077 6
  20548926.859 7 107985342.000 7        45.000 7      1400.800 7
  38137052.577 6 200411621.465 6        38.000 6      1632.407 6
  37703892.513 6 198135286.258 6        40.000 6      1838.349 6
  36812775.166 6 193452440.933 6        36.000 6      1631.028 6
 08 04 28 14 04 33.0000000  0 11G04G07G08G10G13G23G25G27S20S24S26               
  22932848.615 7 120512877.445 7        42.000 7     -1511.262 7
  20294153.664 7 106646510.436 7        45.000 7      1150.271 7
  21156167.640 6 108025521.047 6        40.000 6      4010.776 6
  21961352.207 6 115407784.561 6        36.000 6      4379.534 6
  21147161.682 6 111129084.815 6        40.000 6      -476.308 6
  23976549.402 4                        26.000 4     -1440.606 4
  21334833.193 7 112115306.104 7        42.000 7      -391.570 7
  20548349.792 7 107982308.852 7        45.000 7      1400.519 7
  38136430.812 6 200408354.808 6        40.000 6      1635.772 6
  37703231.834 6 198131815.454 6        41.000 6      1840.048 6
  36812153.820 6 193449175.752 6        36.000 6      1634.079 6
 08 04 28 14 04 34.0000000  0 11G04G07G08G10G13G23G25G27S20S24S26               
  22932825.431 7 120512755.844 7        43.000 7     -1512.800 7
  20293623.953 7 106643727.642 7        45.000 7      1148.460 7
  21155093.971 6 108019876.283 6        41.000 6      4009.653 6
  21960208.608 6 115401770.328 6        37.000 6      4382.421 6
  21146940.848 6 111127927.747 6        39.000 6      -477.792 6
  23976506.298 5                        30.000 5     -1445.766 5
  21334596.263 6 112114064.078 6        41.000 6      -391.088 6
  20547772.443 7 107979274.746 7        45.000 7      1400.263 7
  38135809.130 6 200405086.700 6        39.000 6      1633.913 6
  37702570.959 6 198128343.111 6        39.000 6      1837.233 6
  36811531.798 6 193445909.252 6        37.000 6      1632.822 6
 08 04 28 14 04 35.0000000  0 11G04G07G08G10G13G23G25G27S20S24S26               
  22932802.932 7 120512636.319 7        43.000 7     -1513.281 7
  20293094.848 7 106640947.238 7        45.000 7      1147.207 7
  21154019.853 6 108014233.869 6        40.000 6      4010.366 6
  21959063.851 5 115395758.119 5        35.000 5      4380.431 5
  21146721.388 6 111126772.649 6        38.000 6      -476.879 6
  23976468.756 4                        28.000 4     -1445.727 4
  21334360.582 6 112112824.192 6        41.000 6      -393.488 6
  20547195.550 7 107976242.910 7        45.000 7      1399.243 7
  38135187.590 6 200401820.371 6        38.000 6      1631.895 6
  37701910.663 7 198124872.484 7        42.000 7      1838.330 7
  36810910.590 6 193442644.394 6        37.000 6      1631.394 6
 08 04 28 14 04 36.0000000  0 11G04G07G08G10G13G23G25G27S20S24S26               
  22932780.493 7 120512517.068 7        42.000 7     -1512.858 7
  20292565.943 7 106638167.394 7        44.000 7      1147.714 7
  21152946.659 6 108008591.802 6        40.000 6      4010.392 6
  21957919.548 6 115389746.234 6        37.000 6      4380.831 6
  21146501.527 6 111125617.773 6        38.000 6      -478.148 6
  23976433.273 4                        29.000 4     -1447.326 4
  21334124.492 6 112111584.585 6        40.000 6      -393.197 6
  20546618.047 7 107973211.530 7        45.000 7      1399.830 7
  38134565.747 6 200398535.60516        38.000 6      1634.482 6
  37701250.289 6 198121402.040 6        40.000 6      1837.684 6
  36810289.104 6 193439377.30716        36.000 6      1632.771 6
 08 04 28 14 04 37.0000000  0 11G04G07G08G10G13G23G25G27S20S24S26               
  22932757.819 7 120512398.027 7        43.000 7     -1512.421 7
  20292037.056 7 106635388.311 7        45.000 7      1146.746 7
  21151873.195 6 108002950.348 6        40.000 6      4009.237 6
  21956775.148 6 115383734.884 6        37.000 6      4379.350 6
  21146282.599 6 111124463.370 6        41.000 6      -477.127 6
  23976397.082 3                        20.000 3     -1454.368 3
  21333888.585 6 112110345.654 6        40.000 6      -392.397 6
  20546041.434 7 107970180.801 7        45.000 7      1398.673 7
  38133944.190 6 200395269.887 6        38.000 6      1632.068 6
  37700589.845 6 198117931.678 6        40.000 6      1838.005 6
  36809667.836 6 193436112.580 6        37.000 6      1633.546 6
 08 04 28 14 04 38.0000000  0 11G04G07G08G10G13G23G25G27S20S24S26               
  22932733.955 7 120512277.350 7        42.000 7     -1513.055 7
  20291508.227 7 106632608.028 7        44.000 7      1146.327 7
  21150799.772 6 107997307.477 6        40.000 6      4009.617 6
  21955631.217 6 115377721.992 6        37.000 6      4378.550 6
  21146062.830 7 111123307.303 7        42.000 7      -477.729 7
  23976362.523 4                        25.000 4     -1446.743 4
  21333651.960 6 112109105.226 6        41.000 6      -392.281 6
  20545464.669 7 107967148.750 7        45.000 7      1398.410 7
  38133322.108 6 200392001.769 6        39.000 6      1636.217 6
  37699928.866 6 198114459.243 6        40.000 6      1839.634 6
  36809046.162 5 193432844.15815        33.000 5      1631.152 5
 08 04 28 14 04 39.0000000  0 11G04G07G08G10G13G23G25G27S20S24S26               
  22932711.429 6 120512158.524 6        41.000 6     -1512.946 6
  20290979.759 7 106629829.220 7        45.000 7      1146.359 7
  21149725.644 6 107991666.480 6        41.000 6      4008.787 6
  21954488.266 6 115371710.453 6        41.000 6      4380.584 6
  21145842.402 6 111122152.096 6        38.000 6      -477.196 6
  23976325.017 4                        27.000 4     -1443.230 4
  21333416.428 7 112107865.916 7        42.000 7      -391.857 7
  20544887.960 7 107964118.152 7        46.000 7      1398.586 7
  38132701.162 6 200388735.308 6        39.000 6      1635.078 6
  37699268.300 5 198110987.823 5        35.000 5      1841.315 5
  36808424.746 6 193429578.812 6        36.000 6      1633.620 6
 08 04 28 14 04 40.0000000  0 11G04G07G08G10G13G23G25G27S20S24S26               
  22932689.877 7 120512039.275 7        45.000 7     -1514.286 7
  20290450.886 7 106627049.278 7        46.000 7      1146.083 7
  21148651.444 6 107986024.723 6        36.000 6      4007.036 6
  21953344.649 7 115365697.329 7        44.000 7      4379.694 7
  21145621.229 7 111120995.120 7        42.000 7      -477.246 7
  23976287.507 5                        31.000 5     -1442.180 5
  21333179.820 6 112106624.999 6        39.000 6      -392.690 6
  20544311.125 7 107961086.470 7        45.000 7      1397.489 7
  38132079.734 6 200385468.089 6        37.000 6      1637.094 6
  37698607.066 6 198107521.72916        38.000 6      1836.360 6
  36807802.902 5                        30.000 5      1643.796 5
 08 04 28 14 04 41.0000000  0 11G04G07G08G10G13G23G25G27S20S24S26               
  22932667.732 7 120511920.985 7        43.000 7     -1516.823 7
  20289921.987 7 106624269.898 7        44.000 7      1145.757 7
  21147577.958 5 107980384.173 5        35.000 5      4005.325 5
  21952200.683 7 115359684.133 7        43.000 7      4379.341 7
  21145401.295 6 111119837.913 6        41.000 6      -476.926 6
  23976245.042 5                        32.000 5     -1441.579 5
  21332943.063 6 112105383.922 6        40.000 6      -394.401 6
  20543734.569 7 107958055.366 7        46.000 7      1397.400 7
  38131457.981 6 200382207.07016        39.000 6      1631.203 6
  37697946.567 6 198104050.777 6        41.000 6      1836.589 6
  36807179.515 6 193423034.88416        37.000 6      1629.371 6
 08 04 28 14 04 42.0000000  0 11G04G07G08G10G13G23G25G27S20S24S26               
  22932645.956 6 120511806.165 6        37.000 6     -1518.652 6
  20289393.868 7 106621493.085 7        44.000 7      1144.049 7
  21146504.948 6 107974746.790 6        41.000 6      4003.997 6
  21951056.764 7 115353672.617 7        44.000 7      4379.365 7
  21145181.232 6 111118682.823 6        41.000 6      -478.343 6
  23976206.277 5 125995814.22015        33.000 5     -1448.193 5
  21332706.598 6 112104145.003 6        39.000 6      -394.477 6
  20543158.401 7 107955026.819 7        46.000 7      1395.503 7
  38130837.516 5                        34.000 5      1630.825 5
  37697286.262 6 198100582.885 6        39.000 6      1834.531 6
  36806557.872 6 193419772.112 6        41.000 6      1629.727 6
 08 04 28 14 04 43.0000000  0 11G04G07G08G10G13G23G25G27S20S24S26               
  22932624.773 6 120511691.971 6        36.000 6     -1518.794 6
  20288865.923 7 106618717.241 7        45.000 7      1143.293 7
  21145432.644 7 107969110.441 7        42.000 7      4004.231 7
  21949913.246 7 115347661.449 7        46.000 7      4378.917 7
  21144961.895 6 111117528.022 6        41.000 6      -476.439 6
  23976171.024 5                        31.000 5     -1437.386 5
  21332470.883 6 112102906.635 6        40.000 6      -393.440 6
  20542582.485 7 107951999.136 7        46.000 7      1394.851 7
  38130216.832 6 200375643.28216        36.000 6      1631.276 6
  37696626.543 6 198097115.595 6        38.000 6      1836.789 6
  36805936.918 6 193416509.884 6        41.000 6      1632.210 6
 08 04 28 14 04 44.0000000  0 11G04G07G08G10G13G23G25G27S20S24S26               
  22932603.135 6 120511576.459 6        40.000 6     -1516.288 6
  20288337.652 7 106615940.582 7        45.000 7      1142.878 7
  21144360.259 7 107963473.051 7        43.000 7      4003.922 7
  21948768.686 7 115341649.200 7        45.000 7      4378.844 7
  21144741.995 6 111116372.171 6        41.000 6      -477.116 6
  23976133.530 4                        27.000 4     -1443.380 4
  21332235.288 6 112101667.375 6        40.000 6      -393.350 6
  20542005.668 7 107948970.565 7        45.000 7      1395.402 7
  38129595.273 5                        31.000 5      1634.330 5
  37695966.479 6 198093646.527 6        38.000 6      1837.176 6
  36805316.064 6 193413246.431 6        41.000 6      1628.596 6
 08 04 28 14 04 45.0000000  0 11G04G07G08G10G13G23G25G27S20S24S26               
  22932581.586 6 120511463.254 6        38.000 6     -1518.990 6
  20287809.358 7 106613166.342 7        44.000 7      1142.002 7
  21143288.295 7 107957838.042 7        42.000 7      4002.371 7
  21947624.697 7 115335639.090 7        45.000 7      4377.697 7
  21144522.727 7 111115218.242 7        42.000 7      -478.667 7
  23976097.279 4                        27.000 4     -1444.396 4
  21331999.790 6 112100430.099 6        39.000 6      -395.085 6
  20541429.622 7 107945944.309 7        46.000 7      1394.134 7
  38128973.803 5                        31.000 5      1627.681 5
  37695306.785 6 198090179.445 6        38.000 6      1834.312 6
  36804695.511 6 193409985.053 6        41.000 6      1628.529 6
 08 04 28 14 04 46.0000000  0 11G04G07G08G10G13G23G25G27S20S24S26               
  22932561.550 6 120511497.99116        38.000 6     -1519.766 6
  20287281.835 7 106610394.520 7        44.000 7      1140.659 7
  21142216.614 7 107952205.269 7        43.000 7      4000.885 7
  21946481.950 7 115329631.083 7        45.000 7      4376.995 7
  21144303.732 6 111114066.473 6        40.000 6      -479.077 6
  23976061.144 4                        29.000 4     -1450.904 4
  21331764.567 6 112099195.169 6        39.000 6      -396.015 6
  20540853.858 7 107942920.334 7        45.000 7      1392.894 7
  38128352.303 5 200365845.03615        32.000 5      1631.654 5
  37694647.304 6 198086714.046 6        36.000 6      1834.810 6
  36804075.162 6 193406725.300 6        41.000 6      1628.085 6
 08 04 28 14 04 47.0000000  0 11G04G07G08G10G13G23G25G27S20S24S26               
  22932540.778 6 120511385.140 6        38.000 6     -1516.884 6
  20286754.309 7 106607621.275 7        44.000 7      1140.765 7
  21141144.345 7 107946571.056 7        42.000 7      4003.398 7
  21945338.118 7 115323621.533 7        45.000 7      4377.517 7
  21144084.167 6 111112912.841 6        40.000 6      -478.928 6
  23976026.936 4                        29.000 4     -1447.174 4
  21331529.481 6 112097958.513 6        41.000 6      -394.666 6
  20540278.562 7 107939894.870 7        45.000 7      1393.341 7
  38127731.479 5                        33.000 5      1627.837 5
  37693987.096 6 198083246.239 6        39.000 6      1836.219 6
  36803454.575 6 193403463.717 6        41.000 6      1630.273 6
 08 04 28 14 04 48.0000000  0 11G04G07G08G10G13G23G25G27S20S24S26               
  22932519.351 6 120511272.633 6        38.000 6     -1519.174 6
  20286226.469 7 106604848.550 7        45.000 7      1139.871 7
  21140071.657 6 107940937.354 6        40.000 6      4000.721 6
  21944194.879 7 115317612.232 7        45.000 7      4377.093 7
  21143864.742 6 111111759.242 6        41.000 6      -478.951 6
  23975991.812 4                        24.000 4     -1444.804 4
  21331294.246 6 112096722.249 6        38.000 6      -394.391 6
  20539703.065 7 107936869.880 7        45.000 7      1392.973 7
  38127110.788 5                        31.000 5      1634.786 5
  37693327.140 6 198079778.483 6        40.000 6      1835.059 6
  36802834.458 6 193400202.169 6        41.000 6      1629.729 6
 08 04 28 14 04 49.0000000  0 11G04G07G08G10G13G23G25G27S20S24S26               
  22932498.224 6 120511161.922 6        36.000 6     -1520.536 6
  20285698.911 7 106602078.016 7        45.000 7      1139.672 7
  21139000.430 7 107935305.605 7        42.000 7      4000.347 7
  21943052.272 7 115311604.710 7        46.000 7      4376.429 7
  21143645.669 7 111110607.588 7        42.000 7      -479.292 7
  23975958.558 4                        29.000 4     -1441.994 4
  21331058.751 6 112095487.910 6        40.000 6      -396.763 6
  20539127.502 7 107933846.940 7        46.000 7      1391.890 7
  38126489.774 5                        30.000 5      1629.590 5
  37692667.746 6 198076312.665 6        41.000 6      1835.486 6
  36802214.511 7 193396941.870 7        42.000 7      1630.251 7
 08 04 28 14 04 50.0000000  0 11G04G07G08G10G13G23G25G27S20S24S26               
  22932476.231 6 120511049.722 6        38.000 6     -1519.170 6
  20285171.612 7 106599306.513 7        45.000 7      1138.628 7
  21137928.650 7 107929672.710 7        42.000 7      4000.134 7
  21941908.640 7 115305595.828 7        45.000 7      4375.884 7
  21143425.921 6 111109454.601 6        41.000 6      -479.726 6
  23975921.537 4                        24.000 4     -1450.760 4
  21330823.760 6 112094252.385 6        40.000 6      -397.455 6
  20538551.962 7 107930822.888 7        45.000 7      1390.883 7
  38125868.978 5                        32.000 5      1632.107 5
  37692008.140 6 198072845.284 6        40.000 6      1835.000 6
  36801593.940 6 193393679.821 6        38.000 6      1628.197 6
 08 04 28 14 04 51.0000000  0 11G04G07G08G10G13G23G25G27S20S24S26               
  22932454.682 6 120510937.914 6        38.000 6     -1519.385 6
  20284644.662 7 106596535.709 7        45.000 7      1139.062 7
  21136856.599 6 107924040.432 6        41.000 6      4000.003 6
  21940764.739 7 115299587.478 7        45.000 7      4376.982 7
  21143206.261 6 111108301.905 6        41.000 6      -478.170 6
  23975885.131 3                        23.000 3     -1446.840 3
  21330588.840 6 112093017.322 6        40.000 6      -396.663 6
  20537976.849 7 107927799.462 7        45.000 7      1391.381 7
  38125247.456 5                        30.000 5      1628.635 5
  37691348.403 6 198069378.177 6        37.000 6      1836.424 6
  36800973.222 6 193390417.963 6        39.000 6      1629.840 6
 08 04 28 14 04 52.0000000  0 11G04G07G08G10G13G23G25G27S20S24S26               
  22932432.293 6 120510824.365 6        38.000 6     -1520.008 6
  20284117.334 7 106593763.468 7        45.000 7      1138.243 7
  21135784.336 6 107918406.589 6        40.000 6      4000.574 6
  21939620.903 7 115293577.368 7        45.000 7      4375.745 7
  21142986.247 6 111107147.404 6        41.000 6      -480.312 6
  23975847.796 3                        23.000 3     -1445.715 3
  21330353.139 6 112091780.628 6        40.000 6      -396.244 6
  20537401.140 7 107924774.533 7        46.000 7      1390.940 7
  38124626.499 5                        30.000 5      1632.407 5
  37690688.121 6 198065909.099 6        39.000 6      1835.754 6
  36800352.334 6 193387154.410 6        39.000 6      1628.203 6
 08 04 28 14 04 53.0000000  0 11G04G07G08G10G13G23G25G27S20S24S26               
  22932410.491 6 120510712.441 6        39.000 6     -1520.618 6
  20283590.305 7 106590993.187 7        44.000 7      1137.754 7
  21134712.879 6 107912774.637 6        40.000 6      4000.267 6
  21938477.193 7 115287568.914 7        44.000 7      4376.073 7
  21142767.258 6 111105994.521 6        40.000 6      -479.872 6
  23975812.426 4                        24.000 4     -1446.066 4
  21330117.677 6 112090545.748 6        40.000 6      -398.173 6
  20536825.958 7 107921751.416 7        45.000 7      1391.105 7
  38124005.493 4                        28.000 4      1634.358 4
  37690028.323 6 198062441.176 6        39.000 6      1836.728 6
  36799731.817 5 193383892.148 5        35.000 5      1631.839 5
 08 04 28 14 04 54.0000000  0 11G04G07G08G10G13G23G25G27S20S24S26               
  22932390.042 6 120510601.305 6        39.000 6     -1520.343 6
  20283063.442 7 106588224.042 7        45.000 7      1136.653 7
  21133640.985 6 107907143.582 6        40.000 6      3999.647 6
  21937334.086 7 115281561.194 7        44.000 7      4376.263 7
  21142548.200 6 111104842.409 6        41.000 6      -479.814 6
  23975779.299 4                        26.000 4     -1448.224 4
  21329882.922 6 112089311.820 6        39.000 6      -397.178 6
  20536250.601 7 107918729.357 7        45.000 7      1390.022 7
  38123384.573 5 200339737.62015        34.000 5      1633.462 5
  37689368.751 6 198058973.751 6        40.000 6      1835.891 6
  36799110.818 4                        28.000 4      1631.126 4
 08 04 28 14 04 55.0000000  0 10G04G07G08G10G13G23G25G27S20S24                  
  22932368.185 6 120510488.428 6        38.000 6     -1520.501 6
  20282536.454 7 106585453.745 7        45.000 7      1137.147 7
  21132569.166 6 107901511.222 6        40.000 6      3998.615 6
  21936190.538 7 115275552.036 7        44.000 7      4375.664 7
  21142328.597 6 111103688.756 6        40.000 6      -480.585 6
  23975744.800 4                        27.000 4     -1446.929 4
  21329648.443 6 112088076.493 6        39.000 6      -398.116 6
  20535675.537 7 107915706.015 7        45.000 7      1389.417 7
  38122763.511 5 200336476.80515        34.000 5      1632.391 5
  37688708.514 6 198055504.397 6        40.000 6      1836.021 6
 08 04 28 14 04 56.0000000  0 10G04G07G08G10G13G23G25G27S20S24                  
  22932347.535 6 120510377.110 6        38.000 6     -1520.218 6
  20282009.434 7 106582685.354 7        45.000 7      1136.321 7
  21131497.203 6 107895880.575 6        40.000 6      3997.979 6
  21935047.779 7 115269544.469 7        44.000 7      4375.870 7
  21142109.338 7 111102536.809 7        42.000 7      -479.778 7
  23975712.319 3                        20.000 3     -1445.989 3
  21329414.106 6 112086842.923 6        38.000 6      -398.615 6
  20535100.564 7 107912684.451 7        45.000 7      1389.482 7
  38122142.329 5 200333211.29115        32.000 5      1629.977 5
  37688048.482 5                        30.000 5      1843.314 5
 08 04 28 14 04 57.0000000  0  9G04G07G08G10G13G23G25G27S20                     
  22932326.108 6 120510265.665 6        38.000 6     -1520.263 6
  20281482.108 7 106579917.404 7        44.000 7      1134.918 7
  21130425.431 6 107890250.049 6        40.000 6      3997.897 6
  21933905.160 7 115263536.809 7        45.000 7      4375.590 7
  21141889.589 6 111101384.864 6        41.000 6      -482.072 6
  23975674.656 4                        24.000 4     -1442.114 4
  21329179.203 6 112085609.635 6        40.000 6      -398.923 6
  20534525.870 7 107909663.191 7        46.000 7      1388.505 7
  38121521.401 5 200329949.50115        34.000 5      1630.157 5
 08 04 28 14 04 58.0000000  0  9G04G07G08G10G13G23G25G27S20                     
  22932304.242 6 120510152.970 6        37.000 6     -1521.086 6
  20280955.565 7 106577148.600 7        45.000 7      1134.181 7
  21129354.756 7 107884618.604 7        42.000 7      3996.747 7
  21932761.394 7 115257527.977 7        44.000 7      4374.017 7
  21141670.588 6 111100231.772 6        41.000 6      -481.905 6
  23975639.928 4                        28.000 4     -1447.869 4
  21328944.287 6 112084375.267 6        40.000 6      -400.597 6
  20533950.728 7 107906641.000 7        46.000 7      1387.652 7
  38120900.244 5 200326686.17715        34.000 5      1632.877 5
 08 04 28 14 04 59.0000000  0  9G04G07G08G10G13G23G25G27S20                     
  22932282.813 6 120510040.897 6        39.000 6     -1520.065 6
  20280429.057 7 106574380.688 7        45.000 7      1134.155 7
  21128283.330 6 107878987.846 6        41.000 6      3996.180 6
  21931618.170 7 115251519.788 7        45.000 7      4374.482 7
  21141451.065 6 111099079.158 6        40.000 6      -479.276 6
  23975606.563 3                        21.000 3     -1443.046 3
  21328709.503 6 112083141.607 6        39.000 6      -397.312 6
  20533375.307 7 107903619.563 7        46.000 7      1388.216 7
  38120278.851 5 200323419.21815        33.000 5      1633.768 5
 08 04 28 14 05  0.0000000  0  9G04G07G08G10G13G23G25G27S20                     
  22932262.354 6 120509930.467 6        38.000 6     -1522.274 6
  20279902.770 7 106571614.643 7        45.000 7      1134.501 7
  21127211.891 6 107873358.988 6        41.000 6      3997.482 6
  21930475.455 7 115245513.262 7        45.000 7      4375.032 7
  21141231.779 7 111097928.071 7        42.000 7      -480.183 7
  23975572.625 4                        26.000 4     -1441.912 4
  21328474.887 6 112081909.586 6        40.000 6      -399.519 6
  20532800.666 7 107900599.921 7        46.000 7      1388.368 7
  38119658.088 5 200320159.62015        34.000 5      1632.918 5
 08 04 28 14 05  1.0000000  0  9G04G07G08G10G13G23G25G27S20                     
  22932242.114 6 120509820.328 6        40.000 6     -1523.227 6
  20279376.448 7 106568849.278 7        45.000 7      1132.056 7
  21126141.576 7 107867730.645 7        42.000 7      3994.979 7
  21929332.102 7 115239507.130 7        44.000 7      4372.372 7
  21141012.650 6 111096777.117 6        41.000 6      -480.617 6
  23975537.229 4                        27.000 4     -1444.843 4
  21328240.105 6 112080677.891 6        39.000 6      -402.466 6
  20532226.381 7 107897580.844 7        46.000 7      1385.951 7
  38119037.195 5 200316896.38715        33.000 5      1631.609 5
 08 04 28 14 05  2.0000000  0  9G04G07G08G10G13G23G25G27S20                     
  22932221.191 6 120509709.153 6        38.000 6     -1522.769 6
  20278850.288 7 106566083.096 7        45.000 7      1131.880 7
  21125069.635 6 107862101.485 6        41.000 6      3995.515 6
  21928189.114 7 115233499.904 7        45.000 7      4373.604 7
  21140793.309 6 111095625.166 6        41.000 6      -482.118 6
  23975500.215 3                        23.000 3     -1450.728 3
  21328006.473 6 112079445.322 6        40.000 6      -400.730 6
  20531651.833 7 107894560.900 7        46.000 7      1385.810 7
  38118415.992 5 200313631.76615        34.000 5      1628.074 5
 08 04 28 14 05  3.0000000  0  9G04G07G08G10G13G23G25G27S20                     
  22932200.584 6 120509599.643 6        39.000 6     -1524.767 6
  20278324.621 7 106563319.294 7        45.000 7      1130.792 7
  21123999.408 7 107856474.287 7        42.000 7      3992.883 7
  21927045.944 7 115227494.476 7        43.000 7      4372.155 7
  21140575.070 6 111094475.203 6        41.000 6      -482.517 6
  23975465.040 4                        24.000 4     -1444.478 4
  21327772.354 6 112078214.893 6        40.000 6      -402.324 6
  20531077.523 7 107891543.159 7        46.000 7      1385.002 7
  38117794.986 5 200310368.50815        33.000 5      1630.777 5
 08 04 28 14 05  4.0000000  0  9G04G07G08G10G13G23G25G27S20                     
  22932178.469 6 120509489.998 6        39.000 6     -1522.809 6
  20277798.535 7 106560555.684 7        45.000 7      1130.857 7
  21122928.859 7 107850847.218 7        42.000 7      3995.635 7
  21925903.177 7 115221489.019 7        45.000 7      4373.045 7
  21140356.430 7 111093325.113 7        42.000 7      -482.474 7
  23975432.943 4                        26.000 4     -1443.603 4
  21327537.983 6 112076984.534 6        40.000 6      -402.137 6
  20530503.074 7 107888525.523 7        45.000 7      1385.858 7
  38117174.040 5 200307106.88415        34.000 5      1629.234 5
 08 04 28 14 05  5.0000000  0  9G04G07G08G10G13G23G25G27S20                     
  22932157.824 6 120509379.259 6        40.000 6     -1523.533 6
  20277272.436 7 106557791.292 7        45.000 7      1130.103 7
  21121858.226 6 107845219.227 6        41.000 6      3993.344 6
  21924760.493 7 115215482.538 7        44.000 7      4372.822 7
  21140137.255 6 111092173.878 6        40.000 6      -482.566 6
  23975394.882 3                        23.000 3     -1447.280 3
  21327303.617 6 112075753.124 6        39.000 6      -403.214 6
  20529928.961 7 107885506.995 7        46.000 7      1384.512 7
  38116553.450 5                        34.000 5      1630.448 5
 08 04 28 14 05  6.0000000  0  9G04G07G08G10G13G23G25G27S20                     
  22932136.206 6 120509270.905 6        39.000 6     -1525.070 6
  20276746.516 7 106555029.567 7        44.000 7      1128.899 7
  21120787.214 6 107839593.802 6        41.000 6      3992.947 6
  21923617.647 7 115209478.453 7        45.000 7      4372.300 7
  21139918.292 7 111091024.824 7        42.000 7      -482.690 7
  23975360.517 4                        27.000 4     -1445.863 4
  21327069.752 6 112074524.182 6        39.000 6      -403.086 6
  20529355.035 7 107882491.018 7        46.000 7      1383.385 7
  38115932.216 5 200300576.95915        35.000 5      1628.153 5
 08 04 28 14 05  7.0000000  0  9G04G07G08G10G13G23G25G27S20                     
  22932116.001 6 120509163.239 6        38.000 6     -1524.913 6
  20276220.674 7 106552268.513 7        45.000 7      1128.590 7
  21119716.358 6 107833969.061 6        40.000 6      3991.149 6
  21922475.394 7 115203474.880 7        45.000 7      4371.806 7
  21139699.670 6 111089876.051 6        41.000 6      -484.304 6
  23975326.314 3                        18.000 3     -1456.313 3
  21326836.279 6 112073295.587 6        39.000 6      -404.623 6
  20528781.318 7 107879475.651 7        46.000 7      1383.153 7
  38115311.992 5                        33.000 5      1620.463 5
 08 04 28 14 05  8.0000000  0  9G04G07G08G10G13G23G25G27S20                     
  22932096.005 6 120509055.980 6        37.000 6     -1523.520 6
  20275695.312 7 106549508.400 7        44.000 7      1128.847 7
  21118646.411 7 107828345.216 7        42.000 7      3992.211 7
  21921332.827 7 115197471.848 7        45.000 7      4371.420 7
  21139481.780 6 111088727.872 6        41.000 6      -483.991 6
  23975291.844 3                        22.000 3     -1454.938 3
  21326602.955 6 112072067.767 6        39.000 6      -403.937 6
  20528207.532 7 107876461.161 7        45.000 7      1382.674 7
  38114691.322 5                        31.000 5      1639.143 5
 08 04 28 14 05  9.0000000  0  9G04G07G08G10G13G23G25G27S20                     
  22932077.042 6 120508950.475 6        38.000 6     -1525.616 6
  20275170.319 7 106546750.410 7        45.000 7      1128.026 7
  21117576.186 7 107822723.250 7        42.000 7      3991.631 7
  21920190.796 7 115191470.550 7        45.000 7      4371.740 7
  21139263.554 7 111087581.451 7        42.000 7      -483.565 7
  23975257.109 3                        23.000 3     -1443.938 3
  21326370.044 6 112070841.897 6        41.000 6      -402.754 6
  20527634.298 7 107873448.637 7        46.000 7      1381.885 7
  38114070.019 5                        32.000 5      1629.234 5
 08 04 28 14 05 10.0000000  0  9G04G07G08G10G13G23G25G27S20                     
  22932056.384 6 120508843.381 6        38.000 6     -1524.859 6
  20274645.244 7 106543991.240 7        45.000 7      1126.873 7
  21116505.986 6 107817099.929 6        41.000 6      3991.568 6
  21919049.040 7 115185467.958 7        45.000 7      4370.313 7
  21139045.664 6 111086433.493 6        41.000 6      -484.229 6
  23975220.368 3                        23.000 3     -1451.938 3
  21326136.615 6 112069614.618 6        40.000 6      -403.888 6
  20527060.869 7 107870434.824 7        46.000 7      1381.483 7
  38113450.130 5                        33.000 5      1629.885 5
 08 04 28 14 05 11.0000000  0  9G04G07G08G10G13G23G25G27S20                     
  22932035.925 6 120508736.075 6        38.000 6     -1527.354 6
  20274120.144 7 106541232.268 7        44.000 7      1128.011 7
  21115436.142 6 107811476.729 6        41.000 6      3991.896 6
  21917906.613 7 115179465.355 7        44.000 7      4370.179 7
  21138827.530 6 111085285.397 6        41.000 6      -483.692 6
  23975185.123 4                        28.000 4     -1443.627 4
  21325902.121 6 112068387.340 6        38.000 6      -404.565 6
  20526487.414 7 107867421.115 7        46.000 7      1381.422 7
  38112828.556 5                        31.000 5      1630.655 5
 08 04 28 14 05 12.0000000  0  9G04G07G08G10G13G23G25G27S20                     
  22932016.061 6 120508629.394 6        38.000 6     -1526.119 6
  20273595.096 7 106538474.157 7        44.000 7      1125.091 7
  21114366.002 6 107805854.201 6        40.000 6      3990.845 6
  21916764.665 7 115173463.138 7        45.000 7      4369.948 7
  21138608.820 6 111084137.759 6        39.000 6      -485.375 6
  23975149.509 4                        28.000 4     -1444.717 4
  21325668.588 6 112067160.700 6        40.000 6      -405.629 6
  20525914.483 7 107864408.173 7        45.000 7      1380.296 7
  38112207.941 4                        28.000 4      1624.838 4
 08 04 28 14 05 13.0000000  0  9G04G07G08G10G13G23G25G27S20                     
  22931995.519 6 120508524.492 6        38.000 6     -1524.544 6
  20273071.037 7 106535718.280 7        45.000 7      1126.047 7
  21113297.078 7 107800233.789 7        42.000 7      3989.639 7
  21915623.070 7 115167462.776 7        44.000 7      4370.073 7
  21138390.498 6 111082992.015 6        39.000 6      -483.983 6
  23975112.468 5                        30.000 5     -1445.065 5
  21325435.712 6 112065936.091 6        40.000 6      -404.590 6
  20525341.493 7 107861397.357 7        46.000 7      1379.868 7
  38111587.270 6 200277744.13016        37.000 6      1630.396 6
 08 04 28 14 05 14.0000000  0  9G04G07G08G10G13G23G25G27S20                     
  22931975.119 6 120508416.357 6        39.000 6     -1523.599 6
  20272546.422 7 106532959.468 7        45.000 7      1125.959 7
  21112226.499 6 107794610.352 6        40.000 6      3990.536 6
  21914480.509 7 115161459.291 7        45.000 7      4370.476 7
  21138171.506 6 111081842.932 6        40.000 6      -482.804 6
  23975074.791 5                        30.000 5     -1450.351 5
  21325201.555 6 112064708.350 6        40.000 6      -405.495 6
  20524767.983 7 107858383.504 7        45.000 7      1380.907 7
  38110965.259 5 200274471.60315        34.000 5      1635.990 5
 08 04 28 14 05 15.0000000  0  9G04G07G08G10G13G23G25G27S20                     
  22931954.006 5 120508309.981 5        34.000 5     -1525.402 5
  20272021.705 7 106530202.701 7        45.000 7      1124.280 7
  21111156.848 6 107788988.777 6        40.000 6      3989.955 6
  21913338.038 7 115155457.465 7        44.000 7      4369.839 7
  21137953.180 6 111080695.631 6        41.000 6      -484.527 6
  23975037.443 4                        26.000 4     -1442.067 4
  21324967.733 6 112063482.415 6        39.000 6      -406.752 6
  20524194.825 7 107855371.576 7        46.000 7      1379.608 7
  38110344.338 5 200271208.400 5        35.000 5      1630.833 5
 08 04 28 14 05 16.0000000  0  9G04G07G08G10G13G23G25G27S20                     
  22931934.186 5                        31.000 5     -1523.025 5
  20271496.771 7 106527446.461 7        44.000 7      1123.849 7
  21110087.467 7 107783367.434 7        43.000 7      3989.562 7
  21912195.480 7 115149455.682 7        44.000 7      4370.502 7
  21137734.409 6 111079548.467 6        41.000 6      -486.077 6
  23975002.133 3                        23.000 3     -1448.216 3
  21324734.889 6 112062256.970 6        39.000 6      -406.151 6
  20523621.527 7 107852360.037 7        46.000 7      1379.495 7
  38109723.262 5 200267944.93415        33.000 5      1630.613 5
 08 04 28 14 05 17.0000000  0  9G04G07G08G10G13G23G25G27S20                     
  22931911.616 5 120508008.67115        34.000 5     -1525.953 5
  20270972.377 7 106524690.773 7        44.000 7      1122.878 7
  21109017.484 7 107777746.598 7        42.000 7      3987.725 7
  21911053.611 7 115143454.248 7        45.000 7      4368.748 7
  21137516.354 7 111078401.559 7        42.000 7      -484.207 7
  23974967.462 4                        25.000 4     -1447.543 4
  21324502.001 6 112061031.757 6        38.000 6      -407.755 6
  20523048.325 7 107849348.984 7        45.000 7      1379.103 7
  38109102.018 4                        27.000 4      1623.430 4
 08 04 28 14 05 18.0000000  0  9G04G07G08G10G13G23G25G27S20                     
  22931892.071 5 120507901.204 5        35.000 5     -1526.024 5
  20270448.233 7 106521934.291 7        45.000 7      1122.666 7
  21107947.952 7 107772124.808 7        43.000 7      3988.150 7
  21909911.695 7 115137451.854 7        44.000 7      4368.064 7
  21137298.199 7 111077253.360 7        42.000 7      -485.475 7
  23974934.340 3                        20.000 3     -1450.299 3
  21324267.975 6 112059805.563 6        39.000 6      -408.091 6
  20522475.024 7 107846337.006 7        45.000 7      1377.985 7
  38108479.945 5 200261415.05915        33.000 5      1630.270 5
 08 04 28 14 05 19.0000000  0  9G04G07G08G10G13G23G25G27S20                     
  22931872.912 5 120507816.44215        35.000 5     -1527.962 5
  20269924.005 7 106519180.410 7        45.000 7      1121.433 7
  21106878.667 7 107766505.392 7        43.000 7      3987.330 7
  21908769.992 7 115131451.520 7        44.000 7      4368.180 7
  21137079.759 7 111076107.501 7        43.000 7      -487.448 7
  23974897.539 3                        21.000 3     -1456.924 3
  21324034.878 6 112058581.809 6        40.000 6      -408.303 6
  20521902.119 7 107843327.467 7        45.000 7      1377.826 7
  38107858.720 5 200258148.06815        32.000 5      1629.478 5
 08 04 28 14 05 20.0000000  0  9G04G07G08G10G13G23G25G27S20                     
  22931850.257 6 120507710.988 6        37.000 6     -1524.458 6
  20269400.126 7 106516426.561 7        45.000 7      1121.077 7
  21105809.286 7 107760885.966 7        43.000 7      3986.621 7
  21907628.350 7 115125450.895 7        44.000 7      4367.859 7
  21136861.984 7 111074961.322 7        42.000 7      -485.798 7
  23974864.389 4                        27.000 4     -1445.645 4
  21323802.374 6 112057357.857 6        41.000 6      -408.778 6
  20521329.798 7 107840317.956 7        46.000 7      1377.361 7
  38107237.217 5                        30.000 5      1631.739 5
 08 04 28 14 05 21.0000000  0  9G04G07G08G10G13G23G25G27S20                     
  22931833.297 5 120507605.808 5        35.000 5     -1526.952 5
  20268876.256 7 106513673.362 7        45.000 7      1120.356 7
  21104740.263 7 107755267.041 7        44.000 7      3986.497 7
  21906485.922 7 115119450.688 7        43.000 7      4367.057 7
  21136643.946 7 111073815.347 7        42.000 7      -486.284 7
  23974830.207 4                        28.000 4     -1441.116 4
  21323570.262 6 112056134.335 6        40.000 6      -409.373 6
  20520757.076 7 107837308.925 7        46.000 7      1376.778 7
  38106616.825 4                        29.000 4      1615.386 4
 08 04 28 14 05 22.0000000  0  9G04G07G08G10G13G23G25G27S20                     
  22931814.035 5 120507512.75715        32.000 5     -1525.003 5
  20268352.857 7 106510920.852 7        45.000 7      1120.734 7
  21103671.432 7 107749648.605 7        42.000 7      3986.287 7
  21905344.595 7 115113450.932 7        45.000 7      4368.455 7
  21136426.231 6 111072669.829 6        41.000 6      -486.031 6
  23974793.790 4                        28.000 4     -1443.537 4
  21323338.160 7 112054911.291 7        42.000 7      -408.330 7
  20520184.651 7 107834300.493 7        45.000 7      1376.873 7
  38105996.495 5                        30.000 5      1632.900 5
 08 04 28 14 05 23.0000000  0  9G04G07G08G10G13G23G25G27S20                     
  22931797.294 4                        29.000 4     -1522.382 4
  20267828.917 7 106508168.931 7        45.000 7      1119.471 7
  21102602.443 6 107744030.633 6        39.000 6      3986.159 6
  21904202.926 7 115107451.458 7        45.000 7      4367.266 7
  21136207.774 6 111071524.450 6        39.000 6      -487.837 6
  23974758.246 4                        28.000 4     -1445.402 4
  21323105.088 6 112053688.656 6        39.000 6      -409.928 6
  20519612.374 7 107831292.514 7        46.000 7      1375.235 7
  38105374.756 5                        33.000 5      1633.614 5
 08 04 28 14 05 24.0000000  0  9G04G07G08G10G13G23G25G27S20                     
  22931775.095 5                        31.000 5     -1529.301 5
  20267305.087 7 106505415.876 7        45.000 7      1118.356 7
  21101533.408 7 107738411.444 7        42.000 7      3984.765 7
  21903061.299 7 115101450.038 7        45.000 7      4368.370 7
  21135989.619 6 111070377.648 6        41.000 6      -487.325 6
  23974719.810 4                        28.000 4     -1451.491 4
  21322871.988 6 112052464.677 6        40.000 6      -409.788 6
  20519039.998 7 107828283.312 7        46.000 7      1374.838 7
  38104753.413 5                        32.000 5      1627.295 5
 08 04 28 14 05 25.0000000  0  9G04G07G08G10G13G23G25G27S20                     
  22931755.972 4                        29.000 4     -1529.632 4
  20266781.793 7 106502665.559 7        46.000 7      1117.464 7
  21100464.385 7 107732795.031 7        45.000 7      3983.669 7
  21901919.499 7 115095450.355 7        43.000 7      4367.249 7
  21135771.808 7 111069233.050 7        43.000 7      -488.002 7
  23974684.181 4                        28.000 4     -1443.833 4
  21322639.754 7 112051242.994 7        44.000 7      -410.588 7
  20518467.694 7 107825276.726 7        46.000 7      1373.401 7
  38104130.566 4                        28.000 4      1629.228 4
 08 04 28 14 05 26.0000000  0  9G04G07G08G10G13G23G25G27S20                     
  22931730.894 5                        31.000 5     -1526.914 5
  20266259.235 7 106499917.367 7        46.000 7      1117.488 7
  21099395.836 6 107727180.352 6        41.000 6      3984.341 6
  21900777.512 6 115089451.877 6        40.000 6      4368.531 6
  21135554.951 7 111068090.485 7        44.000 7      -488.439 7
  23974643.029 6 125987600.62416        37.000 6     -1447.490 6
  21322407.872 6 112050023.449 6        41.000 6      -410.703 6
  20517895.630 7 107822272.085 7        44.000 7      1373.388 7
  38103510.775 5                        33.000 5      1628.600 5
 08 04 28 14 05 27.0000000  0  9G04G07G08G10G13G23G25G27S20                     
  22931708.704 6 120506942.10116        36.000 6     -1528.924 6
  20265735.937 7 106497167.441 7        46.000 7      1115.760 7
  21098326.278 6 107721563.135 6        36.000 6      3983.296 6
  21899635.465 6 115083449.571 6        41.000 6      4369.044 6
  21135337.538 7 111066946.329 7        42.000 7      -489.883 7
  23974604.585 6 125987415.792 6        37.000 6     -1449.767 6
  21322175.922 6 112048802.237 6        38.000 6      -414.427 6
  20517323.349 7 107819265.383 7        45.000 7      1372.492 7
  38102889.042 6 200232034.71416        37.000 6      1631.081 6
 08 04 28 14 05 28.0000000  0  9G04G07G08G10G13G23G25G27S20                     
  22931685.926 5 120506837.464 5        34.000 5     -1528.547 5
  20265212.826 7 106494419.817 7        46.000 7      1115.279 7
  21097257.177 5 107715947.364 5        34.000 5      3985.457 5
  21898493.771 6 115077448.383 6        39.000 6      4368.693 6
  21135120.417 7 111065804.374 7        43.000 7      -489.229 7
  23974571.441 6 125987233.509 6        36.000 6     -1450.088 6
  21321942.704 6 112047583.240 6        38.000 6      -411.551 6
  20516752.120 7 107816260.769 7        45.000 7      1372.549 7
  38102268.385 6 200228770.216 6        36.000 6      1634.521 6
 08 04 28 14 05 29.0000000  0  9G04G07G08G10G13G23G25G27S20                     
  22931672.213 6 120506732.567 6        39.000 6     -1526.595 6
  20264690.125 7 106491672.528 7        46.000 7      1115.281 7
  21096188.405 5 107710331.752 5        33.000 5      3980.275 5
  21897351.945 6 115071447.609 6        39.000 6      4367.862 6
  21134903.251 7 111064662.366 7        42.000 7      -489.961 7
  23974537.442 5 125987051.049 5        34.000 5     -1449.323 5
  21321710.635 6 112046364.549 6        40.000 6      -413.166 6
  20516180.191 7 107813256.359 7        45.000 7      1371.563 7
  38101647.387 6 200225505.126 6        38.000 6      1633.810 6
 08 04 28 14 05 30.0000000  0  9G04G07G08G10G13G23G25G27S20                     
  22931651.868 6 120506628.080 6        41.000 6     -1527.699 6
  20264167.860 7 106488925.885 7        46.000 7      1114.375 7
  21095120.736 5 107704716.719 5        35.000 5      3984.174 5
  21896210.845 6 115065447.308 6        39.000 6      4369.416 6
  21134686.086 7 111063520.643 7        42.000 7      -490.304 7
  23974499.946 3                        20.000 3     -1441.223 3
  21321479.615 6 112045146.348 6        40.000 6      -413.406 6
  20515608.761 7 107810252.494 7        45.000 7      1371.783 7
  38101025.936 6 200222240.096 6        38.000 6      1634.060 6
 08 04 28 14 05 31.0000000  0  9G04G07G08G10G13G23G25G27S20                     
  22931632.820 6 120506522.298 6        38.000 6     -1527.932 6
  20263644.903 7 106486178.288 7        46.000 7      1113.268 7
  21094051.255 6 107699100.714 6        37.000 6      3981.721 6
  21895067.882 6 115059445.531 6        39.000 6      4368.570 6
  21134468.550 7 111062377.605 7        44.000 7      -491.415 7
  23974464.964 3                        20.000 3     -1447.598 3
  21321247.788 6 112043926.830 6        39.000 6      -413.308 6
  20515036.699 7 107807247.605 7        44.000 7      1370.512 7
  38100404.419 6 200218973.629 6        38.000 6      1632.065 6
 08 04 28 14 05 32.0000000  0  9G04G07G08G10G13G23G25G27S20                     
  22931612.894 7 120506418.495 7        42.000 7     -1529.206 7
  20263122.612 7 106483432.878 7        46.000 7      1113.240 7
  21092983.384 5 107693486.624 5        35.000 5      3983.253 5
  21893926.188 6 115053445.500 6        38.000 6      4368.991 6
  21134251.499 7 111061236.394 7        44.000 7      -490.454 7
  23974431.557 3                        22.000 3     -1453.098 3
  21321016.479 6 112042709.246 6        38.000 6      -414.781 6
  20514465.041 7 107804244.792 7        45.000 7      1370.266 7
  38099783.064 6 200215708.835 6        37.000 6      1632.735 6
 08 04 28 14 05 33.0000000  0  9G04G07G08G10G13G23G25G27S20                     
  22931593.288 6 120506313.148 6        41.000 6     -1529.066 6
  20262600.082 7 106480686.527 7        45.000 7      1111.698 7
  21091915.387 6 107687871.502 6        37.000 6      3980.219 6
  21892784.228 6 115047444.386 6        38.000 6      4366.055 6
  21134034.251 7 111060093.890 7        45.000 7      -491.529 7
  23974394.555 4                        25.000 4     -1445.473 4
  21320784.242 6 112041490.654 6        38.000 6      -415.323 6
  20513893.616 7 107801240.906 7        45.000 7      1369.298 7
  38099161.758 6 200212442.416 6        38.000 6      1633.740 6
 08 04 28 14 05 34.0000000  0  9G04G07G08G10G13G23G25G27S20                     
  22931573.467 6 120506209.888 6        41.000 6     -1528.931 6
  20262078.018 7 106477942.561 7        45.000 7      1111.037 7
  21090847.769 5 107682258.657 5        35.000 5      3980.502 5
  21891642.673 6 115041445.324 6        38.000 6      4366.507 6
  21133817.295 7 111058953.401 7        45.000 7      -491.936 7
  23974356.985 3                        21.000 3     -1451.513 3
  21320552.872 6 112040274.166 6        38.000 6      -416.472 6
  20513322.325 7 107798239.316 7        45.000 7      1368.454 7
  38098540.812 6 200209177.817 6        36.000 6      1631.609 6
 08 04 28 14 05 35.0000000  0  9G04G07G08G10G13G23G25G27S20                     
  22931553.512 6 120506105.478 6        41.000 6     -1529.009 6
  20261555.375 7 106475197.779 7        46.000 7      1110.416 7
  21089779.527 5 107676644.757 5        35.000 5      3977.560 5
  21890501.769 6 115035445.206 6        40.000 6      4365.170 6
  21133600.188 7 111057811.728 7        45.000 7      -491.831 7
  23974320.531 4                        25.000 4     -1453.263 4
  21320320.801 6 112039056.737 6        38.000 6      -417.324 6
  20512751.319 7 107795236.817 7        45.000 7      1369.050 7
  38097919.148 6 200205911.795 6        38.000 6      1633.022 6
 08 04 28 14 05 36.0000000  0  9G04G07G08G10G13G23G25G27S20                     
  22931533.900 6 120506002.511 6        40.000 6     -1530.156 6
  20261033.416 7 106472454.864 7        46.000 7      1110.984 7
  21088712.005 6 107671032.595 6        36.000 6      3979.235 6
  21889360.075 6 115029446.656 6        39.000 6      4367.104 6
  21133383.319 7 111056671.570 7        44.000 7      -491.241 7
  23974283.924 4                        29.000 4     -1448.056 4
  21320089.196 6 112037840.903 6        38.000 6      -415.656 6
  20512180.307 7 107792236.059 7        45.000 7      1369.253 7
  38097298.028 6 200202647.046 6        37.000 6      1631.658 6
 08 04 28 14 05 37.0000000  0  9G04G07G08G10G13G23G25G27S20                     
  22931514.577 6 120505900.004 6        41.000 6     -1529.075 6
  20260511.805 7 106469712.313 7        46.000 7      1109.908 7
  21087643.767 6 107665420.748 6        36.000 6      3978.509 6
  21888218.390 6 115023448.039 6        39.000 6      4368.718 6
  21133166.302 7 111055531.440 7        43.000 7      -492.302 7
  23974252.550 4                        26.000 4     -1451.376 4
  21319857.564 6 112036625.268 6        38.000 6      -415.526 6
  20511609.312 7 107789235.554 7        45.000 7      1367.971 7
  38096676.856 6 200199382.047 6        37.000 6      1635.192 6
 08 04 28 14 05 38.0000000  0  9G04G07G08G10G13G23G25G27S20                     
  22931494.543 6 120505796.084 6        40.000 6     -1529.242 6
  20259989.782 7 106466969.161 7        46.000 7      1109.629 7
  21086576.085 6 107659808.162 6        36.000 6      3980.116 6
  21887076.169 6 115017448.472 6        40.000 6      4367.750 6
  21132948.968 7 111054390.356 7        44.000 7      -492.876 7
  23974219.611 3                        20.000 3     -1456.873 3
  21319626.505 6 112035408.803 6        40.000 6      -417.906 6
  20511037.416 7 107786234.366 7        44.000 7      1367.903 7
  38096055.270 6 200196115.664 6        37.000 6      1631.987 6
 08 04 28 14 05 39.0000000  0  9G04G07G08G10G13G23G25G27S20                     
  22931474.599 6 120505694.115 6        40.000 6     -1531.334 6
  20259468.555 7 106464228.308 7        46.000 7      1107.701 7
  21085508.362 5 107654197.814 5        35.000 5      3978.101 5
  21885934.848 6 115011450.719 6        41.000 6      4362.585 6
  21132731.898 7 111053251.130 7        42.000 7      -494.164 7
  23974188.047 3                        23.000 3     -1451.498 3
  21319395.501 6 112034194.371 6        40.000 6      -420.025 6
  20510466.500 7 107783235.345 7        44.000 7      1365.636 7
  38095434.080 6 200192850.919 6        36.000 6      1633.952 6
 08 04 28 14 05 40.0000000  0  9G04G07G08G10G13G23G25G27S20                     
  22931455.005 6 120505592.856 6        41.000 6     -1531.566 6
  20258947.014 7 106461488.406 7        46.000 7      1107.309 7
  21084441.258 6 107648588.226 6        37.000 6      3976.704 6
  21884793.817 6 115005453.546 6        40.000 6      4363.617 6
  21132515.274 7 111052112.524 7        43.000 7      -493.530 7
  23974160.302 2                        17.000 2     -1456.623 2
  21319164.725 6 112032980.719 6        40.000 6      -419.420 6
  20509896.491 7 107780237.170 7        45.000 7      1365.494 7
  38094813.038 6 200189586.640 6        37.000 6      1630.309 6
 08 04 28 14 05 41.0000000  0  9G04G07G08G10G13G23G25G27S20                     
  22931436.353 6 120505491.976 6        40.000 6     -1532.194 6
  20258425.526 7 106458749.123 7        47.000 7      1105.953 7
  21083373.037 6 107642979.266 6        36.000 6      3975.156 6
  21883652.838 6 114999456.335 6        41.000 6      4364.443 6
  21132298.571 7 111050974.118 7        44.000 7      -494.261 7
  23974127.542 3                        19.000 3     -1454.748 3
  21318934.611 6 112031767.392 6        41.000 6      -419.664 6
  20509326.046 7 107777239.546 7        45.000 7      1364.632 7
  38094192.241 6 200186322.551 6        38.000 6      1631.693 6
 08 04 28 14 05 42.0000000  0  9G04G07G08G10G13G23G25G27S20                     
  22931417.008 6 120505389.379 6        40.000 6     -1533.201 6
  20257904.122 7 106456008.742 7        47.000 7      1106.034 7
  21082305.023 6 107637369.121 6        36.000 6      3976.168 6
  21882511.394 6 114993457.660 6        41.000 6      4364.518 6
  21132081.917 7 111049834.257 7        44.000 7      -493.763 7
  23974096.656 2                        16.000 2     -1449.748 2
  21318703.255 6 112030552.706 6        40.000 6      -420.292 6
  20508755.485 7 107774240.705 7        45.000 7      1365.157 7
  38093570.952 6 200183056.722 6        40.000 6      1631.789 6
 08 04 28 14 05 43.0000000  0  9G04G07G08G10G13G23G25G27S20                     
  22931397.956 6 120505288.503 6        41.000 6     -1530.773 6
  20257382.922 7 106453270.206 7        47.000 7      1106.434 7
  21081237.789 6 107631760.523 6        38.000 6      3976.379 6
  21881369.700 6 114987460.482 6        40.000 6      4364.491 6
  21131865.310 7 111048695.818 7        44.000 7      -493.683 7
  23974069.136 3                        19.000 3     -1464.748 3
  21318472.496 6 112029339.660 6        39.000 6      -420.074 6
  20508185.390 7 107771243.577 7        45.000 7      1364.759 7
  38092949.658 6 200179792.099 6        39.000 6      1632.703 6
 08 04 28 14 05 44.0000000  0  9G04G07G08G10G13G23G25G27S20                     
  22931379.121 7 120505187.701 7        42.000 7     -1531.137 7
  20256862.114 7 106450532.277 7        47.000 7      1105.193 7
  21080169.857 6 107626152.521 6        36.000 6      3976.866 6
  21880228.450 6 114981463.740 6        41.000 6      4363.402 6
  21131648.441 7 111047557.676 7        42.000 7      -494.965 7
  23974039.318 3                        20.000 3     -1455.498 3
  21318241.563 6 112028127.116 6        40.000 6      -420.638 6
  20507614.980 7 107768246.972 7        45.000 7      1363.657 7
  38092328.355 6 200176527.620 6        39.000 6      1632.519 6
 08 04 28 14 05 45.0000000  0  9G04G07G08G10G13G23G25G27S20                     
  22931359.166 6 120505085.956 6        39.000 6     -1530.546 6
  20256340.884 7 106447793.714 7        47.000 7      1105.038 7
  21079103.465 6 107620543.627 6        38.000 6      3975.199 6
  21879086.587 6 114975466.248 6        40.000 6      4364.669 6
  21131432.023 7 111046418.597 7        43.000 7      -494.068 7
  23974008.765 3                        19.000 3     -1444.623 3
  21318010.731 6 112026913.706 6        41.000 6      -419.875 6
  20507045.116 7 107765249.651 7        45.000 7      1363.585 7
  38091706.699 6 200173261.869 6        39.000 6      1631.670 6
 08 04 28 14 05 46.0000000  0  9G04G07G08G10G13G23G25G27S20                     
  22931339.929 6 120504985.881 6        40.000 6     -1531.263 6
  20255819.946 7 106445057.200 7        47.000 7      1104.214 7
  21078035.951 6 107614936.793 6        36.000 6      3974.178 6
  21877946.114 6 114969470.597 6        41.000 6      4363.874 6
  21131215.486 7 111045281.127 7        43.000 7      -494.870 7
  23973973.769 3                        21.000 3     -1453.498 3
  21317780.547 6 112025702.105 6        40.000 6      -422.469 6
  20506475.361 7 107762254.253 7        45.000 7      1362.918 7
  38091085.431 6 200169997.466 6        38.000 6      1632.727 6
 08 04 28 14 05 47.0000000  0  9G04G07G08G10G13G23G25G27S20                     
  22931321.094 6 120504886.004 6        41.000 6     -1530.996 6
  20255299.435 7 106442321.243 7        46.000 7      1103.717 7
  21076969.066 6 107609330.310 6        36.000 6      3975.495 6
  21876805.248 6 114963475.238 6        41.000 6      4363.031 6
  21130999.551 7 111044143.850 7        43.000 7      -494.422 7
  23973938.610 3                        20.000 3     -1449.498 3
  21317550.321 6 112024490.833 6        40.000 6      -420.786 6
  20505905.370 7 107759259.334 7        45.000 7      1362.800 7
  38090464.556 6 200166733.063 6        38.000 6      1634.163 6
 08 04 28 14 05 48.0000000  0  9G04G07G08G10G13G23G25G27S20                     
  22931301.959 6 120504784.358 6        41.000 6     -1531.170 6
  20254778.467 7 106439583.831 7        46.000 7      1102.756 7
  21075902.562 5 107603722.137 5        35.000 5      3976.175 5
  21875663.987 7 114957478.219 7        42.000 7      4364.058 7
  21130782.592 7 111043004.870 7        43.000 7      -494.380 7
  23973900.018 3                        18.000 3     -1451.373 3
  21317319.785 6 112023278.035 6        41.000 6      -420.768 6
  20505335.472 7 107756262.839 7        45.000 7      1362.776 7
  38089843.302 6 200163466.639 6        39.000 6      1634.539 6
 08 04 28 14 05 49.0000000  0  9G04G07G08G10G13G23G25G27S20                     
  22931283.263 7 120504684.537 7        42.000 7     -1533.117 7
  20254258.086 7 106436848.915 7        47.000 7      1101.420 7
  21074835.815 5 107598116.218 5        33.000 5      3973.660 5
  21874523.541 6 114951483.262 6        39.000 6      4364.234 6
  21130566.273 6 111041868.183 6        40.000 6      -495.887 6
  23973871.804 3                        22.000 3     -1446.748 3
  21317089.715 6 112022067.546 6        39.000 6      -422.961 6
  20504765.463 7 107753268.675 7        45.000 7      1361.197 7
  38089221.919 6 200160201.682 6        38.000 6      1632.334 6
 08 04 28 14 05 50.0000000  0  9G04G07G08G10G13G23G25G27S20                     
  22931263.878 6 120504584.203 6        40.000 6     -1532.677 6
  20253738.020 7 106434114.710 7        46.000 7      1101.036 7
  21073769.340 5 107592510.419 5        35.000 5      3973.696 5
  21873382.849 6 114945488.068 6        41.000 6      4362.044 6
  21130349.735 6 111040731.710 6        37.000 6      -495.962 6
  23973837.762 2                        17.000 2     -1444.623 2
  21316858.790 6 112020857.674 6        38.000 6      -423.002 6
  20504195.516 7 107750274.995 7        45.000 7      1360.789 7
  38088600.215 6 200156935.919 6        37.000 6      1632.188 6
 08 04 28 14 05 51.0000000  0  9G04G07G08G10G13G23G25G27S20                     
  22931244.037 6 120504481.522 6        36.000 6     -1532.837 6
  20253217.009 7 106431379.490 7        45.000 7      1101.905 7
  21072702.103 6 107586966.70316        39.000 6      3974.760 6
  21872241.448 6 114939491.463 6        41.000 6      4363.091 6
  21130132.758 7 111039594.500 7        42.000 7      -497.354 7
  23973805.503 2                        17.000 2     -1449.873 2
  21316627.976 6 112019646.925 6        41.000 6      -423.088 6
  20503625.050 7 107747280.109 7        44.000 7      1360.870 7
  38087977.840 4                        29.000 4      1648.392 4
 08 04 28 14 05 52.0000000  0  9G04G07G08G10G13G23G25G27S20                     
  22931224.658 5 120504377.622 5        35.000 5     -1529.334 5
  20252696.015 7 106428644.557 7        46.000 7      1100.804 7
  21071635.206 6 107581358.403 6        38.000 6      3975.079 6
  21871099.375 7 114933495.840 7        43.000 7      4361.109 7
  21129915.904 7 111038457.514 7        43.000 7      -496.711 7
  23973771.631 2                        17.000 2     -1449.748 2
  21316397.492 7 112018436.877 7        43.000 7      -424.682 7
  20503054.707 7 107744285.278 7        45.000 7      1360.758 7
  38087354.872 6 200150402.06816        36.000 6      1635.823 6
 08 04 28 14 05 53.0000000  0  9G04G07G08G10G13G23G25G27S20                     
  22931204.807 5 120504315.12615        34.000 5     -1532.136 5
  20252175.710 7 106425910.815 7        46.000 7      1099.492 7
  21070568.073 6 107575750.401 6        39.000 6      3974.100 6
  21869958.969 7 114927501.825 7        43.000 7      4361.010 7
  21129700.053 7 111037321.675 7        45.000 7      -497.628 7
  23973738.730 2                        17.000 2     -1444.123 2
  21316167.803 7 112017228.123 7        42.000 7      -426.068 7
  20502484.312 7 107741291.427 7        45.000 7      1360.290 7
  38086733.121 6 200147132.293 6        38.000 6      1638.492 6
 08 04 28 14 05 54.0000000  0  9G04G07G08G10G13G23G25G27S20                     
  22931185.248 5 120504213.497 5        34.000 5     -1531.436 5
  20251655.461 7 106423178.900 7        45.000 7      1099.264 7
  21069501.213 6 107570144.261 6        39.000 6      3972.588 6
  21868818.548 7 114921509.446 7        43.000 7      4359.417 7
  21129484.432 7 111036187.224 7        44.000 7      -498.346 7
  23973705.822 3                        18.000 3     -1441.623 3
  21315937.943 7 112016020.866 7        43.000 7      -425.118 7
  20501914.914 7 107738299.301 7        45.000 7      1359.219 7
  38086111.032 6 200143864.164 6        37.000 6      1635.230 6
 08 04 28 14 05 55.0000000  0  9G04G07G08G10G13G23G25G27S20                     
  22931165.442 5 120504109.400 5        33.000 5     -1530.740 5
  20251135.401 7 106420445.619 7        46.000 7      1100.532 7
  21068434.526 6 107564536.616 6        39.000 6      3974.480 6
  21867678.282 7 114915515.484 7        43.000 7      4361.713 7
  21129268.468 7 111035051.064 7        45.000 7      -496.583 7
  23973668.040 3                        21.000 3     -1446.873 3
  21315708.106 7 112014812.095 7        43.000 7      -424.613 7
  20501345.077 7 107735305.720 7        45.000 7      1360.533 7
  38085488.644 6 200140596.03216        36.000 6      1636.630 6
 08 04 28 14 05 56.0000000  0  9G04G07G08G10G13G23G25G27S20                     
  22931146.036 6 120504005.651 6        36.000 6     -1532.123 6
  20250615.296 7 106417713.061 7        45.000 7      1098.346 7
  21067367.166 6 107558929.534 6        38.000 6      3973.182 6
  21866537.963 7 114909521.568 7        43.000 7      4360.141 7
  21129052.302 7 111033915.291 7        43.000 7      -498.682 7
  23973630.388 3                        20.000 3     -1455.373 3
  21315477.840 7 112013603.837 7        43.000 7      -425.839 7
  20500776.296 7 107732312.751 7        45.000 7      1359.108 7
  38084866.221 6 200137325.945 6        36.000 6      1637.010 6
 08 04 28 14 05 57.0000000  0  9G04G07G08G10G13G23G25G27S20                     
  22931126.983 5 120503904.374 5        35.000 5     -1531.507 5
  20250095.841 7 106414983.279 7        45.000 7      1097.556 7
  21066300.603 6 107553325.041 6        39.000 6      3973.272 6
  21865397.315 7 114903530.065 7        42.000 7      4359.391 7
  21128836.978 7 111032781.969 7        44.000 7      -498.322 7
  23973595.743 3                        23.000 3     -1457.623 3
  21315248.530 7 112012398.112 7        43.000 7      -426.167 7
  20500206.845 7 107729322.410 7        44.000 7      1358.219 7
  38084244.255 6 200134057.803 6        37.000 6      1636.473 6
 08 04 28 14 05 58.0000000  0  9G04G07G08G10G13G23G25G27S20                     
  22931107.703 6 120503802.811 6        36.000 6     -1529.943 6
  20249576.691 7 106412253.937 7        46.000 7      1097.258 7
  21065233.473 6 107547720.774 6        39.000 6      3971.143 6
  21864257.383 7 114897538.765 7        42.000 7      4358.954 7
  21128621.270 7 111031648.757 7        44.000 7      -498.989 7
  23973563.194 3                        21.000 3     -1449.123 3
  21315019.393 7 112011192.685 7        44.000 7      -426.823 7
  20499637.657 7 107726332.420 7        45.000 7      1357.961 7
  38083622.419 6 200130789.423 6        36.000 6      1636.643 6
 08 04 28 14 05 59.0000000  0  9G04G07G08G10G13G23G25G27S20                     
  22931089.609 5 120503701.988 5        35.000 5     -1533.686 5
  20249057.331 7 106409525.477 7        45.000 7      1095.636 7
  21064167.277 6 107542117.256 6        38.000 6      3970.357 6
  21863117.948 7 114891548.209 7        42.000 7      4358.041 7
  21128405.901 7 111030516.014 7        44.000 7      -499.672 7
  23973529.987 3                        20.000 3     -1455.123 3
  21314790.239 7 112009987.941 7        42.000 7      -427.328 7
  20499068.774 7 107723343.203 7        45.000 7      1356.771 7
  38083000.549 5 200127521.253 5        35.000 5      1637.121 5
 08 04 28 14 06  0.0000000  0  9G04G07G08G10G13G23G25G27S20                     
  22931070.108 6 120503599.421 6        36.000 6     -1530.221 6
  20248538.187 7 106406796.047 7        46.000 7      1095.775 7
  21063101.461 6 107536512.526 6        38.000 6      3969.921 6
  21861977.054 6 114885556.055 6        41.000 6      4359.147 6
  21128190.146 7 111029382.025 7        44.000 7      -499.865 7
  23973495.750 3                        18.000 3     -1452.498 3
  21314560.707 7 112008782.101 7        43.000 7      -428.253 7
  20498499.862 7 107720352.878 7        45.000 7      1356.665 7
  38082378.178 6 200124251.336 6        36.000 6      1638.199 6
 08 04 28 14 06  1.0000000  0  9G04G07G08G10G13G23G25G27S20                     
  22931051.840 6 120503498.438 6        36.000 6     -1532.506 6
  20248019.142 7 106404068.589 7        46.000 7      1095.433 7
  21062035.719 6 107530909.597 6        39.000 6      3969.568 6
  21860837.881 7 114879565.604 7        43.000 7      4357.957 7
  21127974.395 7 111028249.677 7        43.000 7      -499.300 7
  23973461.087 3                        20.000 3     -1454.873 3
  21314331.667 7 112007577.984 7        44.000 7      -428.122 7
  20497931.075 7 107717364.404 7        45.000 7      1355.461 7
  38081756.648 6 200120984.76616        36.000 6      1636.155 6
 08 04 28 14 06  2.0000000  0  9G04G07G08G10G13G23G25G27S20                     
  22931032.142 6 120503397.987 6        36.000 6     -1530.338 6
  20247500.228 7 106401341.769 7        46.000 7      1095.899 7
  21060970.012 6 107525307.173 6        39.000 6      3973.155 6
  21859697.722 7 114873575.548 7        42.000 7      4359.023 7
  21127758.582 7 111027117.583 7        43.000 7      -498.991 7
  23973424.026 3                        21.000 3     -1451.123 3
  21314102.749 7 112006374.342 7        44.000 7      -428.085 7
  20497362.890 7 107714376.485 7        45.000 7      1356.689 7
  38081134.664 6 200117716.286 6        36.000 6      1637.458 6
 08 04 28 14 06  3.0000000  0  9G04G07G08G10G13G23G25G27S20                     
  22931012.905 5 120503297.388 5        35.000 5     -1530.187 5
  20246982.099 7 106398615.226 7        46.000 7      1094.548 7
  21059904.252 6 107519704.990 6        39.000 6      3969.457 6
  21858557.773 7 114867585.439 7        43.000 7      4357.653 7
  21127543.667 7 111025985.418 7        44.000 7      -499.284 7
  23973389.030 4                        24.000 4     -1456.123 4
  21313873.639 7 112005170.765 7        43.000 7      -428.366 7
  20496793.989 7 107711388.749 7        44.000 7      1355.241 7
  38080512.812 6 200114447.547 6        36.000 6      1640.877 6
 08 04 28 14 06  4.0000000  0  8G04G07G08G10G13G25G27S20                        
  22930993.194 5 120503195.540 5        34.000 5     -1532.323 5
  20246462.850 7 106395887.862 7        46.000 7      1094.007 7
  21058837.694 6 107514101.830 6        38.000 6      3968.528 6
  21857417.384 7 114861594.260 7        43.000 7      4357.878 7
  21127328.183 7 111024852.018 7        44.000 7      -498.597 7
  21313644.438 7 112003966.082 7        44.000 7      -428.959 7
  20496225.304 7 107708400.087 7        45.000 7      1355.582 7
  38079890.850 5 200111177.358 5        35.000 5      1637.203 5
 08 04 28 14 06  5.0000000  0  8G04G07G08G10G13G25G27S20                        
  22930974.123 6 120503095.400 6        37.000 6     -1534.114 6
  20245944.066 7 106393162.691 7        46.000 7      1091.892 7
  21057771.175 6 107508500.642 6        38.000 6      3968.351 6
  21856277.879 7 114855604.833 7        43.000 7      4356.862 7
  21127112.849 7 111023720.510 7        44.000 7      -501.612 7
  21313415.721 7 112002763.464 7        44.000 7      -429.981 7
  20495656.953 7 107705413.503 7        44.000 7      1354.280 7
  38079269.024 5 200107916.48915        35.000 5      1636.571 5
 08 04 28 14 06  6.0000000  0  8G04G07G08G10G13G25G27S20                        
  22930954.866 5 120502993.857 5        35.000 5     -1531.551 5
  20245424.965 7 106390436.389 7        45.000 7      1092.853 7
  21056704.243 6 107502898.192 6        38.000 6      3968.292 6
  21855137.883 7 114849613.963 7        42.000 7      4357.209 7
  21126897.260 7 111022587.523 7        43.000 7      -500.066 7
  21313186.782 7 112001559.507 7        44.000 7      -428.971 7
  20495088.477 7 107702425.673 7        44.000 7      1353.819 7
  38078646.679 6 200104646.044 6        36.000 6      1636.540 6
 08 04 28 14 06  7.0000000  0  8G04G07G08G10G13G25G27S20                        
  22930937.113 5 120502893.618 5        33.000 5     -1533.510 5
  20244906.513 7 106387711.994 7        45.000 7      1091.989 7
  21055638.632 6 107497297.477 6        38.000 6      3968.029 6
  21853998.588 7 114843624.728 7        42.000 7      4356.726 7
  21126681.700 7 111021456.074 7        43.000 7      -501.634 7
  21312957.951 7 112000357.281 7        44.000 7      -430.349 7
  20494520.528 7 107699439.611 7        45.000 7      1353.697 7
  38078024.669 6 200101376.806 6        36.000 6      1635.081 6
 08 04 28 14 06  8.0000000  0  8G04G07G08G10G13G25G27S20                        
  22930917.349 5 120502792.479 5        35.000 5     -1533.790 5
  20244387.753 7 106384986.867 7        45.000 7      1090.533 7
  21054571.839 6 107491695.838 6        38.000 6      3966.148 6
  21852858.191 7 114837634.464 7        42.000 7      4356.512 7
  21126466.529 7 111020323.590 7        44.000 7      -502.735 7
  21312728.864 7 111999154.129 7        44.000 7      -431.648 7
  20493951.929 7 107696452.730 7        45.000 7      1351.870 7
  38077402.192 5 200098106.153 5        35.000 5      1632.936 5
 08 04 28 14 06  9.0000000  0  8G04G07G08G10G13G25G27S20                        
  22930898.881 6 120502693.494 6        36.000 6     -1532.160 6
  20243869.789 7 106382264.240 7        46.000 7      1090.092 7
  21053507.082 6 107486096.700 6        38.000 6      3964.838 6
  21851719.183 7 114831646.464 7        43.000 7      4355.679 7
  21126251.423 7 111019193.176 7        44.000 7      -502.230 7
  21312500.347 7 111997953.202 7        44.000 7      -431.917 7
  20493383.998 7 107693468.271 7        45.000 7      1351.976 7
  38076780.367 6 200094837.616 6        36.000 6      1638.094 6
 08 04 28 14 06 10.0000000  0  8G04G07G08G10G13G25G27S20                        
  22930880.011 5 120502594.922 5        34.000 5     -1532.781 5
  20243352.097 7 106379542.516 7        46.000 7      1089.076 7
  21052442.361 6 107480498.336 6        38.000 6      3967.121 6
  21850579.888 7 114825659.026 7        43.000 7      4355.104 7
  21126036.360 7 111018063.236 7        43.000 7      -502.528 7
  21312271.857 7 111996752.941 7        43.000 7      -431.855 7
  20492816.083 7 107690484.578 7        45.000 7      1351.357 7
  38076158.470 6 200091569.558 6        36.000 6      1635.571 6
 08 04 28 14 06 11.0000000  0  8G04G07G08G10G13G25G27S20                        
  22930861.071 6 120502496.478 6        36.000 6     -1533.204 6
  20242834.098 7 106376821.139 7        45.000 7      1089.116 7
  21051376.993 6 107474900.222 6        37.000 6      3964.588 6
  21849440.445 7 114819671.603 7        42.000 7      4355.761 7
  21125821.481 7 111016933.350 7        43.000 7      -502.023 7
  21312043.540 7 111995552.885 7        44.000 7      -432.623 7
  20492248.579 7 107687501.149 7        45.000 7      1351.080 7
  38075536.835 5 200088307.03615        35.000 5      1634.311 5
 08 04 28 14 06 12.0000000  0  8G04G07G08G10G13G25G27S20                        
  22930841.638 5                        32.000 5     -1539.454 5
  20242315.984 7 106374098.744 7        45.000 7      1088.381 7
  21050311.143 6 107469300.632 6        37.000 6      3964.606 6
  21848300.606 7 114813682.562 7        42.000 7      4354.562 7
  21125606.258 7 111015802.150 7        43.000 7      -503.869 7
  21311814.741 7 111994351.639 7        44.000 7      -433.007 7
  20491681.001 7 107684516.542 7        45.000 7      1350.196 7
  38074914.735 6 200085036.540 6        36.000 6      1637.154 6
 08 04 28 14 06 13.0000000  0  8G04G07G08G10G13G25G27S20                        
  22930822.176 5 120502283.40215        34.000 5     -1534.514 5
  20241798.299 7 106371378.392 7        46.000 7      1087.497 7
  21049245.715 6 107463703.166 6        38.000 6      3965.406 6
  21847161.337 7 114807695.542 7        43.000 7      4355.274 7
  21125390.672 7 111014672.556 7        43.000 7      -503.030 7
  21311586.705 7 111993152.182 7        44.000 7      -432.669 7
  20491113.287 7 107681533.901 7        45.000 7      1349.977 7
  38074292.689 5 200081769.67315        35.000 5      1632.603 5
 08 04 28 14 06 14.0000000  0  8G04G07G08G10G13G25G27S20                        
  22930803.492 5                        33.000 5     -1542.975 5
  20241280.830 7 106368656.949 7        45.000 7      1086.966 7
  21048180.274 6 107458104.534 6        38.000 6      3964.520 6
  21846021.681 7 114801707.079 7        43.000 7      4354.180 7
  21125175.161 7 111013541.581 7        44.000 7      -503.625 7
  21311358.473 7 111991951.453 7        44.000 7      -432.681 7
  20490544.986 7 107678550.109 7        45.000 7      1349.607 7
  38073670.520 6 200078499.324 6        36.000 6      1638.422 6
 08 04 28 14 06 15.0000000  0  8G04G07G08G10G13G25G27S20                        
  22930785.437 5 120502092.24115        34.000 5     -1531.275 5
  20240763.260 7 106365937.374 7        46.000 7      1086.810 7
  21047115.692 6 107452507.659 6        38.000 6      3964.240 6
  21844882.290 7 114795720.192 7        42.000 7      4353.942 7
  21124960.369 7 111012411.971 7        44.000 7      -503.392 7
  21311130.322 7 111990752.344 7        43.000 7      -432.624 7
  20489977.691 7 107675568.051 7        45.000 7      1349.648 7
  38073048.640 6 200075230.308 6        36.000 6      1635.392 6
 08 04 28 14 06 16.0000000  0  8G04G07G08G10G13G25G27S20                        
  22930766.633 5 120501992.811 5        34.000 5     -1532.663 5
  20240245.677 7 106363216.955 7        46.000 7      1086.880 7
  21046050.296 6 107446909.886 6        38.000 6      3964.084 6
  21843743.071 7 114789732.295 7        42.000 7      4354.909 7
  21124745.260 7 111011281.161 7        44.000 7      -502.970 7
  21310901.776 7 111989552.111 7        43.000 7      -433.185 7
  20489409.843 7 107672585.031 7        45.000 7      1349.113 7
  38072426.689 6 200071960.005 6        37.000 6      1638.015 6
 08 04 28 14 06 17.0000000  0  8G04G07G08G10G13G25G27S20                        
  22930747.367 5 120501893.260 5        35.000 5     -1534.271 5
  20239728.234 7 106360496.752 7        45.000 7      1086.082 7
  21044984.698 6 107441312.080 6        39.000 6      3963.132 6
  21842603.624 7 114783744.240 7        42.000 7      4354.114 7
  21124530.159 7 111010150.301 7        43.000 7      -503.907 7
  21310673.562 7 111988351.983 7        44.000 7      -433.356 7
  20488842.606 7 107669602.191 7        45.000 7      1349.670 7
  38071804.195 5 200068689.065 5        34.000 5      1635.507 5
 08 04 28 14 06 18.0000000  0  9G04G07G08G10G13G25G27S20S24                     
  22930728.424 5 120501794.468 5        35.000 5     -1535.618 5
  20239210.364 7 106357777.728 7        45.000 7      1084.071 7
  21043919.956 6 107435715.288 6        40.000 6      3962.630 6
  21841464.544 7 114777756.990 7        43.000 7      4352.536 7
  21124315.320 7 111009020.201 7        44.000 7      -504.027 7
  21310445.225 7 111987152.786 7        44.000 7      -434.999 7
  20488275.133 7 107666620.355 7        45.000 7      1347.539 7
  38071181.912 6 200065426.63116        36.000 6      1636.469 6
  37633930.438 7 197767640.62917        42.000 7      1836.114 7
 08 04 28 14 06 19.0000000  0  9G04G07G08G10G13G25G27S20S24                     
  22930709.999 5 120501697.605 5        33.000 5     -1536.286 5
  20238693.177 7 106355060.929 7        45.000 7      1083.906 7
  21042855.243 6 107430120.628 6        40.000 6      3960.909 6
  21840325.318 7 114771771.705 7        42.000 7      4352.151 7
  21124100.685 7 111007892.035 7        42.000 7      -503.865 7
  21310217.502 7 111985955.677 7        43.000 7      -435.780 7
  20487707.847 7 107663640.661 7        45.000 7      1347.097 7
  38070560.469 6 200062157.816 6        36.000 6      1637.079 6
  37633270.570 7 197764171.082 7        42.000 7      1835.906 7
 08 04 28 14 06 20.0000000  0  9G04G07G08G10G13G25G27S20S24                     
  22930690.751 5 120501589.23015        32.000 5     -1534.369 5
  20238176.258 7 106352343.127 7        46.000 7      1083.962 7
  21041790.300 6 107424524.816 6        39.000 6      3960.876 6
  21839186.116 7 114765785.225 7        43.000 7      4352.573 7
  21123885.384 7 111006762.425 7        42.000 7      -503.572 7
  21309989.270 7 111984757.289 7        44.000 7      -434.885 7
  20487140.366 7 107660659.832 7        44.000 7      1347.389 7
  38069938.151 6 200058887.339 6        36.000 6      1635.771 6
  37632609.853 6 197760699.777 6        41.000 6      1837.483 6
 08 04 28 14 06 21.0000000  0  9G04G07G08G10G13G25G27S20S24                     
  22930671.950 5 120501492.730 5        35.000 5     -1535.399 5
  20237659.594 7 106349627.628 7        46.000 7      1083.913 7
  21040726.102 6 107418931.037 6        38.000 6      3959.466 6
  21838047.223 7 114759800.673 7        42.000 7      4352.655 7
  21123670.949 7 111005634.821 7        43.000 7      -505.240 7
  21309761.355 7 111983561.055 7        43.000 7      -435.545 7
  20486573.594 7 107657681.202 7        45.000 7      1346.121 7
  38069316.290 6 200055618.451 6        37.000 6      1638.646 6
  37631949.592 7 197757230.120 7        43.000 7      1838.164 7
 08 04 28 14 06 22.0000000  0  9G04G07G08G10G13G25G27S20S24                     
  22930653.260 5 120501395.102 5        35.000 5     -1537.025 5
  20237142.989 7 106346911.324 7        46.000 7      1083.400 7
  21039661.849 6 107413336.524 6        39.000 6      3961.437 6
  21836908.239 7 114753815.079 7        42.000 7      4352.531 7
  21123455.857 6 111004506.032 6        41.000 6      -504.496 6
  21309533.743 7 111982363.797 7        44.000 7      -436.016 7
  20486006.480 7 107654701.695 7        45.000 7      1346.368 7
  38068693.718 6 200052348.305 6        36.000 6      1636.562 6
  37631289.040 7 197753759.407 7        42.000 7      1836.585 7
 08 04 28 14 06 23.0000000  0  9G04G07G08G10G13G25G27S20S24                     
  22930634.196 5 120501297.860 5        33.000 5     -1532.422 5
  20236626.157 7 106344195.671 7        45.000 7      1081.751 7
  21038597.473 6 107407742.381 6        38.000 6      3961.110 6
  21835769.464 7 114747829.751 7        42.000 7      4352.237 7
  21123241.341 7 111003377.519 7        43.000 7      -504.354 7
  21309305.947 7 111981166.963 7        44.000 7      -436.802 7
  20485439.870 7 107651722.723 7        45.000 7      1345.142 7
  38068071.888 5 200049078.272 5        35.000 5      1637.694 5
  37630628.523 7 197750289.226 7        43.000 7      1837.906 7
 08 04 28 14 06 24.0000000  0  9G04G07G08G10G13G25G27S20S24                     
  22930616.284 5 120501202.228 5        34.000 5     -1538.144 5
  20236109.485 7 106341481.952 7        45.000 7      1080.945 7
  21037533.449 6 107402150.244 6        39.000 6      3959.105 6
  21834630.744 7 114741846.015 7        42.000 7      4350.399 7
  21123026.627 7 111002250.570 7        43.000 7      -505.569 7
  21309078.547 7 111979971.859 7        43.000 7      -436.868 7
  20484873.413 7 107648745.602 7        45.000 7      1344.473 7
  38067450.052 5 200045809.564 5        35.000 5      1634.881 5
  37629968.454 7 197746820.330 7        42.000 7      1836.305 7
 08 04 28 14 06 25.0000000  0  9G04G07G08G10G13G25G27S20S24                     
  22930597.586 5 120501105.473 5        33.000 5     -1536.162 5
  20235592.958 7 106338767.438 7        45.000 7      1080.641 7
  21036468.602 6 107396557.175 6        38.000 6      3959.388 6
  21833491.900 7 114735861.385 7        43.000 7      4350.310 7
  21122811.919 7 111001122.426 7        43.000 7      -506.461 7
  21308850.611 7 111978775.703 7        43.000 7      -438.314 7
  20484306.717 7 107645767.555 7        45.000 7      1344.096 7
  38066827.986 6 200042553.70916        38.000 6      1633.984 6
  37629307.842 7 197743349.587 7        42.000 7      1838.248 7
 08 04 28 14 06 26.0000000  0  9G04G07G08G10G13G25G27S20S24                     
  22930579.332 5 120501008.604 5        35.000 5     -1537.421 5
  20235076.605 7 106336053.273 7        45.000 7      1079.672 7
  21035404.043 6 107390964.177 6        38.000 6      3958.734 6
  21832352.977 7 114729876.690 7        42.000 7      4351.070 7
  21122597.517 7 110999994.353 7        43.000 7      -506.054 7
  21308623.374 7 111977579.744 7        44.000 7      -437.713 7
  20483739.916 7 107642789.756 7        45.000 7      1343.790 7
  38066205.861 5 200039283.449 5        35.000 5      1638.347 5
  37628647.106 7 197739877.975 7        43.000 7      1837.114 7
 08 04 28 14 06 27.0000000  0  9G04G07G08G10G13G25G27S20S24                     
  22930561.396 5 120500913.663 5        34.000 5     -1538.476 5
  20234560.457 7 106333341.243 7        45.000 7      1080.447 7
  21034340.142 6 107385373.389 6        38.000 6      3959.145 6
  21831214.398 7 114723893.708 7        42.000 7      4350.581 7
  21122383.405 7 110998867.856 7        43.000 7      -506.281 7
  21308396.367 7 111976385.609 7        43.000 7      -437.885 7
  20483173.921 7 107639814.017 7        45.000 7      1343.584 7
  38065584.052 6 200036014.733 6        36.000 6      1639.651 6
  37627987.195 7 197736408.236 7        42.000 7      1837.029 7
 08 04 28 14 06 28.0000000  0  9G04G07G08G10G13G25G27S20S24                     
  22930542.653 5 120500817.713 5        35.000 5     -1538.451 5
  20234044.253 7 106330628.279 7        45.000 7      1078.127 7
  21033276.106 6 107379781.653 6        37.000 6      3958.518 6
  21830076.015 7 114717909.817 7        43.000 7      4348.556 7
  21122168.714 7 110997740.119 7        43.000 7      -506.519 7
  21308168.894 7 111975190.301 7        43.000 7      -438.955 7
  20482607.469 7 107636837.265 7        45.000 7      1341.791 7
  38064961.811 5 200032748.80315        35.000 5      1634.633 5
  37627326.869 7 197732937.561 7        42.000 7      1835.779 7
 08 04 28 14 06 29.0000000  0  9G04G07G08G10G13G25G27S20S24                     
  22930524.077 6 120500721.636 6        36.000 6     -1536.184 6
  20233528.259 7 106327915.803 7        45.000 7      1079.531 7
  21032212.271 6 107374190.199 6        39.000 6      3957.350 6
  21828937.137 7 114711926.068 7        42.000 7      4351.515 7
  21121953.867 7 110996612.514 7        42.000 7      -505.378 7
  21307941.194 7 111973995.350 7        43.000 7      -438.204 7
  20482041.227 7 107633860.869 7        45.000 7      1343.749 7
  38064339.791 6 200029478.696 6        36.000 6      1641.579 6
  37626666.353 7 197729466.922 7        42.000 7      1838.122 7
 08 04 28 14 06 30.0000000  0 10G04G07G08G10G13G23G25G27S20S24                  
  22930505.362 5 120500625.619 5        34.000 5     -1533.921 5
  20233012.238 7 106325203.818 7        45.000 7      1078.662 7
  21031147.677 6 107368598.986 6        38.000 6      3958.040 6
  21827798.492 7 114705942.414 7        42.000 7      4349.890 7
  21121739.150 7 110995485.026 7        43.000 7      -506.080 7
  23972434.249 4                        28.000 4     -1453.096 4
  21307713.992 7 111972800.626 7        43.000 7      -439.234 7
  20481474.906 7 107630884.817 7        46.000 7      1342.026 7
  38063716.956 6 200026204.33116        36.000 6      1637.303 6
  37626005.609 7 197725995.834 7        42.000 7      1836.463 7
 08 04 28 14 06 31.0000000  0 10G04G07G08G10G13G23G25G27S20S24                  
  22930487.378 6 120500529.165 6        37.000 6     -1538.242 6
  20232495.955 7 106322492.153 7        45.000 7      1076.807 7
  21030083.301 6 107363007.763 6        40.000 6      3956.915 6
  21826659.761 7 114699958.513 7        42.000 7      4349.033 7
  21121524.093 7 110994357.636 7        43.000 7      -506.295 7
  23972423.465 4                        28.000 4     -1450.783 4
  21307486.161 7 111971606.143 7        43.000 7      -438.713 7
  20480908.646 7 107627908.974 7        45.000 7      1341.628 7
  38063094.865 5 200022933.472 5        35.000 5      1637.758 5
  37625344.804 7 197722524.226 7        42.000 7      1837.937 7
 08 04 28 14 06 32.0000000  0  9G04G07G08G10G13G25G27S20S24                     
  22930469.435 6 120500431.788 6        38.000 6     -1537.638 6
  20231979.233 7 106319779.381 7        46.000 7      1076.840 7
  21029018.905 6 107357415.669 6        39.000 6      3956.557 6
  21825520.355 7 114693973.486 7        42.000 7      4349.367 7
  21121309.356 7 110993228.550 7        43.000 7      -506.544 7
  21307258.554 7 111970410.141 7        44.000 7      -439.529 7
  20480341.869 7 107624931.995 7        45.000 7      1341.744 7
  38062471.801 6 200019661.276 6        36.000 6      1637.184 6
  37624683.926 6 197719051.110 6        40.000 6      1838.078 6
 08 04 28 14 06 33.0000000  0 10G04G07G08G10G13G25G27S20S24S26                  
  22930450.570 5 120500335.905 5        35.000 5     -1539.135 5
  20231463.196 7 106317068.618 7        45.000 7      1077.924 7
  21027955.315 7 107351825.089 7        42.000 7      3957.655 7
  21824382.078 7 114687990.680 7        44.000 7      4349.311 7
  21121095.014 7 110992101.386 7        43.000 7      -505.936 7
  21307031.247 7 111969216.182 7        45.000 7      -439.040 7
  20479775.888 7 107621956.900 7        46.000 7      1342.139 7
  38061849.448 5 200016392.15215        33.000 5      1639.244 5
  37624023.226 5 197715579.040 5        35.000 5      1838.270 5
  36737630.956 5 193057554.80815        32.000 5      1630.160 5
 08 04 28 14 06 34.0000000  0 11G04G07G08G10G13G23G25G27S20S24S26               
  22930432.369 6 120500240.060 6        38.000 6     -1537.663 6
  20230947.279 7 106314358.551 7        47.000 7      1076.381 7
  21026891.802 6 107346235.337 6        39.000 6      3955.110 6
  21823244.097 6 114682009.104 6        41.000 6      4346.595 6
  21120880.620 6 110990974.355 6        39.000 6      -507.639 6
  23972303.411 5                        30.000 5     -1451.725 5
  21306804.184 7 111968022.719 7        43.000 7      -439.359 7
  20479210.169 7 107618982.390 7        47.000 7      1340.485 7
  38061226.693 5 200013117.14115        34.000 5      1637.975 5
  37623362.333 6 197712106.559 6        38.000 6      1836.768 6
  36737009.424 6 193054289.54016        36.000 6      1632.740 6
 08 04 28 14 06 35.0000000  0 11G04G07G08G10G13G23G25G27S20S24S26               
  22930414.054 6 120500144.805 6        38.000 6     -1538.845 6
  20230431.285 7 106311648.372 7        46.000 7      1076.839 7
  21025828.334 6 107340645.447 6        40.000 6      3954.040 6
  21822106.544 7 114676028.320 7        43.000 7      4346.992 7
  21120664.927 7 110989846.617 7        42.000 7      -505.065 7
  23972265.683 5 125975107.90015        33.000 5     -1450.901 5
  21306577.339 6 111966828.717 6        40.000 6      -440.740 6
  20478644.738 7 107616007.786 7        46.000 7      1341.048 7
  38060603.249 5                        34.000 5      1637.490 5
  37622701.338 6 197708633.457 6        38.000 6      1840.686 6
  36736387.725 5 193051022.04315        33.000 5      1632.624 5
 08 04 28 14 06 36.0000000  0 11G04G07G08G10G13G23G25G27S20S24S26               
  22930395.387 7 120500049.407 7        42.000 7     -1541.474 7
  20229915.732 7 106308937.114 7        44.000 7      1076.170 7
  21024764.801 6 107335055.408 6        41.000 6      3954.585 6
  21820967.836 7 114670046.918 7        42.000 7      4347.006 7
  21120450.338 6 110988716.826 6        41.000 6      -505.421 6
  23972260.888 5                        30.000 5     -1453.898 5
  21306349.724 7 111965633.060 7        42.000 7      -439.380 7
  20478078.554 7 107613032.207 7        46.000 7      1339.546 7
  38059979.400 6 200006541.34716        40.000 6      1635.239 6
  37622040.503 6 197705159.372 6        39.000 6      1838.454 6
  36735765.953 5 193047757.14015        35.000 5      1632.219 5
 08 04 28 14 06 37.0000000  0 10G04G07G08G10G13G25G27S20S24S26                  
  22930377.910 7 120499956.840 7        43.000 7     -1541.605 7
  20229399.868 7 106306228.165 7        42.000 7      1075.378 7
  21023701.813 6 107329468.228 6        41.000 6      3952.866 6
  21819830.317 7 114664066.712 7        43.000 7      4346.544 7
  21120235.856 6 110987588.753 6        38.000 6      -505.962 6
  21306122.566 6 111964439.167 6        40.000 6      -439.318 6
  20477513.349 7 107610058.953 7        47.000 7      1338.920 7
  38059357.631 6 200003272.616 6        39.000 6      1633.838 6
  37621380.082 6 197701688.162 6        40.000 6      1838.801 6
  36735144.690 5 193044494.72715        34.000 5      1633.149 5
 08 04 28 14 06 38.0000000  0 11G04G07G08G10G13G23G25G27S20S24S26               
  22930360.528 7 120499864.724 7        43.000 7     -1541.360 7
  20228884.572 7 106303519.899 7        43.000 7      1073.845 7
  21022638.170 7 107323881.764 7        42.000 7      3952.532 7
  21818692.014 7 114658086.363 7        43.000 7      4346.153 7
  21120021.567 6 110986461.033 6        39.000 6      -506.552 6
  23972246.595 5                        30.000 5     -1453.129 5
  21305894.124 6 111963245.650 6        37.000 6      -440.153 6
  20476947.343 7 107607086.288 7        46.000 7      1338.498 7
  38058735.452 6 200000004.043 6        39.000 6      1635.306 6
  37620719.242 6 197698217.454 6        40.000 6      1837.770 6
  36734523.436 6 193041228.833 6        36.000 6      1631.559 6
 08 04 28 14 06 39.0000000  0 11G04G07G08G10G13G23G25G27S20S24S26               
  22930343.077 7 120499772.713 7        42.000 7     -1541.518 7
  20228369.790 7 106300812.117 7        44.000 7      1073.607 7
  21021574.535 7 107318295.686 7        42.000 7      3951.208 7
  21817553.658 6 114652105.964 6        41.000 6      4346.022 6
  21119807.697 7 110985333.401 7        42.000 7      -506.085 7
  23972194.235 4                        27.000 4     -1450.945 4
  21305666.267 6 111962052.363 6        38.000 6      -441.200 6
  20476381.606 7 107604113.958 7        45.000 7      1338.627 7
  38058113.501 6 199996735.442 6        37.000 6      1637.800 6
  37620058.890 6 197694746.718 6        39.000 6      1836.198 6
  36733902.539 5 193037969.34115        35.000 5      1629.409 5
 08 04 28 14 06 40.0000000  0 11G04G07G08G10G13G23G25G27S20S24S26               
  22930325.527 7 120499679.308 7        42.000 7     -1541.856 7
  20227854.604 7 106298103.299 7        44.000 7      1073.212 7
  21020511.204 7 107312708.411 7        42.000 7      3952.082 7
  21816415.351 6 114646124.222 6        40.000 6      4345.266 6
  21119593.212 6 110984204.403 6        40.000 6      -506.205 6
  23972171.737 4                        27.000 4     -1454.546 4
  21305437.840 6 111960857.721 6        37.000 6      -440.658 6
  20475815.989 7 107601140.522 7        45.000 7      1337.616 7
  38057491.196 6 199993467.23516        37.000 6      1635.294 6
  37619397.883 6 197691274.316 6        40.000 6      1840.679 6
  36733280.750 6 193034702.205 6        36.000 6      1631.803 6
 08 04 28 14 06 41.0000000  0 11G04G07G08G10G13G23G25G27S20S24S26               
  22930307.710 7 120499587.451 7        43.000 7     -1541.562 7
  20227339.281 7 106295396.410 7        45.000 7      1072.808 7
  21019448.459 7 107307122.950 7        42.000 7      3951.113 7
  21815277.615 7 114640144.169 7        43.000 7      4346.493 7
  21119378.356 7 110983076.936 7        42.000 7      -506.683 7
  23972150.239 4                        27.000 4     -1452.032 4
  21305209.259 6 111959664.942 6        37.000 6      -442.135 6
  20475250.305 7 107598168.871 7        46.000 7      1336.957 7
  38056869.453 6 199990198.393 6        38.000 6      1634.967 6
  37618737.033 6 197687803.014 6        41.000 6      1836.866 6
  36732659.471 6 193031436.287 6        36.000 6      1634.499 6
 08 04 28 14 06 42.0000000  0 11G04G07G08G10G13G23G25G27S20S24S26               
  22930289.898 7 120499494.383 7        43.000 7     -1542.729 7
  20226824.112 7 106292688.667 7        45.000 7      1072.106 7
  21018385.660 7 107301536.507 7        42.000 7      3950.936 7
  21814138.837 7 114634162.945 7        43.000 7      4345.262 7
  21119163.663 7 110981948.262 7        42.000 7      -505.657 7
  23972136.832 4                        27.000 4     -1455.086 4
  21304981.922 6 111958471.093 6        36.000 6      -442.849 6
  20474684.138 7 107595196.293 7        46.000 7      1337.091 7
  38056246.879 6 199986928.135 6        38.000 6      1635.585 6
  37618076.069 6 197684330.255 6        41.000 6      1838.843 6
  36732038.013 5 193028175.07615        35.000 5      1633.624 5
 08 04 28 14 06 43.0000000  0 11G04G07G08G10G13G23G25G27S20S24S26               
  22930272.121 7 120499401.474 7        43.000 7     -1542.701 7
  20226309.135 7 106289981.436 7        45.000 7      1070.923 7
  21017323.105 7 107295950.450 7        42.000 7      3951.736 7
  21813000.679 7 114628181.918 7        43.000 7      4345.961 7
  21118948.916 7 110980819.711 7        43.000 7      -506.781 7
  23972087.025 4                        27.000 4     -1454.722 4
  21304754.473 6 111957277.541 6        37.000 6      -440.734 6
  20474118.521 7 107592224.124 7        46.000 7      1336.738 7
  38055624.540 6 199983657.961 6        38.000 6      1635.043 6
  37617415.208 6 197680857.474 6        41.000 6      1839.151 6
  36731416.912 6 193024907.788 6        36.000 6      1633.157 6
 08 04 28 14 06 44.0000000  0 11G04G07G08G10G13G23G25G27S20S24S26               
  22930254.600 7 120499310.323 7        43.000 7     -1543.136 7
  20225794.397 7 106287276.331 7        45.000 7      1070.674 7
  21016260.796 7 107290366.394 7        42.000 7      3949.835 7
  21811863.065 7 114622202.720 7        42.000 7      4344.790 7
  21118734.662 7 110979692.994 7        42.000 7      -507.511 7
  23972040.486 4                        27.000 4     -1449.550 4
  21304527.148 6 111956085.880 6        36.000 6      -443.517 6
  20473553.334 7 107589253.987 7        45.000 7      1336.706 7
  38055002.657 6 199980389.274 6        37.000 6      1633.799 6
  37616754.280 6 197677386.172 6        40.000 6      1836.374 6
  36730795.335 5 193021646.06515        35.000 5      1631.093 5
 08 04 28 14 06 45.0000000  0 11G04G07G08G10G13G23G25G27S20S24S26               
  22930237.320 7 120499218.196 7        42.000 7     -1543.622 7
  20225279.542 7 106284570.653 7        45.000 7      1070.177 7
  21015197.883 7 107284781.649 7        42.000 7      3948.921 7
  21810724.505 7 114616222.668 7        43.000 7      4345.039 7
  21118520.247 7 110978565.268 7        42.000 7      -507.232 7
  23971972.871 4                        29.000 4     -1452.940 4
  21304301.688 6 111954893.436 6        39.000 6      -442.680 6
  20472988.057 7 107586283.135 7        46.000 7      1334.645 7
  38054380.431 6 199977119.314 6        38.000 6      1633.450 6
  37616093.089 6 197673913.617 6        40.000 6      1836.961 6
  36730173.397 6 193018379.047 6        36.000 6      1629.062 6
 08 04 28 14 06 46.0000000  0 11G04G07G08G10G13G23G25G27S20S24S26               
  22930219.896 7 120499127.816 7        43.000 7     -1543.762 7
  20224765.345 7 106281867.085 7        45.000 7      1070.923 7
  21014135.296 7 107279198.847 7        42.000 7      3949.016 7
  21809586.263 7 114610244.368 7        42.000 7      4344.905 7
  21118305.478 7 110977439.288 7        42.000 7      -507.603 7
  23971936.347 4                        26.000 4     -1451.413 4
  21304076.998 6 111953702.930 6        40.000 6      -442.422 6
  20472422.626 7 107583314.303 7        45.000 7      1334.902 7
  38053758.454 6 199973850.800 6        38.000 6      1636.557 6
  37615432.424 6 197670442.610 6        40.000 6      1838.825 6
  36729552.195 6 193015113.544 6        36.000 6      1627.848 6