     2.11           OBSERVATION DATA    M (MIXED)           RINEX VERSION / TYPE
teqc  2013Mar15                         20130704 16:23:33UTCPGM / RUN BY / DATE
Linux2.6.32-279.el6.x86_64|x86_64|gcc|Win64-MinGW64|=       COMMENT
     2.10           OBSERVATION DATA    M (MIXED)           COMMENT
TPS2RIN 7.12                                                COMMENT
undersampled using goGPS                                    COMMENT
MILA                                                        MARKER NAME
12710M001                                                   MARKER NUMBER
GPSLOMBARDIA        IREALP                                  OBSERVER / AGENCY
8PHHHFBLAM8         TPS ODYSSEY_E       3.4 Dec,12,2009 p2  REC # / TYPE / VERS
217-0253            TPSCR3_GGD      CONE                    ANT # / TYPE
  4421849.5390   718507.7677  4525043.6216                  APPROX POSITION XYZ
        0.0540        0.0000        0.0000                  ANTENNA: DELTA H/E/N
     1     1                                                WAVELENGTH FACT L1/2
    15.0000                                                 INTERVAL
    16                                                      LEAP SECONDS
     7    C1    P1    P2    L1    L2    D1    D2            # / TYPES OF OBSERV
SE TPS 00000000                                             COMMENT
  2013     4     5    11    35    1.0000000     GPS         TIME OF FIRST OBS
                                                            END OF HEADER
 13  4  5 11 35  1.0000000  0 10G02G04G05G07G08G09G10G13G26G28
  22913087.893    22913087.4714   22913093.9764  120409080.133 7  93825247.86944
     -2379.069       -1853.817
  25014824.015    25014824.4654   25014837.3894  131453665.090 5 102431419.80041
     -3370.752       -2626.562
  21443901.826    21443901.7854   21443907.7694  112688511.065 8  87809255.55146
      1955.639        1523.870
  20818244.538    20818244.3984   20818249.8634  109400665.363 8  85247292.26747
     -1272.790        -991.782
  20635515.705    20635515.2634   20635521.7084  108440445.943 8  84499074.60347
       848.128         660.877
  23962256.902    23962255.8954   23962267.0374  125922546.414 6  98121473.65642
      3905.032        3042.863
  20852698.014    20852696.7944   20852704.3834  109581685.450 8  85388339.53547
     -1805.498       -1406.881
  23385887.364    23385887.1224   23385895.5534  122893617.848 7  95761261.58543
     -2794.256       -2177.336
  22653795.414    22653795.0314   22653802.7964  119046535.883 7  92763537.67444
      3190.741        2486.283
  23941616.454    23941615.7694   23941627.3444  125814096.011 6  98036984.70943
      3326.887        2592.369
 13  4  5 11 35 16.0000000  0 10G02G04G05G07G08G09G10G13G26G28
  22919886.582    22919885.7684   22919892.6344  120444807.485 7  93853087.30544
     -2384.588       -1858.119
  25024443.885    25024444.4254   25024458.2594  131504217.893 5 102470811.42941
     -3369.649       -2625.669
  21438329.787    21438329.7674   21438335.6264  112659230.333 8  87786439.39746
      1948.474        1518.294
  20821887.608    20821887.6384   20821893.0464  109419810.479 8  85262210.52647
     -1279.852        -997.287
  20633106.320    20633105.9364   20633112.3684  108427784.656 8  84489208.66747
       840.106         654.626
  23951113.375    23951113.0414   23951124.1964  125863988.328 6  98075844.03542
      3902.698        3041.060
  20857862.708    20857861.4744   20857868.9364  109608825.576 8  85409487.66447
     -1813.148       -1412.840
  23393865.842    23393865.7624   23393873.9404  122935545.199 6  95793932.17243
     -2795.995       -2178.702
  22644692.076    22644691.8034   22644698.6174  118998695.843 6  92726259.75144
      3187.917        2484.096
  23932123.557    23932121.9864   23932132.9164  125764205.212 6  97998108.80443
      3325.195        2591.072
 13  4  5 11 35 31.0000000  0 10G02G04G05G07G08G09G10G13G26G28
  22926701.750    22926700.4684   22926707.6544  120480620.107 6  93880993.17544
     -2390.366       -1862.613
  25034062.203    25034062.1564   25034073.5824  131554756.393 5 102510191.93841
     -3368.791       -2625.014
  21432778.946    21432778.8134   21432784.5814  112630059.554 8  87763708.93646
      1941.043        1512.500
  20825551.241    20825551.4564   20825556.8404  109439063.960 8  85277213.22147
     -1287.163       -1002.985
  20630720.268    20630719.8724   20630726.3594  108415245.867 8  84479438.18447
       831.849         648.192
  23939977.228    23939976.2384   23939987.4704  125805467.205 6  98030243.20742
      3900.162        3039.081
  20863049.425    20863048.4774   20863055.7804  109636082.658 8  85430726.92347
     -1821.017       -1418.973
  23401850.260    23401849.2804   23401858.7604  122977501.364 6  95826625.21243
     -2798.040       -2180.296
  22635596.733    22635596.4514   22635603.7154  118950900.981 6  92689017.03644
      3184.799        2481.661
  23922634.435    23922634.0844   23922644.4484  125714342.341 6  97959254.68443
      3323.291        2589.563
 13  4  5 11 35 46.0000000  0 10G02G04G05G07G08G09G10G13G26G28
  22933532.526    22933531.6964   22933538.9284  120516517.473 7  93908965.09244
     -2395.978       -1866.990
  25043676.307    25043677.1794   25043687.7064  131605280.239 5 102549561.06041
     -3367.807       -2624.256
  21427248.760    21427248.7854   21427254.3684  112600998.869 8  87741064.25046
      1933.726        1506.800
  20829235.834    20829235.8264   20829241.1664  109458425.337 8  85292299.99647
     -1294.330       -1008.566
  20628357.586    20628357.0894   20628363.6554  108402829.495 9  84469763.09347
       823.702         641.844
  23928848.262    23928847.1294   23928857.4564  125746983.077 6  97984671.21342
      3897.715        3037.176
  20868258.573    20868257.5914   20868264.8744  109663456.392 8  85452057.08247
     -1828.792       -1425.026
  23409838.572    23409838.7844   23409847.3244  123019486.071 6  95859340.48543
     -2799.909       -2181.734
  22626509.961    22626509.7094   22626517.3024  118903151.280 7  92651809.49944
      3181.812        2479.328
  23913151.018    23913150.1504   23913161.8344  125664507.706 6  97920422.57243
      3321.329        2588.068
 13  4  5 11 36  1.0000000  0 10G02G04G05G07G08G09G10G13G26G28
  22940379.391    22940378.9254   22940385.8754  120552498.850 7  93937002.46144
     -2401.494       -1871.292
  25053287.307    25053286.5864   25053300.3944  131655788.892 5 102588918.32041
     -3366.709       -2623.373
  21421739.749    21421739.7244   21421745.2324  112572048.258 8  87718505.34146
      1926.406        1501.096
  20832940.729    20832940.6404   20832945.8954  109477894.228 8  85307470.54647
     -1301.461       -1014.118
  20626017.906    20626017.4754   20626024.0304  108390535.263 8  84460183.17247
       815.589         635.524
  23917725.719    23917725.9154   23917735.4504  125688535.999 6  97939128.07542
      3895.280        3035.286
  20873489.813    20873488.8794   20873495.9864  109690946.421 8  85473477.86347
     -1836.492       -1431.028
  23417834.140    23417833.3644   23417842.9064  123061499.045 6  95892077.79343
     -2801.720       -2183.170
  22617432.553    22617432.3704   22617439.4934  118855446.606 7  92614637.06244
      3178.855        2477.013
  23903673.106    23903672.0314   23903683.4704  125614701.428 6  97881612.55343
      3319.561        2586.663
 13  4  5 11 36 16.0000000  0 10G02G04G05G07G08G09G10G13G26G28
  22947242.696    22947241.6314   22947248.8954  120588562.976 7  93965104.32144
     -2407.113       -1875.670
  25062895.642    25062895.7264   25062908.6494  131706281.099 5 102628262.77341
     -3365.707       -2622.556
  21416251.208    21416251.3934   21416256.9444  112543207.145 8  87696031.74846
      1919.024        1495.342
  20836665.659    20836665.7114   20836670.9414  109497469.566 8  85322724.04247
     -1308.654       -1019.728
  20623701.498    20623700.9694   20623707.6424  108378362.292 9  84450697.73947
       807.415         629.151
  23906611.112    23906610.1644   23906620.4434  125630125.263 6  97893613.28342
      3892.746        3033.314
  20878742.915    20878742.0364   20878749.1124  109718551.820 8  85494988.53947
     -1844.288       -1437.100
  23425834.172    23425833.6744   23425842.8654  123103539.296 6  95924836.35343
     -2803.674       -2184.683
  22608362.843    22608363.0414   22608370.1414  118807786.220 7  92577499.12544
      3175.837        2474.681
  23894200.023    23894199.8604   23894211.0884  125564922.881 6  97842824.16943
      3317.528        2585.087
 13  4  5 11 36 31.0000000  0 10G02G04G05G07G08G09G10G13G26G28
  22954121.372    22954120.4074   22954127.7904  120624711.355 7  93993271.81944
     -2412.678       -1880.001
  25072501.985    25072500.9564   25072513.5324  131756758.410 5 102667595.64641
     -3364.641       -2621.812
  21410784.222    21410784.3394   21410789.8824  112514477.654 8  87673645.13946
      1911.578        1489.538
  20840411.339    20840411.3024   20840416.5614  109517153.062 8  85338061.82147
     -1315.839       -1025.326
  20621408.524    20621407.9764   20621414.6064  108366312.385 8  84441308.20547
       799.232         622.774
  23895503.141    23895502.4374   23895512.5324  125571752.964 6  97848128.43642
      3890.173        3031.302
  20884018.322    20884017.4464   20884024.5444  109746274.147 8  85516590.33247
     -1852.059       -1443.158
  23433839.392    23433839.1214   23433848.7354  123145608.659 6  95957617.60243
     -2805.625       -2186.188
  22599301.789    22599301.9874   22599309.4284  118760172.096 6  92540397.24744
      3172.709        2472.247
  23884733.620    23884732.6094   23884743.6964  125515174.291 6  97804059.11043
      3315.546        2583.543
 13  4  5 11 36 46.0000000  0 10G02G04G05G07G08G09G10G13G26G28
  22961015.977    22961015.1764   22961022.4984  120660943.156 7  94021504.32944
     -2418.212       -1884.311
  25082103.795    25082104.7094   25082117.8224  131807219.959 6 102706916.19641
     -3363.524       -2620.901
  21405338.368    21405338.4614   21405344.0664  112485859.381 8  87651345.20046
      1904.183        1483.778
  20844177.474    20844177.3874   20844182.6434  109536944.012 8  85353483.32547
     -1322.936       -1030.859
  20619138.805    20619138.1814   20619144.8094  108354385.027 8  84432014.16047
       791.098         616.440
  23884402.770    23884401.7254   23884411.9004  125513418.783 6  97802673.29443
      3887.685        3029.378
  20889315.973    20889314.8754   20889322.0074  109774112.693 8  85538282.68647
     -1859.740       -1449.149
  23441851.127    23441850.0894   23441859.7964  123187706.441 6  95990420.98543
     -2807.434       -2187.594
  22590249.968    22590250.1774   22590257.5904  118712603.953 7  92503331.20644
      3169.677        2469.883
  23875272.494    23875271.4444   23875283.0644  125465455.497 6  97765317.29542
      3313.596        2582.018
 13  4  5 11 37  1.0000000  0 10G02G04G05G07G08G09G10G13G26G28
  22967926.362    22967925.7884   22967932.7224  120697257.635 6  94049801.26044
     -2423.750       -1888.636
  25091703.948    25091703.7294   25091716.4304  131857665.128 6 102746223.96141
     -3362.539       -2620.135
  21399913.498    21399913.8154   21399919.4724  112457352.289 8  87629131.88446
      1896.723        1477.965
  20847963.984    20847963.7144   20847969.0534  109556841.828 8  85368988.10347
     -1330.116       -1036.449
  20616892.255    20616891.7564   20616898.3944  108342580.029 8  84422815.46147
       782.883         610.039
  23873308.808    23873308.8784   23873318.4114  125455122.574 6  97757247.74342
      3885.086        3027.322
  20894635.315    20894634.3914   20894641.5394  109802067.023 8  85560065.25647
     -1867.518       -1455.208
  23449866.974    23449866.2624   23449875.8914  123229832.258 6  96023246.22543
     -2809.365       -2189.109
  22581206.832    22581206.7534   22581214.2424  118665081.495 6  92466300.73944
      3166.566        2467.478
  23865817.197    23865816.0194   23865827.2554  125415766.527 6  97726598.72243
      3311.565        2580.423
 13  4  5 11 37 16.0000000  0 10G02G04G05G07G08G09G10G13G26G28
  22974852.383    22974852.1784   22974858.8434  120733654.755 6  94078162.59544
     -2429.123       -1892.818
  25101300.342    25101300.0844   25101311.1934  131908093.718 6 102785518.87741
     -3361.259       -2619.152
  21394510.316    21394510.4404   21394515.9524  112428956.883 8  87607005.60646
      1889.393        1472.251
  20851770.638    20851770.5254   20851775.7304  109576846.431 8  85384576.09147
     -1337.103       -1041.895
  20614669.244    20614668.6314   20614675.2784  108330897.521 8  84413712.20947
       774.851         603.779
  23862223.367    23862222.5014   23862232.0034  125396864.856 6  97711852.17642
      3882.641        3025.436
  20899976.966    20899975.9484   20899983.1614  109830137.204 8  85581938.10247
     -1875.110       -1461.123
  23457888.661    23457887.8254   23457896.7414  123271986.335 6  96056093.47742
     -2811.136       -2190.476
  22572171.617    22572172.2894   22572179.7594  118617605.153 6  92429306.24744
      3163.623        2465.159
  23856366.671    23856365.6284   23856376.9504  125366108.039 5  97687903.91843
      3309.620        2578.918
 13  4  5 11 37 31.0000000  0 10G02G04G05G07G08G09G10G13G26G28
  22981793.999    22981793.5164   22981800.8164  120770132.484 6  94106586.73644
     -2434.576       -1897.065
  25110892.729    25110894.0074   25110905.4434  131958504.042 5 102824799.51241
     -3360.140       -2618.276
  21389127.664    21389127.9384   21389133.5454  112400671.879 8  87584965.35546
      1881.918        1466.433
  20855597.172    20855597.3074   20855602.4134  109596956.093 8  85400245.94247
     -1344.204       -1047.431
  20612468.914    20612468.4814   20612475.1594  108319335.861 8  84404703.12647
       766.683         597.418
  23851143.941    23851143.4984   23851153.3084  125338644.157 6  97666485.48542
      3880.096        3023.458
  20905340.379    20905339.2794   20905346.4504  109858321.554 8  85603899.90747
     -1882.824       -1467.130
  23465915.113    23465914.2414   23465923.7064  123314166.986 6  96088961.45742
     -2812.994       -2191.944
  22563146.212    22563145.9524   22563153.8394  118570173.459 6  92392346.51344
      3160.566        2462.768
  23846921.794    23846921.6474   23846933.4724  125316478.726 5  97649231.81642
      3307.575        2577.311
 13  4  5 11 37 46.0000000  0 10G02G04G05G07G08G09G10G13G26G28
  22988750.820    22988750.7184   22988758.0734  120806692.608 6  94135075.08044
     -2440.051       -1901.329
  25120482.965    25120482.3634   25120495.2944  132008897.826 5 102864067.24641
     -3358.944       -2617.341
  21383766.712    21383766.8804   21383772.4474  112372499.664 8  87563012.99046
      1874.409        1460.578
  20859444.425    20859444.5154   20859449.5054  109617172.704 8  85415999.13547
     -1351.325       -1052.979
  20610292.243    20610291.7514   20610298.3634  108307897.172 8  84395789.86347
       758.498         591.037
  23840073.246    23840071.9914   23840081.5434  125280463.020 6  97621149.57042
      3877.449        3021.377
  20910725.719    20910724.6774   20910731.8734  109886622.041 8  85625952.20647
     -1890.549       -1473.146
  23473947.343    23473946.4994   23473956.2384  123356376.243 6  96121851.72242
     -2814.892       -2193.425
  22554128.993    22554129.0194   22554136.6604  118522788.659 7  92355423.33644
      3157.452        2460.357
  23837484.803    23837483.6474   23837495.2034  125266881.179 6  97610584.49342
      3305.439        2575.662
 13  4  5 11 38  1.0000000  0 10G02G04G05G07G08G09G10G13G26G28
  22995723.722    22995723.4954   22995730.7204  120843334.189 6  94163626.89244
     -2445.498       -1905.569
  25130069.075    25130069.2814   25130080.6374  132059274.053 5 102903321.34141
     -3357.807       -2616.516
  21378427.208    21378427.2604   21378432.8814  112344439.979 8  87541148.31146
      1866.900        1454.730
  20863311.807    20863311.8804   20863316.8194  109637495.427 8  85431835.00647
     -1358.351       -1058.459
  20608139.024    20608138.3994   20608144.8834  108296580.892 8  84386971.98447
       750.354         584.691
  23829008.714    23829008.2544   23829017.0484  125222320.882 6  97575844.08342
      3874.817        3019.354
  20916133.104    20916132.0704   20916139.2624  109915037.879 8  85648094.39447
     -1898.231       -1479.136
  23481985.956    23481984.0164   23481993.4194  123398613.480 6  96154763.79942
     -2816.732       -2194.823
  22545121.162    22545121.2704   22545128.3534  118475450.295 6  92318536.32044
      3154.377        2457.961
  23828051.907    23828051.4124   23828062.3464  125217315.157 6  97571961.73642
      3303.340        2574.027
 13  4  5 11 38 16.0000000  0 10G02G04G05G07G08G09G10G13G26G28
  23002712.197    23002711.7804   23002718.8724  120880056.108 7  94192241.31344
     -2450.802       -1909.714
  25139652.437    25139652.0924   25139664.8854  132109631.989 5 102942561.12841
     -3356.591       -2615.500
  21373108.927    21373108.9774   21373114.7314  112316492.510 8  87519371.06946
      1859.429        1448.906
  20867199.287    20867199.2064   20867204.1914  109657923.527 8  85447752.99847
     -1365.362       -1063.919
  20606008.793    20606008.2624   20606014.6264  108285386.419 9  84378249.01847
       742.263         578.389
  23817951.196    23817950.8974   23817960.9704  125164217.457 6  97530568.75942
      3872.279        3017.368
  20921562.088    20921561.2674   20921568.4734  109943568.350 8  85670325.90647
     -1905.827       -1485.056
  23490028.303    23490026.9634   23490036.4954  123440878.114 6  96187697.20642
     -2818.552       -2196.276
  22536121.514    22536121.3914   22536128.7924  118428157.918 7  92281685.15544
      3151.293        2455.548
  23818625.768    23818625.5014   23818636.4784  125167780.336 6  97533363.27242
      3301.296        2572.440
 13  4  5 11 38 31.0000000  0 10G02G04G05G07G08G09G10G13G26G28
  23009715.825    23009715.1694   23009722.1044  120916858.461 6  94220918.40844
     -2456.168       -1913.887
  25149232.035    25149232.6374   25149243.3714  132159971.334 5 102981786.50741
     -3355.318       -2614.532
  21367812.078    21367812.2374   21367817.8834  112288657.536 8  87497681.49847
      1851.883        1443.027
  20871106.458    20871106.5844   20871111.6684  109678457.008 8  85463753.09647
     -1372.438       -1069.429
  20603901.806    20603901.3034   20603907.6104  108274313.912 8  84369621.09447
       734.081         572.011
  23806901.990    23806901.4704   23806911.6094  125106153.106 6  97485323.87543
      3869.658        3015.302
  20927013.340    20927012.3444   20927019.4734  109972213.487 8  85692646.77046
     -1913.514       -1491.047
  23498076.012    23498074.9894   23498083.8544  123483170.203 6  96220652.01842
     -2820.414       -2197.738
  22527130.734    22527130.6564   22527138.1184  118380911.861 6  92244870.07844
      3148.191        2453.126
  23809206.010    23809205.2764   23809217.0374  125118277.261 6  97494789.57142
      3299.118        2570.745
 13  4  5 11 38 46.0000000  0 10G02G04G05G07G08G09G10G13G26G28
  23016734.248    23016733.7704   23016740.5594  120953741.110 7  94249658.07544
     -2461.433       -1918.012
  25158807.697    25158808.7524   25158818.9934  132210292.080 5 103020997.36441
     -3354.034       -2613.539
  21362536.850    21362537.0114   21362542.5534  112260935.687 8  87476080.06346
      1844.375        1437.174
  20875033.822    20875033.9414   20875039.1824  109699095.852 8  85479835.30647
     -1379.419       -1074.880
  20601818.063    20601817.6434   20601823.8524  108263363.646 8  84361088.41947
       725.950         565.676
  23795860.434    23795859.7704   23795869.8154  125048128.389 6  97440109.88943
      3867.039        3013.275
  20932486.204    20932485.1714   20932492.3434  110000973.552 8  85715057.18846
     -1921.149       -1497.000
  23506129.391    23506128.5874   23506138.0214  123525489.741 5  96253628.21142
     -2822.219       -2199.123
  22518149.371    22518148.7744   22518156.5324  118333712.633 7  92208091.50244
      3145.074        2450.700
  23799791.562    23799790.6294   23799802.6364  125068806.575 6  97456241.10542
      3296.995        2569.075
 13  4  5 11 39  1.0000000  0 10G02G04G05G07G08G09G10G13G26G28
  23023767.488    23023767.2454   23023774.0474  120990702.592 7  94278459.17744
     -2466.750       -1922.137
  25168379.986    25168379.7284   25168392.5904  132260593.113 5 103060192.83741
     -3352.741       -2612.523
  21357283.289    21357283.1354   21357288.6594  112233326.224 8  87454566.20346
      1836.858        1431.318
  20878981.013    20878981.1864   20878986.5304  109719838.925 8  85495998.72047
     -1386.366       -1080.279
  20599757.379    20599757.0304   20599763.1534  108252534.665 8  84352650.25247
       717.884         559.385
  23784826.641    23784825.4204   23784835.5784  124990142.592 6  97394926.22243
      3864.415        3011.213
  20937980.498    20937979.7054   20937986.8574  110029847.304 8  85737556.18747
     -1928.711       -1502.891
  23514187.237    23514186.7554   23514196.1664  123567835.780 6  96286625.07342
     -2823.985       -2200.507
  22509176.051    22509176.1814   22509183.2094  118286559.394 6  92171348.74644
      3141.982        2448.296
  23790383.168    23790382.9334   23790394.8094  125019367.636 6  97417717.39142
      3294.831        2567.392
 13  4  5 11 39 16.0000000  0 10G02G04G05G07G08G09G10G13G26G28
  23030816.560    23030816.1374   23030822.5904  121027743.371 7  94307322.05244
     -2472.040       -1926.256
  25177947.869    25177947.7364   25177959.6254  132310874.895 5 103099373.30941
     -3351.421       -2611.487
  21352050.651    21352050.8664   21352056.2894  112205830.436 8  87433140.92847
      1829.209        1425.354
  20882948.796    20882948.3684   20882953.8074  109740686.892 8  85512243.87947
     -1393.408       -1085.771
  20597720.002    20597719.6214   20597725.7334  108241827.930 8  84344307.33947
       709.670         552.989
  23773799.785    23773798.8134   23773809.2004  124932196.845 6  97349773.78343
      3861.710        3009.108
  20943496.804    20943495.9924   20943503.2054  110058835.547 8  85760144.40446
     -1936.389       -1508.873
  23522250.173    23522250.0654   23522259.6304  123610209.345 6  96319643.36743
     -2825.848       -2201.957
  22500211.831    22500211.8594   22500219.3974  118239453.185 7  92134642.63144
      3138.814        2445.833
  23780982.101    23780980.7934   23780992.3254  124969961.827 6  97379219.47342
      3292.617        2565.670
 13  4  5 11 39 31.0000000  0 10G02G04G05G07G08G09G10G13G26G28
  23037880.231    23037880.0324   23037886.2754  121064863.096 7  94336246.46044
     -2477.226       -1930.307
  25187511.604    25187513.2534   25187525.5884  132361137.000 5 103138538.42541
     -3350.123       -2610.466
  21346840.109    21346840.2994   21346845.6924  112178448.293 8  87411804.19647
      1821.730        1419.530
  20886935.741    20886935.5174   20886941.0044  109761639.313 8  85528570.42347
     -1400.259       -1091.109
  20595705.858    20595705.4044   20595711.5594  108231243.187 8  84336059.49047
       701.611         546.709
  23762780.103    23762779.2564   23762789.8454  124874291.227 6  97304652.58843
      3859.078        3007.067
  20949034.922    20949033.9804   20949041.2494  110087937.930 8  85782821.56746
     -1943.928       -1514.747
  23530319.653    23530318.4704   23530328.5064  123652610.139 6  96352682.87743
     -2827.574       -2203.290
  22491256.650    22491256.7794   22491264.2554  118192393.923 7  92097973.10744
      3135.748        2443.428
  23771587.091    23771585.4064   23771596.6114  124920589.398 6  97340747.57342
      3290.421        2563.943
 13  4  5 11 39 46.0000000  0 10G02G04G05G07G08G09G10G13G26G28
  23044958.512    23044958.3154   23044964.7304  121102060.981 6  94365231.76644
     -2482.482       -1934.388
  25197072.888    25197074.0124   25197085.8724  132411378.852 5 103177687.78041
     -3348.732       -2609.419
  21341651.117    21341651.1984   21341656.6524  112151179.798 8  87390556.02847
      1814.073        1413.566
  20890942.291    20890942.4114   20890947.9314  109782695.837 8  85544978.08947
     -1407.283       -1096.579
  20593714.654    20593714.2374   20593720.5024  108220780.134 8  84327906.46047
       693.443         540.344
  23751768.695    23751767.6834   23751778.6954  124816425.612 6  97259562.58343
      3856.372        3004.970
  20954594.544    20954593.6564   20954600.9674  110117153.915 8  85805587.24147
     -1951.544       -1520.682
  23538393.244    23538392.8744   23538402.2174  123695037.848 6  96385743.36643
     -2829.433       -2204.754
  22482310.554    22482310.8144   22482318.5354  118145381.484 7  92061340.07244
      3132.606        2440.987
  23762197.691    23762196.3424   23762207.9094  124871250.363 6  97302301.66942
      3288.154        2562.201
 13  4  5 11 40  1.0000000  0 10G02G04G05G07G08G09G10G13G26G28
  23052051.962    23052051.5374   23052058.2194  121139336.695 6  94394277.71744
     -2487.681       -1938.449
  25206630.305    25206631.0304   25206642.3134  132461600.171 5 103216821.17341
     -3347.430       -2608.401
  21336483.810    21336483.8524   21336489.3134  112124025.213 8  87369396.61647
      1806.473        1407.648
  20894969.230    20894969.0914   20894974.5904  109803856.180 8  85561466.65347
     -1414.163       -1101.949
  20591746.797    20591746.3514   20591752.6814  108210438.920 8  84319848.36947
       685.344         534.036
  23740764.620    23740764.3954   23740774.3534  124758600.360 6  97214504.03643
      3853.635        3002.814
  20960175.987    20960174.8814   20960182.2814  110146483.592 8  85828441.50846
     -1959.133       -1526.587
  23546472.300    23546471.7334   23546481.3344  123737492.343 6  96418824.71443
     -2831.235       -2206.144
  22473373.577    22473373.6844   22473381.4044  118098416.020 7  92024743.64344
      3129.431        2438.508
  23752814.815    23752813.9164   23752825.3714  124821944.996 6  97263882.04142
      3285.813        2560.387
 13  4  5 11 40 16.0000000  0 10G02G04G05G07G08G09G10G13G26G28
  23059159.735    23059159.4314   23059166.2284  121176690.255 7  94423384.32744
     -2492.855       -1942.486
  25216182.983    25216182.7694   25216196.3864  132511800.897 5 103255938.48341
     -3346.035       -2607.306
  21331338.336    21331338.2744   21331343.7804  112096985.173 8  87348326.46647
      1798.820        1401.680
  20899015.760    20899015.5804   20899021.0994  109825120.555 8  85578036.28147
     -1421.133       -1107.369
  20589802.441    20589801.7194   20589808.0884  108200219.636 8  84311885.29247
       677.179         527.673
  23729768.396    23729768.3844   23729778.1544  124700815.922 6  97169477.28843
      3850.898        3000.687
  20965778.674    20965777.7844   20965785.2034  110175927.107 8  85851384.48346
     -1966.737       -1532.520
  23554555.971    23554555.7804   23554565.5774  123779973.950 6  96451927.20143
     -2833.065       -2207.580
  22464445.277    22464445.2804   22464453.3374  118051498.044 7  91988184.21144
      3126.263        2436.048
  23743439.105    23743438.0624   23743449.0434  124772674.090 6  97225489.24342
      3283.521        2558.579
 13  4  5 11 40 31.0000000  0 10G02G04G05G07G08G09G10G13G26G28
  23066282.845    23066281.9784   23066289.3684  121214121.151 6  94452551.18543
     -2497.933       -1946.436
  25225732.271    25225732.0744   25225745.7164  132561980.648 5 103295039.42241
     -3344.556       -2606.107
  21326214.422    21326214.4394   21326220.0584  112070059.739 8  87327345.61747
      1791.249        1395.777
  20903081.897    20903081.7784   20903087.2644  109846488.580 7  85594686.67147
     -1427.930       -1112.676
  20587880.646    20587880.3054   20587886.6864  108190122.207 8  84304017.16747
       669.150         521.413
  23718779.949    23718780.1854   23718790.0664  124643072.474 6  97124482.47343
      3848.203        2998.602
  20971403.332    20971402.2614   20971409.8174  110205484.018 8  85874415.81547
     -1974.190       -1538.327
  23562645.617    23562645.0784   23562654.4934  123822482.245 6  96485050.47743
     -2834.719       -2208.879
  22455526.124    22455525.9504   22455534.1264  118004627.685 7  91951661.88044
      3123.151        2433.625
  23734069.343    23734068.8904   23734079.4294  124723437.914 6  97187123.52542
      3281.281        2556.819
 13  4  5 11 40 46.0000000  0 10G02G04G05G07G08G09G10G13G26G28
  23073420.368    23073419.2784   23073426.7104  121251628.392 6  94481777.54543
     -2502.986       -1950.373
  25235276.848    25235276.1414   25235288.5494  132612138.482 5 103334123.33041
     -3343.084       -2604.981
  21321112.282    21321112.3984   21321118.0634  112043248.412 8  87306453.68747
      1783.635        1389.842
  20907167.424    20907167.5314   20907172.9494  109867959.165 8  85611416.98447
     -1434.762       -1117.996
  20585982.343    20585981.8824   20585988.2524  108180145.979 8  84296243.48147
       661.075         515.123
  23707800.032    23707799.5614   23707809.7964  124585369.382 6  97079519.10743
      3845.576        2996.548
  20977049.288    20977048.2584   20977055.7584  110235153.544 8  85897534.90346
     -1981.686       -1544.165
  23570739.654    23570739.5814   23570748.4964  123865016.680 6  96518194.12643
     -2836.439       -2210.228
  22446615.944    22446615.6554   22446624.0124  117957804.133 7  91915176.02644
      3120.045        2431.196
  23724705.508    23724705.4264   23724716.9024  124674236.040 6  97148784.52442
      3279.031        2555.073
 13  4  5 11 41  1.0000000  0 10G02G04G05G07G08G09G10G13G26G28
  23080571.909    23080571.6104   23080578.8394  121289212.431 6  94511063.73943
     -2508.152       -1954.388
  25244817.631    25244817.8504   25244829.8014  132662274.680 6 103373190.34541
     -3341.677       -2603.881
  21316032.241    21316032.3834   21316038.0294  112016552.376 8  87285651.58747
      1775.903        1383.820
  20911273.172    20911272.8834   20911278.3714  109889533.036 8  85628227.77547
     -1441.677       -1123.383
  20584107.059    20584106.6564   20584113.0804  108170291.761 9  84288564.87047
       652.896         508.749
  23696827.386    23696826.9114   23696836.9324  124527707.731 6  97034588.04043
      3842.749        2994.334
  20982716.879    20982715.8284   20982723.2714  110264936.403 8  85920742.30246
     -1989.294       -1550.100
  23578839.233    23578838.2704   23578847.6134  123907577.896 6  96551358.64443
     -2838.252       -2211.622
  22437714.775    22437714.4414   22437722.7514  117911028.468 7  91878727.49144
      3116.808        2428.664
  23715350.592    23715349.2044   23715360.6894  124625069.683 6  97110473.19742
      3276.559        2553.164
 13  4  5 11 41 16.0000000  0 10G02G04G05G07G08G09G10G13G26G28
  23087739.292    23087737.7394   23087745.4414  121326872.125 7  94540408.89144
     -2513.096       -1958.257
  25254353.417    25254354.4034   25254368.0324  132712388.517 5 103412239.96041
     -3340.126       -2602.677
  21310974.105    21310974.0454   21310979.7864  111989971.065 8  87264938.89147
      1768.298        1377.891
  20915397.638    20915397.6894   20915403.2254  109911209.234 8  85645118.30547
     -1448.431       -1128.644
  20582254.979    20582254.5144   20582260.9114  108160558.727 8  84280980.68947
       644.895         502.512
  23685861.944    23685862.2204   23685872.4514  124470087.083 6  96989688.91543
      3840.053        2992.271
  20988405.593    20988404.7614   20988412.2514  110294831.674 8  85944037.29746
     -1996.691       -1555.861
  23586942.678    23586942.3784   23586952.0504  123950165.209 6  96584543.48743
     -2839.950       -2212.937
  22428822.400    22428821.9874   22428830.6664  117864300.162 7  91842315.84044
      3113.698        2426.257
  23706000.482    23706000.0254   23706011.4114  124575938.472 6  97072189.25443
      3274.284        2551.410
 13  4  5 11 41 31.0000000  0 10G02G04G05G07G08G09G10G13G26G28
  23094919.602    23094918.7084   23094926.3754  121364607.192 6  94569812.78844
     -2518.212       -1962.232
  25263885.456    25263885.6284   25263900.1954  132762479.650 5 103451271.85641
     -3338.669       -2601.562
  21305937.900    21305937.7764   21305943.5634  111963505.081 8  87244316.05047
      1760.526        1371.836
  20919542.327    20919542.0884   20919547.5904  109932987.895 8  85662088.67647
     -1455.370       -1134.048
  20580426.033    20580425.4684   20580431.8904  108150947.180 8  84273491.16647
       636.701         496.132
  23674905.950    23674904.9184   23674914.9734  124412507.914 6  96944822.12243
      3837.208        2990.034
  20994115.952    20994115.0554   20994122.5194  110324839.329 8  85967419.85647
     -2004.279       -1561.774
  23595052.076    23595051.8304   23595060.9384  123992778.683 6  96617748.71543
     -2841.815       -2214.396
  22419939.469    22419938.8884   22419947.6014  117817619.565 7  91805941.38144
      3110.416        2423.695
  23696658.568    23696657.2364   23696668.6484  124526842.907 6  97033933.10143
      3271.826        2549.470
 13  4  5 11 41 46.0000000  0 10G02G04G05G07G08G09G10G13G26G28
  23102114.382    23102113.9994   23102121.7194  121402417.880 6  94599275.59744
     -2523.299       -1966.211
  25273415.092    25273415.0934   25273425.4644  132812548.466 5 103490286.37041
     -3337.223       -2600.426
  21300923.363    21300923.5124   21300929.1894  111937155.039 8  87223783.56447
      1752.703        1365.738
  20923706.128    20923705.9664   20923711.4374  109954869.090 8  85679138.94847
     -1462.252       -1139.415
  20578620.031    20578619.6534   20578625.9984  108141457.458 8  84266096.57947
       628.509         489.748
  23663955.858    23663956.1694   23663965.6124  124354970.922 6  96899988.17643
      3834.307        2987.772
  20999847.544    20999846.8464   20999854.3314  110354959.756 8  85990890.29646
     -2011.866       -1567.684
  23603166.056    23603166.4394   23603174.9694  124035418.898 6  96650974.79143
     -2843.656       -2215.814
  22411066.148    22411065.3454   22411073.7104  117770987.355 7  91769604.61944
      3107.073        2421.098
  23687322.441    23687321.9854   23687332.7994  124477783.978 6  96995705.48843
      3269.294        2547.474
 13  4  5 11 42  1.0000000  0 10G02G04G05G07G08G09G10G13G26G28
  23109324.623    23109323.5644   23109331.4014  121440303.877 6  94628797.09244
     -2528.238       -1970.059
  25282937.259    25282937.7844   25282950.8454  132862594.569 5 103529283.18741
     -3335.652       -2599.205
  21295931.431    21295931.4394   21295937.1254  111910921.349 8  87203341.73847
      1745.022        1359.764
  20927889.371    20927889.3714   20927894.8354  109976852.835 8  85696269.12447
     -1468.996       -1144.671
  20576837.485    20576836.9404   20576843.3624  108132089.643 8  84258796.98347
       620.457         483.473
  23653014.995    23653015.2234   23653025.1304  124297476.410 6  96855187.33443
      3831.517        2985.607
  21005600.885    21005600.0214   21005607.4644  110385192.955 8  86014448.61147
     -2019.305       -1573.483
  23611285.520    23611285.7804   23611294.5804  124078085.762 6  96684221.60743
     -2845.354       -2217.147
  22402201.037    22402200.6674   22402208.8854  117724403.684 7  91733305.68744
      3103.947        2418.658
  23677994.078    23677992.8774   23678004.4104  124428762.176 6  96957506.79743
      3266.856        2545.582
 13  4  5 11 42 16.0000000  0 10G02G04G05G07G08G09G10G13G26G28
  23116547.937    23116547.1994   23116555.2004  121478264.511 6  94658376.72744
     -2533.132       -1973.865
  25292456.732    25292456.6534   25292469.7864  132912617.629 5 103568262.00441
     -3334.059       -2597.962
  21290961.325    21290961.4704   21290967.1304  111884803.969 8  87182990.54847
      1737.333        1353.766
  20932092.448    20932092.2034   20932097.6284  109998938.659 8  85713478.84147
     -1475.736       -1149.919
  20575078.079    20575077.4064   20575083.9224  108122843.568 8  84251592.25247
       612.403         477.195
  23642082.703    23642082.4834   23642092.3564  124240024.372 6  96810419.59343
      3828.793        2983.468
  21011375.459    21011374.5974   21011382.0654  110415538.409 8  86038094.39146
     -2026.720       -1579.259
  23619409.413    23619410.3104   23619419.0554  124120778.878 6  96717488.90443
     -2847.031       -2218.462
  22393345.816    22393345.3384   22393353.7144  117677868.471 7  91697044.50944
      3100.801        2416.202
  23668672.177    23668671.5394   23668682.4594  124379777.593 6  96919337.12443
      3264.464        2543.731
 13  4  5 11 42 31.0000000  0 10G02G04G05G07G08G09G10G13G26G28
  23123785.598    23123784.9994   23123793.1724  121516298.423 6  94688013.46144
     -2538.079       -1977.721
  25301970.323    25301970.5524   25301984.3204  132962616.110 5 103607221.73841
     -3332.436       -2596.703
  21286013.479    21286013.4944   21286019.1134  111858802.169 8  87162729.41747
      1729.571        1347.716
  20936314.114    20936314.1634   20936319.6024  110021125.253 8  85730767.08847
     -1482.500       -1155.198
  20573341.529    20573340.9194   20573347.4144  108113718.157 8  84244481.54047
       604.312         470.893
  23631157.596    23631157.2134   23631167.7004  124182613.954 6  96765684.27443
      3825.927        2981.246
  21017171.345    21017170.3094   21017177.7564  110445995.027 8  86061826.79747
     -2034.157       -1585.060
  23627539.283    23627538.6504   23627548.3034  124163497.395 6  96750775.97943
     -2848.769       -2219.818
  22384499.536    22384499.5574   22384507.2964  117631380.911 7  91660820.46144
      3097.550        2413.673
  23659357.536    23659357.2384   23659367.7084  124330829.464 6  96881195.83543
      3261.937        2541.762
 13  4  5 11 42 46.0000000  0 10G02G04G05G07G08G09G10G13G26G28
  23131037.647    23131036.8664   23131045.0454  121554406.617 6  94717708.07444
     -2542.998       -1981.548
  25311481.132    25311479.8254   25311495.6694  133012591.018 5 103646163.02141
     -3330.887       -2595.471
  21281087.630    21281087.7054   21281093.3944  111832917.382 8  87142559.46147
      1721.777        1341.642
  20940555.726    20940555.5494   20940560.9734  110043413.572 8  85748134.59347
     -1489.249       -1160.457
  20571628.122    20571627.6514   20571634.0554  108104714.558 8  84237465.74947
       596.203         464.573
  23620240.926    23620240.7314   23620250.9294  124125246.595 6  96720982.52343
      3823.070        2979.008
  21022988.336    21022987.3674   21022994.8064  110476563.667 8  86085646.48947
     -2041.625       -1590.873
  23635673.193    23635672.9524   23635682.1044  124206242.284 6  96784083.61143
     -2850.506       -2221.187
  22375662.540    22375662.1144   22375669.9254  117584942.124 7  91624634.42144
      3094.289        2411.139
  23650050.505    23650050.0194   23650060.8534  124281919.244 6  96843084.08843
      3259.418        2539.803
 13  4  5 11 43  1.0000000  0 10G02G04G05G07G08G09G10G13G26G28
  23138302.912    23138302.6864   23138310.1734  121592587.247 6  94747459.15844
     -2547.842       -1985.331
  25320986.274    25320984.6434   25320999.7034  133062540.668 5 103685084.70341
     -3329.146       -2594.138
  21276184.235    21276184.0444   21276189.8104  111807148.743 8  87122480.01047
      1713.972        1335.560
  20944816.020    20944816.0414   20944821.4174  110065802.316 8  85765580.35747
     -1495.987       -1165.702
  20569937.714    20569937.2664   20569943.6584  108095831.555 8  84230543.92547
       588.121         458.276
  23609332.597    23609332.2214   23609341.7534  124067921.441 6  96676313.65643
      3820.223        2976.787
  21028826.377    21028825.3974   21028832.8944  110507243.101 8  86109552.52047
     -2049.037       -1596.654
  23643812.862    23643811.4474   23643820.7734  124249012.193 5  96817410.73743
     -2852.214       -2222.499
  22366834.589    22366834.1064   22366842.1754  117538551.329 6  91588485.76744
      3091.054        2408.624
  23640749.917    23640749.7234   23640760.0164  124233046.279 6  96805001.39443
      3256.893        2537.834
 13  4  5 11 43 16.0000000  0 10G02G04G05G07G08G09G10G13G26G28
  23145582.931    23145582.4974   23145589.5024  121630840.340 6  94777266.68444
     -2552.697       -1989.109
  25330487.436    25330487.6314   25330500.9254  133112465.214 5 103723986.74341
     -3327.549       -2592.847
  21271302.823    21271302.6064   21271308.3324  111781496.746 8  87102491.45247
      1706.172        1329.483
  20949095.615    20949095.6084   20949100.9634  110088291.508 8  85783104.39447
     -1502.697       -1170.934
  20568270.485    20568269.9064   20568276.2284  108087069.359 8  84223716.24347
       580.042         451.981
  23598431.748    23598431.5904   23598441.5964  124010638.989 6  96631678.06143
      3817.323        2974.535
  21034685.699    21034684.6884   21034692.1564  110538033.495 8  86133545.00746
     -2056.462       -1602.438
  23651955.026    23651954.9614   23651964.8934  124291807.510 6  96850757.67343
     -2853.944       -2223.846
  22358015.950    22358015.4244   22358023.6294  117492208.840 7  91552374.77444
      3087.775        2406.071
  23631456.906    23631456.6164   23631466.8644  124184211.255 6  96766948.24643
      3254.304        2535.808
 13  4  5 11 43 31.0000000  0 10G02G04G05G07G08G09G10G13G26G28
  23152875.641    23152875.6544   23152883.0814  121669167.078 6  94807131.61044
     -2557.535       -1992.880
  25339982.895    25339982.6264   25339997.8774  133162365.947 5 103762870.27541
     -3325.861       -2591.545
  21266443.755    21266443.7654   21266449.4144  111755963.100 8  87082595.11047
      1698.306        1323.354
  20953394.783    20953394.5874   20953399.9394  110110882.519 8  85800707.76347
     -1509.448       -1176.194
  20566626.333    20566625.7864   20566632.1724  108078429.543 8  84216983.91747
       571.921         445.654
  23587539.235    23587539.3584   23587549.3634  123953400.912 6  96587077.04743
      3814.391        2972.273
  21040566.183    21040565.1934   21040572.7314  110568936.202 8  86157625.01646
     -2063.893       -1608.224
  23660103.624    23660103.8344   23660113.2954  124334629.591 6  96884125.45442
     -2855.684       -2225.199
  22349206.268    22349206.2794   22349214.1994  117445916.362 7  91516302.73944
      3084.506        2403.513
  23622171.791    23622171.0594   23622180.7144  124135416.010 6  96728926.09743
      3251.711        2533.789
 13  4  5 11 43 46.0000000  0 10G02G04G05G07G08G09G10G13G26G28
  23160183.087    23160183.0834   23160190.1684  121707565.858 6  94837052.65444
     -2562.352       -1996.629
  25349474.575    25349473.5544   25349487.9444  133212241.228 5 103801733.92241
     -3324.169       -2590.249
  21261607.358    21261607.2264   21261612.8104  111730546.855 8  87062790.25247
      1690.491        1317.268
  20957712.524    20957712.6004   20957718.0284  110133573.800 8  85818389.27147
     -1516.106       -1181.374
  20565005.300    20565004.7264   20565011.1724  108069910.929 8  84210346.03347
       563.869         439.380
  23576655.488    23576655.9634   23576665.2004  123896206.167 6  96542509.79043
      3811.518        2970.003
  21046467.920    21046466.8374   21046474.3584  110599949.746 8  86181791.38746
     -2071.267       -1613.976
  23668257.536    23668257.6134   23668267.1184  124377477.171 6  96917513.10442
     -2857.363       -2226.510
  22340406.453    22340406.3644   22340414.4174  117399672.840 7  91480268.85644
      3081.253        2400.964
  23612893.252    23612893.2984   23612902.6644  124086659.704 6  96690934.28843
      3249.097        2531.745
 13  4  5 11 44  1.0000000  0 10G02G04G05G07G08G09G10G13G26G28
  23167504.027    23167503.9324   23167510.6654  121746036.614 6  94867029.79844
     -2567.112       -2000.349
  25358960.410    25358960.3824   25358974.5854  133262091.265 5 103840577.91341
     -3322.521       -2588.962
  21256793.085    21256793.2244   21256798.6994  111705248.701 8  87043077.41447
      1682.605        1311.121
  20962049.760    20962049.8134   20962055.1884  110156365.702 8  85836149.18547
     -1522.848       -1186.635
  20563407.312    20563406.8684   20563413.2834  108061513.812 8  84203802.83047
       555.769         433.066
  23565780.489    23565780.3544   23565789.6554  123839055.475 6  96497976.85943
      3808.570        2967.706
  21052390.648    21052389.6534   21052397.2434  110631074.423 8  86206044.35746
     -2078.675       -1619.749
  23676417.124    23676416.0124   23676425.6524  124420350.847 6  96950921.08542
     -2859.116       -2227.888
  22331616.287    22331615.9014   22331623.8104  117353478.778 7  91444273.50744
      3077.951        2398.404
  23603623.001    23603622.3144   23603632.4424  124037943.113 6  96652973.42143
      3246.421        2529.678
 13  4  5 11 44 16.0000000  0 10G02G04G05G07G08G09G10G13G26G28
  23174837.989    23174838.0334   23174844.9764  121784578.580 6  94897062.43243
     -2571.811       -2004.002
  25368441.889    25368440.2824   25368455.6444  133311915.206 5 103879401.57241
     -3320.750       -2587.599
  21252001.585    21252001.5984   21252007.0904  111680068.395 8  87023456.40347
      1674.808        1305.049
  20966405.991    20966406.0384   20966411.4434  110179257.556 8  85853986.98147
     -1529.383       -1191.726
  20561832.353    20561831.9634   20561838.3784  108053237.725 8  84197353.93047
       547.759         426.828
  23554913.136    23554913.2604   23554922.7714  123781948.562 6  96453478.04243
      3805.693        2965.473
  21058334.621    21058333.5194   21058341.1694  110662309.654 8  86230383.47346
     -2085.982       -1625.441
  23684580.050    23684578.6954   23684589.4164  124463249.725 6  96984348.71242
     -2860.762       -2229.171
  22322835.169    22322835.0274   22322842.8904  117307333.797 6  91408316.41744
      3074.734        2395.895
  23594360.092    23594359.4634   23594368.9534  123989265.927 6  96615043.26343
      3243.809        2527.648
 13  4  5 11 44 31.0000000  0 10G02G04G05G07G08G09G10G13G26G28
  23182186.068    23182186.0534   23182193.1604  121823192.865 6  94927151.41343
     -2576.642       -2007.765
  25377919.103    25377917.9964   25377932.3234  133361714.055 5 103918205.68741
     -3319.079       -2586.262
  21247232.572    21247232.6884   21247238.1814  111655007.748 8  87003928.63747
      1666.764        1298.772
  20970781.506    20970781.4774   20970786.8674  110202250.295 8  85871903.38847
     -1536.199       -1197.038
  20560280.936    20560280.4114   20560286.8564  108045084.078 8  84191000.44447
       539.534         420.413
  23544054.892    23544054.2524   23544063.9964  123724887.016 6  96409014.57043
      3802.635        2963.105
  21064299.733    21064298.6964   21064306.3804  110693656.675 8  86254809.69846
     -2093.474       -1631.281
  23692749.189    23692747.6354   23692757.9024  124506175.259 6  97017797.10442
     -2862.550       -2230.566
  22314063.910    22314063.5654   22314071.3624  117261239.609 7  91372398.90144
      3071.277        2393.205
  23585104.447    23585104.2094   23585113.3974  123940630.152 6  96577145.38243
      3241.055        2525.489
 13  4  5 11 44 46.0000000  0 10G02G04G05G07G08G09G10G13G26G28
  23189548.486    23189547.2084   23189554.6904  121861878.187 6  94957295.74043
     -2581.288       -2011.396
  25387389.486    25387389.8484   25387404.9574  133411486.906 5 103956989.56141
     -3317.206       -2584.832
  21242486.359    21242486.4484   21242491.9474  111630065.962 8  86984493.47847
      1658.895        1292.642
  20975175.713    20975175.8574   20975181.1634  110225342.812 8  85889897.54347
     -1542.740       -1202.137
  20558752.425    20558751.8944   20558758.3864  108037051.851 8  84184741.56147
       531.503         414.159
  23533204.701    23533204.3224   23533213.8404  123667870.251 6  96364586.00143
      3799.704        2960.809
  21070286.090    21070284.9294   21070292.5624  110725114.359 8  86279322.15346
     -2100.795       -1636.985
  23700921.631    23700921.3304   23700931.1634  124549126.381 6  97051265.42542
     -2864.137       -2231.791
  22305302.238    22305301.7264   22305309.5094  117215195.407 7  91336520.33744
      3068.013        2390.662
  23575857.810    23575856.8104   23575866.6154  123892035.221 6  96539279.31643
      3238.378        2523.408
 13  4  5 11 45  1.0000000  0 10G02G04G05G07G08G09G10G13G26G28
  23196923.032    23196922.2374   23196929.8024  121900632.959 6  94987494.19443
     -2585.982       -2015.056
  25396856.630    25396856.4584   25396870.9764  133461232.157 5 103995751.92741
     -3315.456       -2583.443
  21237762.740    21237762.6134   21237767.9544  111605242.112 8  86965150.22347
      1650.991        1286.479
  20979588.679    20979588.8964   20979594.2904  110248533.831 8  85907968.45447
     -1549.333       -1207.272
  20557246.761    20557246.3334   20557252.7844  108029139.888 8  84178576.39947
       523.449         407.881
  23522363.118    23522362.5474   23522372.2224  123610897.341 6  96320191.60143
      3796.703        2958.470
  21076293.003    21076292.0534   21076299.6664  110756681.571 8  86303919.95146
     -2108.133       -1642.700
  23709099.959    23709099.3924   23709108.9554  124592102.144 6  97084752.96342
     -2865.820       -2233.108
  22296549.271    22296549.1594   22296557.0394  117169200.230 7  91300679.96744
      3064.677        2388.064
  23566617.706    23566616.9024   23566626.4624  123843480.377 6  96501444.46743
      3235.626        2521.260
 13  4  5 11 45 16.0000000  0 10G02G04G05G07G08G09G10G13G26G28
  23204310.856    23204310.6054   23204317.4204  121939457.190 6  95017746.77243
     -2590.610       -2018.655
  25406316.703    25406317.4854   25406332.5634  133510949.802 5 104034492.76241
     -3313.615       -2582.002
  21233061.283    21233061.2854   21233066.6964  111580536.762 8  86945899.30847
      1643.019        1280.276
  20984020.759    20984020.7004   20984026.1184  110271823.451 8  85926116.19647
     -1555.987       -1212.453
  20555764.081    20555763.6704   20555770.1424  108021348.488 8  84172505.18147
       515.362         401.580
  23511530.021    23511529.4974   23511538.7174  123553968.718 6  96275831.71643
      3793.706        2956.131
  21082320.827    21082319.9344   21082327.5374  110788358.206 8  86328603.02046
     -2115.463       -1648.413
  23717283.252    23717282.5554   23717292.1204  124635102.809 6  97118259.89842
     -2867.638       -2234.506
  22287805.910    22287805.8924   22287813.6184  117123254.516 7  91264878.13544
      3061.353        2385.463
  23557385.840    23557385.2894   23557394.2764  123794966.196 6  96463641.32143
      3232.866        2519.116
 13  4  5 11 45 31.0000000  0 10G02G04G05G07G08G09G10G13G26G28
  23211712.302    23211711.9594   23211718.8554  121978350.931 6  95048053.50143
     -2595.234       -2022.234
  25415771.600    25415773.4034   25415789.3554  133560640.000 4 104073212.18841
     -3311.785       -2580.585
  21228382.613    21228382.7444   21228388.1154  111555950.734 8  86926741.37047
      1635.133        1274.128
  20988471.153    20988471.3464   20988476.8374  110295211.967 8  85944341.00147
     -1562.496       -1217.533
  20554304.479    20554304.0034   20554310.4974  108013678.000 9  84166528.17347
       507.367         395.353
  23500704.987    23500704.5314   23500714.4374  123497085.155 6  96231506.92343
      3790.736        2953.811
  21088369.722    21088368.7654   21088376.2694  110820144.634 8  86353371.63746
     -2122.722       -1654.065
  23725470.861    23725470.4474   23725479.9304  124678128.633 6  97151786.43542
     -2869.216       -2235.757
  22279072.655    22279072.3114   22279079.9604  117077358.855 7  91229115.30944
      3058.045        2382.888
  23548160.969    23548160.4654   23548169.8924  123746493.603 6  96425870.59043
      3230.103        2516.966
 13  4  5 11 45 46.0000000  0 10G02G04G05G07G08G09G10G13G26G28
  23219126.848    23219125.9154   23219133.1584  122017313.407 6  95078413.81243
     -2599.816       -2025.829
  25425224.255    25425223.1494   25425237.8814  133610302.051 5 104111909.64541
     -3309.838       -2579.093
  21223726.694    21223726.6624   21223732.2124  111531483.595 8  86907676.06747
      1627.139        1267.899
  20992940.663    20992940.5854   20992946.2094  110318698.638 8  85962642.29347
     -1569.080       -1222.661
  20552867.698    20552867.3224   20552873.7574  108006128.100 9  84160645.13547
       499.277         389.047
  23489888.730    23489888.5034   23489898.0844  123440246.443 6  96187217.09943
      3787.723        2951.476
  21094439.395    21094438.4094   21094445.8694  110852040.345 8  86378225.41346
     -2130.052       -1659.778
  23733662.649    23733662.7594   23733672.2774  124721178.925 6  97185332.05342
     -2870.861       -2237.051
  22270347.912    22270348.0814   22270355.7334  117031512.969 7  91193391.28944
      3054.692        2380.279
  23538945.379    23538944.5634   23538953.6194  123698062.502 6  96388132.16343
      3227.313        2514.792
 13  4  5 11 46  1.0000000  0 10G02G04G05G07G08G09G10G13G26G28
  23226554.107    23226553.5254   23226560.4194  122056344.655 6  95108827.70343
     -2604.373       -2029.372
  25434669.290    25434669.1504   25434683.2974  133659936.072 5 104150585.32741
     -3308.030       -2577.684
  21219093.406    21219093.5514   21219099.0204  111507136.161 8  86888704.04747
      1619.162        1261.686
  20997428.821    20997428.6164   20997434.3094  110342283.696 8  85981020.24147
     -1575.610       -1227.745
  20551454.164    20551453.6024   20551460.1104  107998699.080 9  84154856.28647
       491.237         382.782
  23479080.740    23479080.9134   23479090.5744  123383453.233 6  96142962.72543
      3784.698        2949.103
  21100529.580    21100528.8144   21100536.2244  110884045.509 8  86403164.47646
     -2137.323       -1665.446
  23741859.874    23741859.2894   23741868.5234  124764254.195 6  97218897.14642
     -2872.519       -2238.330
  22261633.497    22261633.6524   22261641.1204  116985717.472 7  91157706.50744
      3051.350        2377.681
  23529736.741    23529736.1314   23529745.4564  123649673.702 6  96350426.70843
      3224.511        2512.593
 13  4  5 11 46 16.0000000  0 10G02G04G05G07G08G09G10G13G26G28
  23233994.193    23233993.4604   23234000.9614  122095443.795 6  95139294.49743
     -2608.905       -2032.897
  25444109.026    25444109.6184   25444123.5944  133709541.363 5 104189238.61941
     -3306.089       -2576.172
  21214483.097    21214483.1554   21214488.6444  111482908.235 8  86869825.14847
      1611.195        1255.476
  21001935.593    21001935.3354   21001941.0744  110365966.581 8  85999474.42847
     -1582.119       -1232.817
  20550063.218    20550062.8794   20550069.3144  107991390.534 8  84149161.31147
       483.221         376.535
  23468282.190    23468282.1674   23468292.0594  123326705.207 6  96098743.57443
      3781.669        2946.747
  21106640.776    21106639.8984   21106647.3164  110916159.486 8  86428188.32946
     -2144.565       -1671.092
  23750061.433    23750061.3174   23750071.0114  124807354.078 6  97252481.38942
     -2874.153       -2239.594
  22252928.626    22252928.5564   22252935.9184  116939971.988 7  91122060.70544
      3047.997        2375.055
  23520536.612    23520535.7864   23520545.1204  123601326.997 6  96312754.03343
      3221.674        2510.394
 13  4  5 11 46 31.0000000  0 10G02G04G05G07G08G09G10G13G26G28
  23241447.786    23241446.5374   23241454.2934  122134610.695 6  95169814.08243
     -2613.364       -2036.384
  25453542.853    25453543.5104   25453556.9114  133759117.835 5 104227869.40241
     -3304.142       -2574.637
  21209895.455    21209895.6874   21209901.0404  111458800.315 8  86851039.76047
      1603.181        1249.229
  21006460.706    21006460.6494   21006466.3854  110389747.166 8  86018004.74147
     -1588.621       -1237.888
  20548695.537    20548695.1254   20548701.4874  107984202.614 9  84143560.33547
       475.181         370.273
  23457492.539    23457492.1274   23457501.9094  123270002.907 6  96054560.03043
      3778.644        2944.383
  21112772.683    21112771.7544   21112779.0864  110948382.302 8  86453296.99247
     -2151.800       -1676.727
  23758267.497    23758267.9384   23758276.5944  124850478.596 6  97286084.84042
     -2875.792       -2240.869
  22244233.182    22244232.7654   22244240.7044  116894276.949 7  91086454.20844
      3044.649        2372.448
  23511344.994    23511344.0084   23511353.0504  123553023.031 6  96275114.67043
      3218.846        2508.198
 13  4  5 11 46 46.0000000  0 10G02G04G05G07G08G09G10G13G26G28
  23248914.243    23248912.6554   23248920.2604  122173844.793 6  95200386.03943
     -2617.812       -2039.850
  25462970.679    25462971.6034   25462987.1414  133808664.944 5 104266477.34241
     -3302.139       -2573.062
  21205330.632    21205331.0044   21205336.3224  111434812.503 8  86832347.95947
      1595.190        1243.005
  21011004.528    21011004.5114   21011010.1824  110413625.016 8  86036610.84547
     -1595.084       -1242.922
  20547350.406    20547350.2744   20547356.5794  107977135.032 8  84138053.12747
       467.170         364.030
  23446710.502    23446710.8494   23446720.5224  123213346.187 6  96010412.00243
      3775.618        2942.025
  21118925.066    21118924.1954   21118931.5604  110980713.668 8  86478490.23746
     -2159.021       -1682.351
  23766479.122    23766478.6554   23766488.3744  124893627.542 6  97319707.31742
     -2877.378       -2242.107
  22235546.946    22235547.0944   22235554.9484  116848632.306 7  91050886.99844
      3041.309        2369.851
  23502161.011    23502160.0694   23502169.1034  123504761.992 6  96237508.77243
      3215.966        2505.955
 13  4  5 11 47  1.0000000  0 10G02G04G05G07G08G09G10G13G26G28
  23256392.803    23256391.5624   23256399.3354  122213146.133 6  95231010.38743
     -2622.364       -2043.389
  25472394.543    25472395.3274   25472409.3134  133858183.012 5 104305062.60541
     -3300.265       -2571.627
  21200789.023    21200789.2974   21200794.5144  111410945.382 8  86813750.20247
      1587.110        1236.706
  21015567.204    21015566.9804   21015572.5914  110437600.484 8  86055293.01247
     -1601.603       -1248.000
  20546028.729    20546028.2464   20546034.6654  107970188.307 8  84132640.09247
       459.083         357.725
  23435937.930    23435937.9444   23435947.6884  123156735.874 6  95966300.14643
      3772.455        2939.555
  21125098.133    21125097.3444   21125104.7464  111013153.859 8  86503768.27846
     -2166.319       -1688.038
  23774693.972    23774694.6124   23774704.2584  124936801.372 6  97353349.19742
     -2879.084       -2243.433
  22226870.934    22226870.6794   22226878.7264  116803038.671 7  91015359.52244
      3037.865        2367.162
  23492985.181    23492984.4344   23492993.2934  123456544.785 6  96199937.00843
      3212.992        2503.615
 13  4  5 11 47 16.0000000  0  9G02G05G07G08G09G10G13G26G28
  23263884.346    23263883.1064   23263891.0304  122252513.968 6  95261686.54743
     -2626.756       -2046.809
  21196270.234    21196270.5124   21196275.6194  111387198.702 8  86795246.30247
      1579.057        1230.430
  21020147.768    21020147.8204   21020153.3894  110461672.911 8  86074050.73447
     -1608.086       -1253.057
  20544729.688    20544729.1644   20544735.6174  107963361.941 8  84127320.84347
       451.047         351.467
  23425174.759    23425174.1554   23425183.8034  123100171.853 6  95922224.35843
      3769.380        2937.168
  21131291.689    21131291.1074   21131298.4384  111045702.239 8  86529130.62546
     -2173.516       -1693.646
  23782914.955    23782914.6264   23782924.2654  124979999.509 6  97387010.01742
     -2880.689       -2244.695
  22218204.278    22218204.2044   22218211.9994  116757495.748 7  90979871.56244
      3034.470        2364.519
  23483818.919    23483817.1524   23483826.5974  123408371.160 6  96162399.19143
      3210.075        2501.367
 13  4  5 11 47 31.0000000  0  9G02G05G07G08G09G10G13G26G28
  23271388.236    23271387.0944   23271394.8224  122291948.554 6  95292414.72843
     -2631.206       -2050.290
  21191774.580    21191774.7634   21191779.8884  111363573.257 8  86776836.86147
      1570.954        1224.116
  21024747.242    21024747.1844   21024752.6654  110485842.483 8  86092884.14947
     -1614.579       -1258.115
  20543453.518    20543453.0854   20543459.5644  107956656.288 8  84122095.65647
       442.995         345.191
  23414419.220    23414419.2524   23414428.7824  123043654.822 6  95878185.16743
      3766.198        2934.703
  21137506.409    21137505.4814   21137512.9384  111078359.212 8  86554577.59046
     -2180.759       -1699.291
  23791139.552    23791139.9954   23791149.5114  125023222.381 6  97420690.09342
     -2882.377       -2246.011
  22209547.692    22209547.5734   22209555.0034  116712004.191 7  90944423.62644
      3030.993        2361.813
  23474659.730    23474658.6314   23474667.9164  123360242.129 6  96124896.13643
      3207.087        2499.027
 13  4  5 11 47 46.0000000  0  9G02G05G07G08G09G10G13G26G28
  23278904.796    23278904.0104   23278911.5774  122331449.121 6  95323194.32943
     -2635.557       -2053.681
  21187301.926    21187302.0884   21187307.1984  111340069.280 8  86758522.07747
      1562.880        1217.825
  21029364.957    21029365.0354   21029370.4164  110510108.903 8  86111793.03147
     -1620.989       -1263.107
  20542200.451    20542199.8604   20542206.3834  107950071.107 8  84116964.34447
       434.998         338.960
  23403674.145    23403673.0864   23403682.5294  122987184.800 6  95834182.60643
      3763.088        2932.275
  21143741.488    21143740.5514   21143747.9814  111111124.362 8  86580108.84546
     -2187.939       -1704.884
  23799370.144    23799370.0774   23799379.0354  125066469.774 6  97454389.30542
     -2883.981       -2247.241
  22200900.290    22200900.4954   22200908.0044  116666564.048 7  90909015.74644
      3027.614        2359.179
  23465509.718    23465508.7814   23465517.0654  123312157.852 6  96087427.96043
      3204.120        2496.702
 13  4  5 11 48  1.0000000  0  9G02G05G07G08G09G10G13G26G28
  23286433.977    23286433.4924   23286440.8224  122371015.514 6  95354025.21743
     -2639.968       -2057.100
  21182852.204    21182852.6124   21182857.6934  111316687.102 8  86740302.19647
      1554.737        1211.485
  21034001.068    21034001.1304   21034006.5804  110534472.142 8  86130777.35847
     -1627.451       -1268.143
  20540970.144    20540969.6124   20540976.1764  107943606.656 8  84111927.10747
       426.951         332.685
  23392936.776    23392936.3424   23392946.0264  122930762.222 6  95790217.02943
      3759.912        2929.796
  21149997.183    21149996.1654   21150003.6614  111143997.745 8  86605724.44246
     -2195.156       -1710.514
  23807604.958    23807603.7764   23807613.3304  125109741.693 6  97488107.61442
     -2885.661       -2248.547
  22192263.354    22192263.4604   22192270.9564  116621175.585 7  90873648.14944
      3024.154        2356.484
  23456367.572    23456366.9124   23456375.7194  123264118.863 6  96049995.06843
      3201.091        2494.327
 13  4  5 11 48 16.0000000  0  9G02G05G07G08G09G10G13G26G28
  23293975.880    23293975.0634   23293982.7364  122410647.082 6  95384906.89643
     -2644.190       -2060.412
  21178426.148    21178426.4284   21178431.3504  111293426.611 8  86722177.13447
      1546.708        1205.228
  21038655.530    21038655.6554   21038661.0934  110558931.638 8  86149836.68547
     -1633.756       -1273.048
  20539762.906    20539762.3734   20539768.9164  107937262.501 8  84106983.61247
       419.001         326.498
  23382208.901    23382208.5174   23382217.9464  122874386.936 6  95746288.26743
      3756.799        2927.379
  21156273.456    21156272.3444   21156279.7454  111176978.778 8  86631423.91746
     -2202.247       -1716.037
  23815843.076    23815843.1554   23815852.2104  125153037.907 6  97521844.85942
     -2887.140       -2249.721
  22183636.050    22183635.6584   22183643.0994  116575838.597 7  90838320.64344
      3020.805        2353.873
  23447235.159    23447233.6684   23447242.7564  123216125.127 6  96012597.42143
      3198.117        2492.034
 13  4  5 11 48 31.0000000  0  9G02G05G07G08G09G10G13G26G28
  23301529.340    23301529.0484   23301536.7724  122450343.037 6  95415838.73543
     -2648.570       -2063.805
  21174022.773    21174023.2544   21174028.1204  111270287.603 8  86704146.74047
      1538.542        1198.859
  21043328.258    21043328.2864   21043333.7804  110583486.626 8  86168970.43247
     -1640.177       -1278.072
  20538578.623    20538577.9414   20538584.4624  107931038.320 8  84102133.59447
       410.947         320.217
  23371489.789    23371489.9024   23371499.1924  122818058.745 6  95702396.21943
      3753.631        2924.885
  21162569.822    21162568.8244   21162576.3264  111210066.917 8  86657206.86046
     -2209.453       -1721.655
  23824086.442    23824087.0364   23824096.2884  125196358.003 6  97555600.74042
     -2888.810       -2251.017
  22175018.370    22175017.8944   22175025.5204  116530552.946 7  90803033.14944
      3017.293        2351.142
  23438110.862    23438109.4434   23438118.7164  123168176.699 6  95975235.09043
      3195.002        2489.604
 13  4  5 11 48 46.0000000  0  9G02G05G07G08G09G10G13G26G28
  23309096.193    23309095.7404   23309103.5214  122490103.788 6  95446821.07743
     -2652.892       -2067.187
  21169643.001    21169643.2624   21169648.3054  111247271.157 8  86686211.84347
      1530.332        1192.468
  21048019.256    21048019.1994   21048024.7694  110608137.720 8  86188179.05347
     -1646.627       -1283.085
  20537417.198    20537416.5524   20537423.0044  107924934.712 8  84097377.53847
       402.858         313.915
  23360780.292    23360780.0304   23360789.6504  122761778.640 6  95658541.63144
      3750.393        2922.374
  21168886.874    21168885.7444   21168893.3564  111243262.821 8  86683073.76746
     -2216.667       -1727.271
  23832334.507    23832334.8964   23832343.4924  125239702.536 6  97589375.62542
     -2890.485       -2252.314
  22166410.737    22166410.2154   22166417.8544  116485319.461 7  90767786.30144
      3013.800        2348.416
  23428995.102    23428993.6114   23429002.8064  123120274.657 6  95937908.90243
      3191.874        2487.194
 13  4  5 11 49  1.0000000  0  9G02G05G07G08G09G10G13G26G28
  23316674.473    23316673.9114   23316681.9344  122529928.464 6  95477853.21543
     -2657.140       -2070.483
  21165286.362    21165286.4824   21165291.6174  111224376.771 8  86668372.05547
      1522.213        1186.140
  21052728.269    21052728.3054   21052733.9024  110632884.152 8  86207461.97347
     -1652.969       -1288.025
  20536278.526    20536277.9614   20536284.3214  107918951.149 8  84092715.02047
       394.895         307.709
  23350079.346    23350079.3984   23350088.9984  122705546.263 7  95614724.22944
      3747.201        2919.909
  21175224.177    21175222.9954   21175230.6254  111276565.634 8  86709023.98046
     -2223.769       -1732.804
  23840587.590    23840588.0834   23840596.0604  125283070.936 6  97623169.12242
     -2892.046       -2253.518
  22157813.182    22157812.5534   22157820.4714  116440137.775 7  90732579.82244
      3010.347        2345.731
  23419888.837    23419887.0484   23419896.9474  123072418.961 6  95900618.81143
      3188.834        2484.793
 13  4  5 11 49 16.0000000  0  9G02G05G07G08G09G10G13G26G28
  23324265.699    23324264.9974   23324272.6624  122569817.420 6  95508935.44543
     -2661.459       -2073.852
  21160953.085    21160953.1924   21160958.4324  111201605.546 8  86650628.24647
      1513.918        1179.677
  21057455.503    21057455.5664   21057461.3334  110657726.584 8  86226819.69147
     -1659.410       -1293.047
  20535162.871    20535162.3664   20535168.7484  107913088.449 9  84088146.67947
       386.760         301.371
  23339388.177    23339387.7594   23339397.4494  122649362.772 6  95570944.93244
      3743.877        2917.306
  21181581.739    21181580.8314   21181588.5284  111309976.140 8  86735058.11546
     -2230.997       -1738.439
  23848845.337    23848845.8874   23848855.6364  125326464.041 6  97656981.86842
     -2893.758       -2254.850
  22149225.042    22149224.7814   22149232.3644  116395008.855 7  90697414.44744
      3006.787        2342.956
  23410790.028    23410789.3904   23410798.5814  123024610.572 6  95863365.59343
      3185.584        2482.268
 13  4  5 11 49 31.0000000  0  9G02G05G07G08G09G10G13G26G28
  23331867.468    23331867.9464   23331875.9074  122609770.182 6  95540067.39843
     -2665.610       -2077.104
  21156643.566    21156643.3774   21156648.8034  111178957.920 8  86632980.74347
      1505.747        1173.310
  21062201.539    21062201.1284   21062206.9184  110682664.841 8  86246252.08647
     -1665.711       -1297.957
  20534070.247    20534069.8124   20534076.1794  107907346.614 8  84083672.52247
       378.785         295.160
  23328706.202    23328705.7524   23328715.2334  122593228.339 6  95527203.84643
      3740.681        2914.802
  21187960.176    21187959.1164   21187966.8514  111343494.064 8  86761175.94546
     -2238.078       -1743.958
  23857107.379    23857107.1724   23857116.8814  125369881.816 6  97690813.85042
     -2895.297       -2256.054
  22140647.436    22140647.2414   22140654.4244  116349932.951 7  90662290.37644
      3003.312        2340.241
  23401701.533    23401700.2094   23401710.5324  122976850.010 6  95826149.63743
      3182.429        2479.820
 13  4  5 11 49 46.0000000  0  9G02G05G07G08G09G10G13G26G28
  23339482.935    23339482.5064   23339490.5794  122649786.083 6  95571248.54043
     -2669.822       -2080.370
  21152356.975    21152357.0594   21152362.5584  111156433.540 8  86615429.28047
      1497.537        1166.912
  21066965.021    21066964.8494   21066970.6114  110707698.148 8  86265758.54147
     -1672.017       -1302.877
  20533000.577    20533000.1044   20533006.4764  107901724.972 8  84079292.01547
       370.805         288.939
  23318032.971    23318032.4364   23318042.5634  122537142.751 6  95483500.83643
      3737.423        2912.267
  21194358.627    21194357.7074   21194365.3964  111377118.718 8  86787376.94446
     -2245.182       -1749.490
  23865374.605    23865374.2164   23865383.6204  125413323.608 6  97724664.51642
     -2896.877       -2257.295
  22132079.978    22132079.3504   22132086.9964  116304909.631 7  90627207.29544
      2999.843        2337.539
  23392621.409    23392620.8764   23392630.7594  122929137.066 6  95788970.77943
      3179.287        2477.369
 13  4  5 11 50  1.0000000  0  9G02G05G07G08G09G10G13G26G28
  23347109.078    23347109.4174   23347117.0314  122689863.998 6  95602478.01243
     -2673.906       -2083.579
  21148094.171    21148094.0864   21148099.7004  111134032.027 8  86597973.54847
      1489.322        1160.511
  21071746.926    21071746.5574   21071752.2174  110732825.691 8  86285338.42346
     -1678.322       -1307.783
  20531953.600    20531953.0884   20531959.5204  107896222.765 8  84075004.57947
       362.800         282.704
  23307369.872    23307369.0884   23307378.9804  122481105.551 6  95439835.50343
      3734.195        2909.765
  21200777.273    21200776.4534   21200784.0644  111410849.323 8  86813660.49846
     -2252.253       -1755.002
  23873645.491    23873645.4284   23873655.2804  125456788.701 6  97758533.37642
     -2898.430       -2258.524
  22123522.201    22123521.7494   22123529.4574  116259938.405 7  90592164.80044
      2996.326        2334.800
  23383551.635    23383550.3554   23383560.4584  122881471.543 6  95751828.87543
      3176.104        2474.886
 13  4  5 11 50 16.0000000  0  9G02G05G07G08G09G10G13G26G28
  23354747.209    23354747.2804   23354755.4484  122730003.914 6  95633755.80943
     -2678.135       -2086.873
  21143854.655    21143854.6174   21143860.4294  111111753.902 8  86580613.98247
      1481.034        1154.053
  21076546.382    21076546.1944   21076551.7944  110758047.496 8  86304991.75947
     -1684.624       -1312.692
  20530929.402    20530928.8514   20530935.2524  107890840.476 8  84070810.58547
       354.779         276.453
  23296715.782    23296714.8704   23296724.3764  122425117.340 6  95396208.36043
      3730.846        2907.148
  21207216.425    21207215.4504   21207223.0664  111444686.082 8  86840026.77446
     -2259.380       -1760.551
  23881920.401    23881920.8044   23881931.3334  125500277.494 6  97792420.65742
     -2900.067       -2259.796
  22114974.420    22114974.2014   22114981.6884  116215019.863 7  90557163.36645
      2992.750        2332.011
  23374490.305    23374489.0724   23374499.3634  122833854.057 6  95714724.39343
      3172.835        2472.332
 13  4  5 11 50 31.0000000  0  9G02G05G07G08G09G10G13G26G28
  23362397.694    23362397.1494   23362405.9344  122770205.145 6  95665081.33943
     -2682.031       -2089.887
  21139638.843    21139638.6954   21139644.4804  111089599.123 8  86563350.52047
      1472.950        1147.751
  21081363.581    21081363.6564   21081369.1794  110783362.902 8  86324718.03747
     -1690.740       -1317.458
  20529927.763    20529927.3684   20529933.7524  107885577.671 8  84066709.69847
       346.941         270.346
  23286070.339    23286070.4284   23286079.2744  122369177.837 6  95352619.16243
      3727.763        2904.761
  21213675.497    21213674.5464   21213682.1194  111478628.389 8  86866475.29846
     -2266.248       -1765.905
  23890200.664    23890201.5534   23890210.9304  125543789.473 6  97826325.99542
     -2901.516       -2260.906
  22106436.572    22106436.4434   22106443.8324  116170153.685 7  90522202.73445
      2989.405        2329.406
  23365438.323    23365436.6634   23365447.3394  122786284.675 6  95677657.40143
      3169.788        2469.963
 13  4  5 11 50 46.0000000  0  9G02G05G07G08G09G10G13G26G28
  23370059.257    23370058.6944   23370067.4664  122810466.936 6  95696454.08743
     -2686.154       -2093.110
  21135446.507    21135446.2664   21135452.0814  111067567.611 8  86546183.10747
      1464.604        1141.249
  21086198.485    21086198.7484   21086204.3834  110808771.562 8  86344516.97246
     -1697.069       -1322.386
  20528949.127    20528948.5974   20528954.9944  107880434.099 8  84062701.71447
       338.879         264.062
  23275434.307    23275434.1984   23275443.7624  122313287.129 6  95309067.98543
      3724.376        2902.111
  21220154.290    21220153.5244   21220161.0164  111512675.941 8  86893005.82546
     -2273.386       -1771.469
  23898486.434    23898485.8394   23898496.1614  125587324.404 6  97860249.26942
     -2903.168       -2262.187
  22097908.868    22097908.6674   22097915.6594  116125339.858 7  90487282.88744
      2985.787        2326.585
  23356395.024    23356394.0344   23356403.9704  122738763.523 6  95640627.98443
      3166.425        2467.330
 13  4  5 11 51  1.0000000  0  9G02G05G07G08G09G10G13G26G28
  23377732.739    23377731.9494   23377740.6754  122850790.659 6  95727875.08443
     -2690.279       -2096.335
  21131277.812    21131277.6754   21131283.3624  111045661.092 8  86529113.09347
      1456.261        1134.748
  21091051.628    21091051.8634   21091057.4704  110834274.772 8  86364389.58547
     -1703.372       -1327.297
  20527993.394    20527992.7984   20527999.1134  107875411.207 8  84058787.77447
       330.833         257.796
  23264809.359    23264808.3034   23264817.3224  122257446.985 6  95265556.20243
      3720.990        2899.475
  21226653.678    21226652.8804   21226660.4064  111546829.973 8  86919619.32346
     -2280.486       -1776.997
  23906774.574    23906775.7024   23906785.0124  125630883.806 6  97894191.58242
     -2904.790       -2263.466
  22089391.378    22089391.0874   22089397.8964  116080580.059 7  90452405.13644
      2982.197        2323.791
  23347361.560    23347360.3964   23347371.1974  122691292.418 6  95603637.56143
      3163.044        2464.712
 13  4  5 11 51 16.0000000  0  9G02G05G07G08G09G10G13G26G28
  23385417.863    23385417.0384   23385425.7464  122891174.735 6  95759343.09843
     -2694.275       -2099.428
  21127132.795    21127132.7354   21127138.3074  111023878.814 8  86512139.89047
      1447.990        1128.297
  21095922.944    21095922.8514   21095928.3594  110859871.156 8  86384334.80047
     -1709.572       -1332.132
  20527060.038    20527059.6384   20527065.9544  107870507.751 8  84054966.89647
       322.888         251.606
  23254192.425    23254192.2074   23254201.1134  122201656.529 6  95222083.12743
      3717.677        2896.897
  21233173.157    21233172.1304   21233179.6534  111581089.198 8  86946314.79346
     -2287.467       -1782.439
  23915068.218    23915068.0644   23915078.2184  125674466.512 6  97928152.04742
     -2906.354       -2264.683
  22080883.806    22080883.6634   22080890.4494  116035873.336 7  90417568.74644
      2978.641        2321.021
  23338337.848    23338336.3444   23338346.8554  122643870.643 6  95566685.57843
      3159.804        2462.170
 13  4  5 11 51 31.0000000  0  9G02G05G07G08G09G10G13G26G28
  23393114.908    23393113.9924   23393122.0484  122931619.658 6  95790858.54843
     -2698.387       -2102.619
  21123011.678    21123011.5774   21123017.0584  111002221.868 8  86495264.34747
      1439.600        1121.770
  21100811.457    21100811.6214   21100817.1274  110885561.574 8  86404353.28947
     -1715.832       -1337.012
  20526149.828    20526149.5504   20526155.8454  107865724.673 8  84051239.82347
       314.848         245.338
  23243586.061    23243585.4064   23243594.5454  122145916.859 6  95178649.63943
      3714.280        2894.238
  21239712.672    21239711.6884   21239719.1504  111615454.483 8  86973092.90846
     -2294.556       -1787.964
  23923366.213    23923366.7864   23923376.9354  125718073.311 6  97962131.28642
     -2907.927       -2265.924
  22072386.973    22072386.7494   22072393.2364  115991220.809 7  90382774.59044
      2975.004        2318.186
  23329323.421    23329322.2214   23329332.2704  122596499.627 6  95529773.13843
      3156.360        2459.503
 13  4  5 11 51 46.0000000  0  9G02G05G07G08G09G10G13G26G28
  23400822.031    23400821.8874   23400829.6224  122972124.844 6  95822420.94643
     -2702.346       -2105.724
  21118914.014    21118914.1954   21118919.7354  110980690.184 8  86478486.41447
      1431.249        1115.264
  21105717.734    21105718.2484   21105723.5764  110911345.347 8  86424444.52647
     -1722.037       -1341.846
  20525262.682    20525262.1074   20525268.5134  107861061.536 9  84047606.20747
       306.862         239.113
  23232988.743    23232987.6484   23232997.2714  122090227.908 6  95135255.66043
      3710.882        2891.600
  21246272.132    21246271.2624   21246278.8194  111649925.223 8  86999953.19246
     -2301.575       -1793.434
  23931668.754    23931669.3874   23931678.5934  125761703.782 6  97996128.97442
     -2909.482       -2267.120
  22063899.763    22063899.7314   22063906.1914  115946622.307 7  90348022.53144
      2971.410        2315.390
  23320318.749    23320317.3444   23320327.1844  122549179.382 6  95492900.25843
      3152.962        2456.848
 13  4  5 11 52  1.0000000  0  9G02G05G07G08G09G10G13G26G28
  23408541.930    23408541.5704   23408549.2384  123012689.859 6  95854029.97543
     -2706.285       -2108.784
  21114840.553    21114840.7584   21114846.2414  110959283.805 8  86461806.12447
      1422.925        1108.773
  21110642.324    21110642.3544   21110647.8014  110937222.184 8  86444608.27046
     -1728.240       -1346.677
  20524398.101    20524397.5434   20524404.0304  107856518.250 8  84044065.98447
       298.902         232.911
  23222400.839    23222400.1054   23222409.2534  122034589.732 6  95091901.27443
      3707.559        2888.996
  21252851.754    21252850.7744   21252858.4094  111684501.007 8  87026895.33546
     -2308.548       -1798.865
  23939976.055    23939976.5254   23939986.8094  125805357.868 6  98030145.07242
     -2911.096       -2268.360
  22055423.610    22055423.3664   22055429.8214  115902077.898 7  90313312.61944
      2967.856        2312.615
  23311323.267    23311322.5944   23311331.8994  122501910.069 6  95456067.08243
      3149.587        2454.217
 13  4  5 11 52 16.0000000  0  9G02G05G07G08G09G10G13G26G28
  23416273.078    23416272.1724   23416280.0004  123053314.570 6  95885685.49343
     -2710.244       -2111.884
  21110791.210    21110791.3184   21110796.7034  110938003.366 8  86445223.95947
      1414.527        1102.232
  21115584.482    21115584.2424   21115589.6614  110963192.273 8  86464844.68647
     -1734.404       -1351.482
  20523556.262    20523555.8044   20523562.2974  107852095.044 8  84040619.32647
       290.914         226.683
  23211822.862    23211822.5824   23211832.2684  121979003.038 6  95048586.98343
      3704.116        2886.312
  21259451.626    21259450.3034   21259458.0394  111719182.096 7  87053919.52846
     -2315.543       -1804.319
  23948288.509    23948287.9464   23948298.0524  125849035.799 6  98064179.72542
     -2912.664       -2269.578
  22046957.217    22046957.0404   22046964.1924  115857588.074 7  90278645.25044
      2964.214        2309.778
  23302338.578    23302337.3444   23302347.0494  122454692.479 6  95419274.19043
      3146.163        2451.552
 13  4  5 11 52 31.0000000  0  9G02G05G07G08G09G10G13G26G28
  23424015.057    23424014.0794   23424021.5084  123093998.491 6  95917387.18943
     -2714.246       -2114.984
  21106765.573    21106765.9214   21106771.2124  110916849.058 8  86428740.08947
      1406.090        1095.655
  21120543.925    21120543.8374   21120549.2714  110989255.241 8  86485153.47446
     -1740.599       -1356.315
  20522737.266    20522736.9404   20522743.4454  107847791.896 8  84037266.22147
       282.898         220.443
  23201254.841    23201254.6814   23201263.8354  121923467.967 7  95005312.91644
      3700.597        2883.580
  21266071.126    21266070.0124   21266077.6924  111753968.384 8  87081025.69846
     -2322.574       -1809.796
  23956603.648    23956604.6544   23956614.6794  125892737.507 6  98098232.94342
     -2914.226       -2270.825
  22038501.462    22038500.9504   22038508.4404  115813152.874 7  90244020.44144
      2960.542        2306.907
  23293363.510    23293361.9034   23293371.3764  122407526.912 6  95382521.84943
      3142.619        2448.785
 13  4  5 11 52 46.0000000  0  9G02G05G07G08G09G10G13G26G28
  23431767.290    23431766.7974   23431774.5384  123134739.734 6  95949133.51743
     -2717.951       -2117.878
  21102763.986    21102764.1354   21102769.4154  110895819.506 8  86412353.42147
      1397.852        1089.237
  21125520.674    21125520.7484   21125526.1284  111015409.314 8  86505533.25446
     -1746.580       -1360.973
  20521941.140    20521940.5844   20521947.1964  107843607.161 9  84034005.38647
       275.093         214.355
  23190696.566    23190695.9724   23190705.6694  121867983.109 6  94962077.97844
      3697.338        2881.041
  21272710.216    21272709.2454   21272716.9684  111788858.007 8  87108212.38746
     -2329.367       -1815.093
  23964924.459    23964924.0814   23964934.1354  125936461.329 6  98132303.35942
     -2915.609       -2271.879
  22030055.532    22030055.1684   22030062.7384  115768770.900 7  90209437.11744
      2957.047        2304.191
  23284397.520    23284396.7014   23284406.5454  122360412.098 6  95345809.03543
      3139.350        2446.255
 13  4  5 11 53  1.0000000  0  9G02G05G07G08G09G10G13G26G28
  23439531.175    23439530.3314   23439537.8474  123175538.546 6  95980924.73943
     -2721.892       -2120.942
  21098786.037    21098786.2894   21098791.4954  110874915.685 8  86396064.73247
      1389.345        1082.606
  21130515.302    21130515.0854   21130520.4564  111041654.950 8  86525984.38347
     -1752.809       -1365.831
  20521167.523    20521166.9934   20521173.5394  107839541.519 8  84030837.35147
       267.025         208.070
  23180148.018    23180147.4614   23180156.9824  121812549.362 6  94918882.87144
      3693.829        2878.308
  21279369.593    21279368.3244   21279376.0634  111823851.446 7  87135479.97346
     -2336.403       -1820.576
  23973249.726    23973249.0504   23973259.7164  125980207.872 6  98166391.49042
     -2917.233       -2273.177
  22021620.077    22021619.9494   22021627.7974  115724443.087 7  90174895.99644
      2953.329        2301.291
  23275441.881    23275440.7484   23275450.0834  122313349.068 6  95309136.60443
      3135.743        2443.432
 13  4  5 11 53 16.0000000  0  9G02G05G07G08G09G10G13G26G28
  23447306.247    23447305.2884   23447312.3794  123216394.929 6  96012760.79143
     -2725.598       -2123.835
  21094832.211    21094832.3804   21094837.6354  110854137.975 8  86379874.30747
      1381.042        1076.140
  21135527.042    21135526.9064   21135532.2684  111067992.403 8  86546507.05746
     -1758.789       -1370.485
  20520416.639    20520416.0814   20520422.5784  107835595.046 8  84027762.17447
       259.200         201.975
  23169609.075    23169608.8814   23169617.8514  121757167.178 7  94875727.93744
      3690.485        2875.699
  21286048.131    21286047.1334   21286054.8154  111858948.641 8  87162828.40546
     -2343.180       -1825.850
  23981578.813    23981578.5284   23981588.0564  126023977.302 6  98200497.45542
     -2918.680       -2274.287
  22013195.140    22013195.1734   22013203.0794  115680169.765 7  90140397.33145
      2949.782        2298.538
  23266495.834    23266495.0134   23266504.0204  122266338.535 6  95272505.06443
      3132.377        2440.802
 13  4  5 11 53 31.0000000  0  9G02G05G07G08G09G10G13G26G28
  23455091.614    23455091.1214   23455098.3124  123257308.307 6  96044641.25543
     -2729.465       -2126.849
  21090902.611    21090902.5164   21090907.8184  110833486.614 8  86363782.33947
      1372.544        1069.513
  21140556.237    21140556.0084   21140561.5564  111094421.164 8  86567100.88446
     -1764.980       -1375.303
  20519688.157    20519687.8304   20519694.2424  107831767.651 8  84024779.78347
       251.185         195.728
  23159079.785    23159079.8914   23159088.9604  121701836.847 7  94832613.42244
      3686.949        2872.943
  21292746.377    21292745.5114   21292753.4014  111894149.487 8  87190257.60646
     -2350.198       -1831.317
  23989912.599    23989911.9704   23989922.4324  126067769.924 6  98234621.49542
     -2920.269       -2275.543
  22004780.571    22004780.7704   22004788.5704  115635951.083 7  90105941.25145
      2946.070        2295.639
  23257560.213    23257559.3474   23257568.6744  122219380.800 6  95235914.66743
      3128.725        2437.972
 13  4  5 11 53 46.0000000  0  9G02G05G07G08G09G10G13G26G28
  23462888.163    23462887.5714   23462894.5914  123298278.149 6  96076565.72443
     -2733.281       -2129.802
  21086996.676    21086996.7514   21087002.0924  110812961.597 8  86347788.81647
      1364.076        1062.917
  21145602.793    21145602.4574   21145608.0924  111120940.760 8  86587765.48646
     -1771.034       -1380.022
  20518982.589    20518982.2174   20518988.4904  107828059.099 9  84021889.99847
       243.227         189.532
  23148560.814    23148560.6784   23148569.5464  121646558.324 7  94789539.26944
      3683.439        2870.216
  21299464.906    21299463.7264   21299471.6504  111929453.672 8  87217767.33346
     -2357.094       -1836.699
  23998250.565    23998249.8714   23998259.5304  126111584.961 5  98268763.00042
     -2921.787       -2276.699
  21996376.940    21996376.6094   21996384.2564  115591786.975 7  90071527.68845
      2942.408        2292.779
  23248633.844    23248633.6234   23248642.8364  122172475.957 7  95199365.48943
      3125.171        2435.197
 13  4  5 11 54  1.0000000  0  9G02G05G07G08G09G10G13G26G28
  23470695.343    23470695.2664   23470701.1914  123339304.522 6  96108534.24743
     -2736.947       -2132.661
  21083115.017    21083115.1644   21083120.5464  110792563.619 8  86331894.29047
      1355.638        1056.341
  21150666.977    21150666.4204   21150672.0924  111147551.603 8  86608501.19046
     -1777.088       -1384.743
  20518299.380    20518299.2454   20518305.5054  107824469.993 8  84019093.29147
       235.292         183.346
  23138051.621    23138051.1724   23138060.6014  121591332.408 7  94746506.11044
      3679.991        2867.522
  21306202.821    21306201.5614   21306209.5804  111964861.433 8  87245357.76446
     -2363.969       -1842.052
  24006592.402    24006591.6554   24006602.3924  126155423.054 6  98302922.51042
     -2923.315       -2277.911
  21987983.015    21987982.8454   21987990.3994  115547678.211 7  90037157.24545
      2938.764        2289.938
  23239719.048    23239718.3704   23239727.2074  122125625.048 7  95162858.33543
      3121.572        2432.394
 13  4  5 11 54 16.0000000  0  9G02G05G07G08G09G10G13G26G28
  23478512.935    23478512.5714   23478518.8144  123380386.629 6  96140546.21743
     -2740.665       -2135.575
  21079257.395    21079257.7284   21079263.0714  110772292.450 8  86316098.57747
      1347.165        1049.740
  21155747.333    21155747.3834   21155753.2834  111174252.728 8  86629307.24946
     -1783.111       -1389.434
  20517639.195    20517638.7584   20517645.1104  107820999.638 8  84016389.11347
       227.387         177.187
  23127552.244    23127551.8384   23127561.2164  121536158.769 6  94703513.69644
      3676.492        2864.804
  21312960.025    21312959.0274   21312967.0884  112000372.006 7  87273028.30646
     -2370.819       -1847.383
  24014939.185    24014938.4534   24014948.3624  126199283.585 5  98337099.42942
     -2924.809       -2279.061
  21979599.922    21979599.9564   21979607.3934  115503624.364 7  90002829.60145
      2935.095        2287.081
  23230813.925    23230812.8934   23230822.0174  122078827.480 6  95126392.75943
      3118.016        2429.617
 13  4  5 11 54 31.0000000  0  9G02G05G07G08G09G10G13G26G28
  23486341.520    23486341.0964   23486347.4324  123421524.696 6  96172601.76843
     -2744.310       -2138.399
  21075424.437    21075424.5094   21075429.9074  110752148.894 8  86300402.30047
      1338.726        1043.161
  21160846.022    21160845.8144   21160851.6474  111201044.659 8  86650184.06046
     -1789.056       -1394.071
  20517001.395    20517000.9684   20517007.3194  107817648.415 8  84013777.76747
       219.528         171.058
  23117063.018    23117062.5504   23117071.9914  121481038.075 6  94660562.54444
      3673.009        2862.080
  21319737.398    21319736.1414   21319744.2014  112035985.777 8  87300779.26246
     -2377.612       -1852.682
  24023289.478    24023289.1804   24023298.9044  126243166.926 6  98371294.15742
     -2926.209       -2280.165
  21971227.411    21971227.3214   21971234.6474  115459626.069 7  89968545.22745
      2931.436        2284.233
  23221918.387    23221918.2624   23221926.9764  122032084.498 6  95089969.72543
      3114.460        2426.833
 13  4  5 11 54 46.0000000  0  9G02G05G07G08G09G10G13G26G28
  23494180.104    23494180.2994   23494186.3444  123462717.597 6  96204700.05443
     -2748.093       -2141.362
  21071615.440    21071615.3934   21071620.9024  110732132.351 8  86284804.99647
      1330.156        1036.487
  21165961.648    21165961.1974   21165967.2534  111227926.447 8  86671130.89346
     -1795.154       -1398.821
  20516386.234    20516385.6904   20516392.1794  107814415.624 8  84011258.70347
       211.535         164.832
  23106584.265    23106583.9344   23106592.9204  121425969.906 6  94617652.33044
      3669.392        2859.275
  21326533.933    21326532.6724   21326540.7554  112071701.876 8  87328609.95746
     -2384.520       -1858.073
  24031644.154    24031644.7314   24031655.0804  126287072.467 6  98405506.18442
     -2927.850       -2281.435
  21962865.221    21962864.9494   21962872.6404  115415682.756 7  89934303.71845
      2927.651        2281.282
  23213033.921    23213033.5884   23213042.2554  121985395.812 6  95053588.99243
      3110.720        2423.940
 13  4  5 11 55  1.0000000  0  9G02G05G07G08G09G10G13G26G28
  23502029.615    23502028.7574   23502036.0094  123503965.518 6  96236841.21343
     -2751.631       -2144.129
  21067830.529    21067830.6514   21067836.1144  110712243.697 8  86269307.34447
      1321.674        1029.879
  21171094.029    21171093.8174   21171099.8944  111254898.486 8  86692148.04846
     -1801.115       -1403.466
  20515793.610    20515793.1034   20515799.6764  107811301.826 8  84008832.36347
       203.652         158.689
  23096115.261    23096114.8814   23096123.7664  121370955.136 6  94574783.72944
      3665.911        2856.551
  21333350.041    21333348.8274   21333356.8674  112107520.771 8  87356520.75146
     -2391.325       -1863.367
  24040004.208    24040004.3414   24040014.0804  126331000.853 6  98439736.02142
     -2929.294       -2282.553
  21954513.688    21954513.4884   21954521.0994  115371795.376 7  89900105.77645
      2923.993        2278.439
  23204160.039    23204159.4494   23204167.8304  121938762.399 6  95017251.34943
      3107.074        2421.082
 13  4  5 11 55 16.0000000  0  9G02G05G07G08G09G10G13G26G28
  23509888.989    23509889.1604   23509895.7374  123545267.934 6  96269024.82543
     -2755.294       -2146.969
  21064070.316    21064070.2564   21064075.6764  110692482.806 8  86253909.24647
      1313.159        1023.245
  21176243.575    21176243.5214   21176249.6024  111281960.255 8  86713235.12346
     -1807.094       -1408.121
  20515223.758    20515223.0714   20515229.6804  107808306.643 8  84006498.44547
       195.741         152.529
  23085656.037    23085656.0374   23085664.7484  121315993.697 7  94531956.67144
      3662.350        2853.786
  21340185.539    21340184.5314   21340192.5664  112143441.903 7  87384511.20646
     -2398.122       -1868.660
  24048367.681    24048367.2634   24048377.4034  126374951.612 6  98473983.28042
     -2930.796       -2283.731
  21946172.944    21946172.8104   21946180.2514  115327963.680 7  89865951.23445
      2920.285        2275.547
  23195296.289    23195295.9534   23195304.3704  121892184.261 6  94980956.76543
      3103.378        2418.206
 13  4  5 11 55 31.0000000  0  9G02G05G07G08G09G10G13G26G28
  23517758.724    23517758.2784   23517765.9714  123586623.828 6  96301250.10743
     -2758.892       -2149.783
  21060334.117    21060334.1684   21060339.5254  110672849.363 8  86238610.46347
      1304.583        1016.558
  21181410.045    21181410.2114   21181416.2254  111309110.965 8  86734391.50446
     -1813.049       -1412.767
  20514676.126    20514675.5074   20514682.1704  107805429.506 8  84004256.52347
       187.832         146.365
  23075207.496    23075207.0954   23075215.8254  121261085.194 7  94489170.87544
      3658.714        2850.956
  21347040.499    21347039.4104   21347047.4264  112179464.439 8  87412580.68046
     -2404.915       -1873.961
  24056735.014    24056735.8464   24056745.2374  126418924.260 6  98508247.60142
     -2932.279       -2284.878
  21937842.463    21937842.1874   21937850.0134  115284187.308 7  89831839.80645
      2916.513        2272.605
  23186442.888    23186442.4014   23186451.0094  121845661.188 6  94944705.09743
      3099.642        2415.305
 13  4  5 11 55 46.0000000  0  9G02G05G07G08G09G10G13G26G28
  23525638.817    23525638.3194   23525646.2044  123628033.337 6  96333517.16843
     -2762.427       -2152.531
  21056622.501    21056622.4814   21056627.7464  110653344.179 8  86223411.61347
      1296.057        1009.914
  21186593.991    21186593.9704   21186599.7704  111336350.939 8  86755617.43847
     -1818.997       -1417.402
  20514151.107    20514150.5364   20514157.1404  107802670.709 8  84002106.80747
       179.960         140.227
  23064768.705    23064768.4104   23064777.4364  121206230.347 6  94446426.88744
      3655.181        2848.194
  21353914.571    21353913.5504   21353921.7044  112215588.810 8  87440729.51046
     -2411.708       -1879.245
  24065107.098    24065107.4214   24065117.6974  126462919.173 6  98542529.26242
     -2933.755       -2286.045
  21929522.345    21929522.5224   21929530.2144  115240466.909 7  89797771.99545
      2912.818        2269.733
  23177600.435    23177600.0604   23177608.3784  121799193.905 6  94908496.91043
      3095.906        2412.389
 13  4  5 11 56  1.0000000  0  9G02G05G07G08G09G10G13G26G28
  23533528.520    23533528.3424   23533536.2414  123669496.070 6  96365825.71243
     -2765.972       -2155.295
  21052935.127    21052935.2914   21052940.4924  110633967.502 8  86208312.90147
      1287.515        1003.256
  21191794.171    21191794.5844   21191800.3294  111363679.930 8  86776912.74346
     -1824.897       -1421.996
  20513648.805    20513648.1104   20513654.7544  107800030.382 8  84000049.40347
       172.111         134.108
  23054340.668    23054340.4264   23054348.9424  121151429.465 7  94403724.96344
      3651.597        2845.396
  21360808.289    21360807.1984   21360815.2824  112251814.791 7  87468957.51146
     -2418.423       -1884.484
  24073483.363    24073483.6764   24073494.1994  126506936.291 6  98576828.24242
     -2935.210       -2287.181
  21921213.635    21921213.4264   21921221.4114  115196802.706 7  89763747.96245
      2909.084        2266.820
  23168769.070    23168768.4484   23168776.6244  121752783.055 6  94872332.68943
      3092.163        2409.462
 13  4  5 11 56 16.0000000  0  9G02G05G07G08G09G10G13G26G28
  23541428.436    23541428.0404   23541436.5274  123711010.791 6  96398174.75743
     -2769.353       -2157.924
  21049272.270    21049272.4584   21049277.5994  110614718.630 8  86193313.77547
      1279.006         996.626
  21197011.633    21197011.9594   21197017.5984  111391096.832 8  86798276.54246
     -1830.698       -1426.519
  20513168.771    20513168.1154   20513174.6494  107797507.613 8  83998083.60347
       164.290         128.019
  23043922.595    23043922.1764   23043930.7984  121096681.863 7  94361064.54444
      3648.093        2842.672
  21367720.918    21367720.0594   21367728.0514  112288141.341 8  87497263.88346
     -2425.094       -1889.686
  24081863.857    24081863.5354   24081874.6024  126550974.690 5  98611143.80142
     -2936.561       -2288.224
  21912914.750    21912914.8974   21912922.6294  115153194.019 7  89729767.19545
      2905.385        2263.941
  23159947.786    23159947.8024   23159955.4934  121706428.024 6  94836211.97243
      3088.508        2406.627
 13  4  5 11 56 31.0000000  0  9G02G05G07G08G09G10G13G26G28
  23549338.919    23549337.8474   23549346.8644  123752577.179 6  96430564.05243
     -2772.844       -2160.656
  21045633.716    21045634.0664   21045639.0944  110595597.886 8  86178414.49547
      1270.392         989.914
  21202245.553    21202245.9354   21202251.6534  111418601.629 8  86819708.83446
     -1836.645       -1431.150
  20512711.002    20512710.4504   20512716.8794  107795102.224 8  83996209.27247
       156.391         121.864
  23033514.382    23033514.0934   23033522.7954  121041987.824 7  94318445.87444
      3644.414        2839.807
  21374653.128    21374652.0144   21374659.8694  112324568.369 8  87525648.54546
     -2431.873       -1894.964
  24090248.484    24090248.2134   24090259.3564  126595034.509 6  98645476.01442
     -2938.087       -2289.408
  21904626.975    21904626.9614   21904634.9024  115109640.973 7  89695829.78545
      2901.615        2261.000
  23151137.773    23151137.0534   23151144.9304  121660129.212 6  94800135.05943
      3084.653        2403.620
 13  4  5 11 56 46.0000000  0  9G02G05G07G08G09G10G13G26G28
  23557258.114    23557257.5684   23557266.5934  123794195.391 6  96462993.73643
     -2776.240       -2163.293
  21042019.575    21042020.0174   21042025.0874  110576606.098 8  86163615.69847
      1261.849         983.258
  21207496.201    21207496.6354   21207502.4364  111446194.565 8  86841209.80246
     -1842.438       -1435.657
  20512275.588    20512275.1654   20512281.5724  107792814.781 9  83994426.84647
       148.585         115.784
  23023116.944    23023116.2864   23023124.9434  120987348.123 7  94275869.55444
      3640.868        2837.031
  21381603.977    21381603.0344   21381610.8874  112361096.120 8  87554111.69746
     -2438.509       -1900.132
  24098636.169    24098636.8304   24098647.0044  126639116.118 6  98679825.24542
     -2939.491       -2290.513
  21896349.505    21896349.6874   21896357.7434  115066144.381 7  89661936.35345
      2897.910        2258.115
  23142338.249    23142337.6124   23142344.6694  121613887.578 7  94764102.69543
      3080.875        2400.669
 13  4  5 11 57  1.0000000  0  9G02G05G07G08G09G10G13G26G28
  23565188.225    23565186.7614   23565195.6924  123835865.183 6  96495463.61443
     -2779.602       -2165.930
  21038430.309    21038430.5044   21038435.6984  110557743.341 8  86148917.44047
      1253.237         976.554
  21212764.396    21212764.0104   21212769.9984  111473875.340 8  86862779.22246
     -1848.297       -1440.235
  20511862.828    20511862.3504   20511868.7054  107790645.326 8  83992736.35947
       140.719         109.651
  23012729.831    23012729.1504   23012737.9294  120932763.141 7  94233335.85844
      3637.222        2834.207
  21388574.246    21388573.2334   21388581.0584  112397724.549 7  87582653.28946
     -2445.236       -1905.366
  24107029.461    24107028.8904   24107039.6254  126683219.538 6  98714191.45942
     -2940.916       -2291.595
  21888083.568    21888083.7534   21888091.4174  115022704.487 7  89628087.10945
      2894.141        2255.175
  23133548.923    23133548.7664   23133556.8294  121567703.521 7  94728115.21143
      3077.042        2397.692
 13  4  5 11 57 16.0000000  0  9G02G05G07G08G09G10G13G26G28
  23573127.253    23573126.1884   23573135.4864  123877585.357 6  96527972.74643
     -2783.021       -2168.581
  21034865.251    21034865.4234   21034870.7514  110539009.009 8  86134319.25647
      1244.665         969.868
  21218048.059    21218048.0174   21218053.9394  111501643.031 8  86884416.36646
     -1854.067       -1444.728
  20511472.251    20511471.8124   20511478.1304  107788592.995 8  83991137.13347
       132.918         103.574
  23002352.502    23002352.2194   23002360.9604  120878232.175 6  94190844.27244
      3633.590        2831.357
  21395563.399    21395562.4804   21395570.3204  112434452.615 8  87611272.52746
     -2451.853       -1910.531
  24115426.350    24115426.9344   24115435.7824  126727343.948 5  98748574.02342
     -2942.343       -2292.728
  21879827.987    21879827.8094   21879835.7644  114979320.596 7  89594281.49945
      2890.381        2252.248
  23124771.981    23124771.7324   23124778.7494  121521576.585 6  94692172.22443
      3073.191        2394.685
 13  4  5 11 57 31.0000000  0  9G02G05G07G08G09G10G13G26G28
  23581076.142    23581075.1774   23581083.8104  123919356.459 6  96560521.54043
     -2786.418       -2171.219
  21031324.813    21031324.9854   21031330.3984  110520404.382 8  86119822.13847
      1235.976         963.100
  21223348.608    21223348.7224   21223354.6944  111529498.258 8  86906121.71546
     -1859.927       -1449.291
  20511104.138    20511103.7164   20511110.0284  107786658.619 8  83989629.82747
       125.031          97.423
  22991986.009    22991985.6884   22991994.6624  120823756.434 7  94148395.72144
      3629.891        2828.477
  21402571.807    21402570.6854   21402578.5124  112471280.945 8  87639969.89446
     -2458.556       -1915.760
  24123826.463    24123827.0954   24123836.1754  126771490.147 6  98782973.59442
     -2943.771       -2293.832
  21871582.811    21871582.9914   21871590.8584  114935993.746 7  89560520.33545
      2886.552        2249.262
  23116004.726    23116004.8974   23116012.2944  121475507.992 7  94656274.70543
      3069.297        2391.654
 13  4  5 11 57 46.0000000  0  9G02G05G07G08G09G10G13G26G28
  23589034.386    23589033.4734   23589042.4184  123961177.087 6  96593108.95643
     -2789.739       -2173.799
  21027808.896    21027809.0834   21027814.5554  110501928.668 8  86105425.47847
      1227.396         956.409
  21228665.693    21228665.9154   21228671.7864  111557440.028 8  86927894.50246
     -1865.674       -1453.771
  20510758.430    20510757.8764   20510764.1404  107784841.231 9  83988213.67847
       117.246          91.357
  22981629.470    22981629.3724   22981638.4034  120769335.117 6  94105989.57744
      3626.229        2825.629
  21409598.822    21409597.9074   21409605.6714  112508208.531 8  87668744.59946
     -2465.164       -1920.901
  24132231.220    24132231.0624   24132241.7174  126815657.127 6  98817389.31542
     -2945.160       -2294.927
  21863348.743    21863348.7764   21863356.7344  114892723.204 7  89526803.05445
      2882.793        2246.326
  23107249.389    23107249.1444   23107256.7164  121429497.315 7  94620422.31643
      3065.414        2388.622
 13  4  5 11 58  1.0000000  0  9G02G05G07G08G09G10G13G26G28
  23597002.220    23597000.7954   23597010.5084  124003047.607 6  96625735.22843
     -2793.009       -2176.367
  21024317.844    21024318.0094   21024323.5284  110483582.723 8  86091129.93347
      1218.718         949.657
  21233999.297    21233999.5494   21234005.4894  111585468.630 8  86949734.94746
     -1871.476       -1458.293
  20510434.751    20510434.3954   20510440.7184  107783141.419 9  83986889.14847
       109.391          85.242
  22971284.228    22971283.7674   22971292.6074  120714969.145 6  94063626.55643
      3622.551        2822.751
  21416644.922    21416644.1334   21416651.7324  112545235.909 8  87697597.06646
     -2471.825       -1926.099
  24140640.488    24140639.5394   24140650.3314  126859845.738 5  98851821.88542
     -2946.660       -2296.085
  21855125.878    21855125.5474   21855133.3104  114849509.791 7  89493130.28245
      2878.973        2243.358
  23098505.541    23098504.9314   23098512.7934  121383545.606 7  94584615.85843
      3061.473        2385.567
 13  4  5 11 58 16.0000000  0  9G02G05G07G08G09G10G13G26G28
  23604978.935    23604978.4584   23604987.3144  124044966.890 5  96658399.51543
     -2796.307       -2178.943
  21020851.354    21020851.5364   21020857.0324  110465366.042 8  86076935.11347
      1210.078         942.914
  21239349.622    21239349.5914   21239355.5064  111613583.288 8  86971642.45846
     -1877.252       -1462.793
  20510133.516    20510133.1914   20510139.4734  107781558.351 8  83985655.58547
       101.587          79.160
  22960949.168    22960948.8394   22960957.6024  120660658.086 6  94021306.33344
      3618.849        2819.879
  21423709.904    21423709.1054   21423716.7314  112582362.242 7  87726526.64146
     -2478.426       -1931.245
  24149053.127    24149052.4474   24149063.6834  126904055.093 5  98886270.68341
     -2948.109       -2297.212
  21846913.157    21846912.9024   21846920.8154  114806352.938 7  89459501.58945
      2875.180        2240.398
  23089771.655    23089771.2124   23089779.3524  121337652.344 7  94548854.95643
      3057.529        2382.469
 13  4  5 11 58 31.0000000  0  9G02G05G07G08G09G10G13G26G28
  23612965.361    23612964.9164   23612973.6494  124086934.540 6  96691101.46943
     -2799.410       -2181.354
  21017409.262    21017409.5814   21017415.2064  110447279.034 8  86062841.33647
      1201.478         936.221
  21244716.213    21244715.9294   21244721.8874  111641783.863 8  86993616.90746
     -1882.906       -1467.200
  20509854.669    20509854.0904   20509860.4644  107780091.946 8  83984512.92947
        93.875          73.150
  22950624.583    22950624.1234   22950633.4094  120606402.206 7  93979029.11144
      3615.249        2817.072
  21430793.522    21430792.7804   21430800.5314  112619587.344 8  87755533.17146
     -2484.947       -1936.320
  24157469.913    24157470.2494   24157480.6244  126948285.006 5  98920735.43741
     -2949.350       -2298.178
  21838711.222    21838711.2134   21838719.0494  114763252.983 7  89425917.22445
      2871.456        2237.497
  23081049.771    23081049.6194   23081057.5504  121291817.957 7  94513139.93144
      3053.639        2379.452
 13  4  5 11 58 46.0000000  0  9G02G05G07G08G09G10G13G26G28
  23620959.978    23620960.3924   23620969.3904  124128951.258 6  96723841.67743
     -2802.711       -2183.929
  21013992.439    21013992.5324   21013998.2084  110429322.723 8  86048849.40947
      1192.760         929.423
  21250099.055    21250098.7494   21250104.6344  111670070.710 8  87015658.58546
     -1888.642       -1471.667
  20509597.894    20509597.4034   20509603.8034  107778743.061 8  83983461.84847
        86.030          67.035
  22940310.392    22940310.1004   22940319.2834  120552202.580 6  93936795.70744
      3611.451        2814.110
  21437896.200    21437895.3934   21437903.1334  112656911.774 8  87784617.11146
     -2491.591       -1941.499
  24165891.355    24165891.5304   24165899.8754  126992536.399 6  98955216.95341
     -2950.771       -2299.319
  21830520.831    21830520.5984   21830528.3384  114720210.871 7  89392377.93945
      2867.564        2234.461
  23072338.960    23072338.7534   23072346.6204  121246043.747 7  94477471.80044
      3049.636        2376.334
 13  4  5 11 59  1.0000000  0  9G02G05G07G08G09G10G13G26G28
  23628965.474    23628965.0174   23628974.0614  124171016.275 5  96756619.51843
     -2805.886       -2186.387
  21010600.185    21010600.2894   21010606.0344  110411496.912 8  86034959.16047
      1184.090         922.670
  21255498.240    21255497.8834   21255503.7394  111698443.435 8  87037767.18646
     -1894.311       -1476.087
  20509363.534    20509363.0844   20509369.3874  107777511.357 8  83982502.07247
        78.276          60.994
  22930007.390    22930007.1984   22930016.2274  120498059.015 7  93894606.00044
      3607.766        2811.249
  21445017.774    21445016.8724   21445024.5574  112694335.031 8  87813778.05246
     -2498.100       -1946.568
  24174316.412    24174315.9464   24174325.7404  127036809.050 6  98989715.06541
     -2952.206       -2300.451
  21822341.183    21822341.1194   21822348.6484  114677226.512 7  89358883.65045
      2863.768        2231.505
  23063640.078    23063639.7044   23063647.5464  121200329.707 6  94441850.55744
      3045.648        2373.224
 13  4  5 11 59 16.0000000  0  9G02G05G07G08G09G10G13G26G28
  23636979.474    23636978.2864   23636988.1334  124213128.483 6  96789434.10543
     -2809.015       -2188.836
  21007232.818    21007232.8224   21007238.5604  110393801.026 8  86021170.15747
      1175.361         915.865
  21260913.556    21260913.1574   21260918.9854  111726900.990 8  87059941.87846
     -1900.060       -1480.562
  20509151.303    20509150.8304   20509157.1384  107776395.917 8  83981632.89747
        70.436          54.884
  22919714.802    22919714.5404   22919723.5614  120443971.033 7  93852459.60944
      3604.012        2808.302
  21452157.619    21452156.8304   21452164.4664  112731856.037 8  87843015.15946
     -2504.690       -1951.704
  24182744.040    24182744.2254   24182754.8934  127081102.034 5  99024228.97041
     -2953.585       -2301.453
  21814172.609    21814172.4224   21814179.8404  114634299.196 7  89325433.81345
      2859.901        2228.493
  23054952.350    23054951.8124   23054959.7984  121154675.462 7  94406275.90144
      3041.592        2370.073
 13  4  5 11 59 31.0000000  0  9G02G05G07G08G09G10G13G26G28
  23645001.819    23645000.9774   23645010.4954  124255288.340 6  96822285.84143
     -2812.254       -2191.355
  21003890.457    21003890.2574   21003896.0894  110376236.139 8  86007483.23147
      1166.606         909.045
  21266344.822    21266344.7114   21266350.5594  111755444.094 8  87082183.24546
     -1905.752       -1484.998
  20508961.396    20508960.8644   20508967.2254  107775397.595 8  83980854.98447
        62.623          48.792
  22909432.957    22909432.2694   22909441.9694  120389939.626 6  93810357.29644
      3600.212        2805.342
  21459316.508    21459315.5184   21459323.2714  112769475.503 8  87872328.99146
     -2511.254       -1956.821
  24191177.974    24191178.5154   24191187.3294  127125416.208 5  99058759.38741
     -2954.994       -2302.604
  21806014.808    21806014.8614   21806022.1844  114591430.088 7  89292029.33945
      2855.992        2225.446
  23046276.069    23046275.4714   23046283.6794  121109082.156 7  94370748.72344
      3037.492        2366.877
 13  4  5 11 59 46.0000000  0  9G02G05G07G08G09G10G13G26G28
  23653033.746    23653032.7484   23653043.1144  124297494.865 6  96855173.94443
     -2815.350       -2193.765
  21000572.827    21000572.6984   21000578.5064  110358802.132 8  85993898.28847
      1157.871         902.241
  21271792.445    21271792.3934   21271798.3284  111784072.101 8  87104490.76846
     -1911.339       -1489.359
  20508793.522    20508793.0364   20508799.4534  107774515.935 8  83980167.97147
        54.879          42.760
  22899161.270    22899160.8354   22899170.5934  120335964.715 7  93768299.00244
      3596.420        2802.395
  21466493.919    21466492.8074   21466500.6584  112807192.694 8  87901718.97046
     -2517.750       -1961.874
  24199614.426    24199615.6924   24199624.5634  127169750.989 5  99093305.89641
     -2956.236       -2303.567
  21797867.990    21797868.0144   21797875.2674  114548618.816 7  89258669.92445
      2852.136        2222.439
  23037611.448    23037611.1344   23037618.9964  121063549.803 7  94335269.04844
      3033.477        2363.742
 13  4  5 12  0  1.0000000  0  9G02G05G07G08G09G10G13G26G28
  23661074.640    23661073.3114   23661083.2614  124339747.708 6  96888098.14143
     -2818.366       -2196.135
  20997280.123    20997280.0324   20997285.7614  110341498.994 8  85980415.32547
      1149.166         895.461
  21277256.399    21277256.1174   21277262.1494  111812784.646 8  87126864.15846
     -1916.960       -1493.735
  20508647.929    20508647.4224   20508653.8234  107773750.673 8  83979571.66047
        47.148          36.739
  22888901.284    22888900.7294   22888910.3484  120282046.321 6  93726284.76144
      3592.696        2799.489
  21473689.830    21473688.6644   21473696.6814  112845007.388 8  87931184.93246
     -2524.202       -1966.910
  24208053.861    24208054.2244   24208063.6724  127214106.203 5  99127868.30641
     -2957.693       -2304.686
  21789732.436    21789732.4794   21789739.4884  114505865.445 7  89225355.62845
      2848.290        2219.450
  23028957.557    23028957.7504   23028966.0864  121018078.523 6  94299836.96244
      3029.404        2360.563
 13  4  5 12  0 16.0000000  0  9G02G05G07G08G09G10G13G26G28
  23669123.743    23669122.3864   23669132.2284  124382046.571 6  96921058.18143
     -2821.484       -2198.554
  20994012.525    20994012.3164   20994018.0144  110324327.229 8  85967034.73147
      1140.388         888.610
  21282736.155    21282735.9544   21282742.0844  111841581.566 8  87149303.30546
     -1922.626       -1498.149
  20508524.286    20508523.8724   20508530.3564  107773101.750 8  83979066.00247
        39.363          30.674
  22878651.412    22878651.2594   22878660.7454  120228184.839 6  93684314.84844
      3588.836        2796.487
  21480904.075    21480903.1224   21480911.1294  112882919.510 8  87960726.80046
     -2530.739       -1972.003
  24216499.557    24216499.6484   24216508.7774  127258482.049 5  99162446.77541
     -2959.088       -2305.799
  21781608.053    21781608.0584   21781614.7504  114463170.237 7  89192086.65245
      2844.396        2216.404
  23020317.217    23020316.8644   23020325.0824  120972668.906 6  94264452.92544
      3025.231        2357.309
 13  4  5 12  0 31.0000000  0  9G02G05G07G08G09G10G13G26G28
  23677181.884    23677180.6624   23677190.2484  124424390.986 6  96954053.73843
     -2824.528       -2200.938
  20990769.805    20990769.5404   20990775.2524  110307286.834 8  85953756.50347
      1131.584         881.758
  21288232.503    21288231.9154   21288237.9444  111870462.632 8  87171808.00846
     -1928.243       -1502.523
  20508423.094    20508422.4914   20508428.9844  107772569.127 8  83978650.97047
        31.584          24.611
  22868412.781    22868412.3934   22868422.0904  120174380.388 7  93642389.39644
      3585.005        2793.497
  21488137.237    21488136.0714   21488144.1634  112920928.918 8  87990344.48746
     -2537.239       -1977.068
  24224946.996    24224947.7144   24224958.4224  127302878.247 5  99197041.12841
     -2960.487       -2306.850
  21773494.122    21773494.4824   21773501.2054  114420533.357 7  89158863.13445
      2840.454        2213.334
  23011687.393    23011687.1454   23011695.4764  120927321.287 6  94229117.19344
      3021.052        2354.064
 13  4  5 12  0 46.0000000  0  9G02G05G07G08G09G10G13G26G28
  23685248.768    23685247.7684   23685256.7154  124466781.587 6  96987085.27043
     -2827.521       -2203.263
  20987552.194    20987552.0004   20987557.6634  110290378.784 8  85940581.40047
      1122.841         874.941
  21293744.722    21293744.0514   21293750.0224  111899428.464 8  87194378.76346
     -1933.810       -1506.863
  20508343.978    20508343.4474   20508349.8854  107772153.510 8  83978327.11047
        23.865          18.592
  22858185.341    22858185.0344   22858194.3384  120120634.073 7  93600509.21644
      3581.189        2790.534
  21495388.813    21495387.8004   21495395.7734  112959036.188 8  88020038.42546
     -2543.701       -1982.094
  24233399.364    24233401.0674   24233410.2564  127347295.576 5  99231651.91941
     -2961.762       -2307.843
  21765391.775    21765391.8014   21765398.7554  114377955.907 7  89125685.90545
      2836.573        2210.316
  23003070.483    23003069.7494   23003078.1924  120882036.826 7  94193830.68744
      3016.889        2350.819
 13  4  5 12  1  1.0000000  0  9G02G05G07G08G09G10G13G26G28
  23693324.308    23693323.0174   23693332.0054  124509217.170 6  97020151.85543
     -2830.556       -2205.625
  20984359.882    20984359.5544   20984365.2444  110273602.489 8  85927508.95947
      1113.999         868.053
  21299272.316    21299272.0944   21299278.0434  111928478.104 8  87217014.83246
     -1939.470       -1511.271
  20508286.992    20508286.5034   20508292.9784  107771854.138 8  83978093.83747
        16.062          12.513
  22847968.974    22847968.4114   22847977.6524  120066945.228 7  93558673.83544
      3577.307        2787.505
  21502658.705    21502657.8464   21502665.7774  112997240.260 7  88049807.78746
     -2550.203       -1987.162
  24241855.454    24241856.9574   24241866.7064  127391733.485 5  99266278.77541
     -2963.229       -2308.989
  21757300.904    21757300.3344   21757307.8574  114335437.102 7  89092554.39145
      2832.605        2207.216
  22994464.483    22994464.5144   22994472.6894  120836815.149 7  94158593.09444
      3012.642        2347.513
 13  4  5 12  1 16.0000000  0  9G02G05G07G08G09G10G13G26G28
  23701407.782    23701406.6524   23701415.9774  124551697.227 6  97053253.08343
     -2833.497       -2207.903
  20981192.430    20981192.2184   20981197.9724  110256958.175 8  85914539.36547
      1105.233         861.220
  21304816.074    21304816.1474   21304821.8854  111957611.216 8  87239715.93746
     -1944.970       -1515.558
  20508252.396    20508251.6844   20508258.1244  107771670.853 8  83977951.01247
         8.377           6.529
  22837763.064    22837762.6014   22837771.8304  120013314.102 7  93516883.42144
      3573.497        2784.538
  21509947.030    21509946.2674   21509954.0874  113035540.864 8  88079652.38046
     -2556.570       -1992.128
  24250317.511    24250316.9834   24250327.4604  127436191.662 5  99300921.40241
     -2964.521       -2310.029
  21749220.810    21749220.6564   21749227.9384  114292977.161 7  89059468.73945
      2828.705        2204.190
  22985871.558    22985870.6404   22985879.2384  120791656.549 6  94123404.64844
      3008.465        2344.259
 13  4  5 12  1 31.0000000  0  9G02G05G07G08G09G10G13G26G28
  23709500.030    23709499.0694   23709508.0294  124594220.935 6  97086388.35243
     -2836.378       -2210.140
  20978050.361    20978049.8544   20978055.7834  110240445.600 8  85901672.42747
      1096.456         854.383
  21310375.740    21310375.8244   21310381.4984  111986827.105 8  87262481.53946
     -1950.447       -1519.825
  20508238.929    20508238.8804   20508245.2284  107771603.091 8  83977898.21447
         0.681           0.530
  22827568.275    22827567.8454   22827577.1344  119959740.485 7  93475137.80944
      3569.695        2781.566
  21517254.129    21517252.8954   21517260.8604  113073937.378 7  88109571.69646
     -2562.920       -1997.081
  24258780.698    24258781.2804   24258790.8534  127480669.665 5  99335579.50641
     -2965.788       -2311.014
  21741151.987    21741151.8374   21741159.2874  114250575.712 7  89026428.66845
      2824.820        2201.159
  22977289.867    22977289.3254   22977297.7684  120746560.929 7  94088265.27644
      3004.303        2341.022
 13  4  5 12  1 46.0000000  0  9G02G05G07G08G09G10G13G26G28
  23717600.259    23717599.7034   23717608.4644  124636788.862 6  97119558.05543
     -2839.257       -2212.402
  20974933.269    20974932.9174   20974938.8424  110224065.702 8  85888908.86847
      1087.627         847.502
  21315951.391    21315951.4604   21315956.9824  112016126.523 8  87285312.23646
     -1955.995       -1524.154
  20508248.451    20508248.1154   20508254.4874  107771651.660 8  83977936.05547
        -7.033          -5.481
  22817384.719    22817384.1164   22817393.1954  119906225.376 6  93433437.79444
      3565.789        2778.535
  21524579.013    21524577.9174   21524585.9024  113112430.470 7  88139566.28046
     -2569.342       -2002.086
  24267248.365    24267248.4504   24267259.0974  127525168.362 5  99370253.68842
     -2967.257       -2312.137
  21733095.213    21733094.5734   21733101.7314  114208233.840 7  88993435.02645
      2820.874        2198.086
  22968720.834    22968719.9544   22968728.4174  120701529.493 7  94053175.91344
      3000.006        2337.664
 13  4  5 12  2  1.0000000  0  9G02G05G07G08G09G10G13G26G28
  23725709.444    23725708.0594   23725717.3804  124679400.115 6  97152761.53443
     -2842.239       -2214.716
  20971841.492    20971841.2864   20971847.1314  110207818.310 8  85876248.56547
      1078.684         840.535
  21321542.203    21321542.8174   21321548.1784  112045508.646 8  87308207.37446
     -1961.578       -1528.504
  20508279.840    20508279.3984   20508285.7304  107771815.943 8  83978064.06847
       -14.843         -11.567
  22807212.285    22807211.6484   22807220.6964  119852768.583 7  93391783.21944
      3561.793        2775.411
  21531922.173    21531921.2714   21531929.1674  113151019.395 8  88169635.53046
     -2575.820       -2007.131
  24275720.952    24275720.1594   24275730.6944  127569687.105 6  99404943.51542
     -2968.571       -2313.175
  21725048.828    21725048.7494   21725055.5074  114165951.313 7  88960487.61645
      2816.796        2194.899
  22960163.412    22960162.8774   22960171.5134  120656562.078 6  94018136.42944
      2995.650        2334.267
 13  4  5 12  2 16.0000000  0  9G02G05G07G08G09G10G13G26G28
  23733825.982    23733825.2294   23733834.2224  124722054.554 6  97185998.64843
     -2845.043       -2216.908
  20968774.928    20968774.9884   20968780.5484  110191703.744 8  85863691.76447
      1069.899         833.684
  21327149.519    21327149.9034   21327155.2304  112074973.660 8  87331167.09646
     -1967.096       -1532.806
  20508333.063    20508332.6634   20508338.9854  107772095.987 9  83978282.28647
       -22.501         -17.535
  22797050.432    22797050.0884   22797059.3184  119799370.390 6  93350174.32444
      3557.931        2772.415
  21539283.850    21539282.7194   21539290.8304  113189704.121 8  88199779.42946
     -2582.152       -2012.065
  24284196.432    24284195.5354   24284206.1204  127614226.109 6  99439649.12842
     -2969.974       -2314.267
  21717014.314    21717013.9284   21717020.8404  114123728.352 7  88927586.62145
      2812.893        2191.866
  22951618.518    22951618.1334   22951626.7664  120611659.087 6  93983147.16044
      2991.399        2330.956
 13  4  5 12  2 31.0000000  0  9G02G05G07G08G09G10G13G26G28
  23741951.494    23741950.1324   23741959.5484  124764751.828 6  97219269.13443
     -2847.893       -2219.110
  20965733.704    20965733.9134   20965739.3214  110175722.354 8  85851238.73247
      1061.004         826.751
  21332772.179    21332772.6794   21332777.9894  112104521.215 8  87354191.14046
     -1972.528       -1537.035
  20508408.347    20508407.8784   20508414.2344  107772491.903 8  83978590.79247
       -30.232         -23.560
  22786900.285    22786900.3154   22786909.0404  119746031.229 7  93308611.41444
      3554.004        2769.331
  21546663.451    21546662.3834   21546670.4704  113228484.618 8  88229997.95446
     -2588.521       -2017.027
  24292675.316    24292675.3084   24292685.7844  127658785.407 6  99474370.53642
     -2971.263       -2315.254
  21708990.599    21708990.5024   21708997.5524  114081565.283 7  88894732.29745
      2808.893        2188.747
  22943086.087    22943085.5194   22943094.4394  120566821.141 7  93948208.55744
      2987.070        2327.580
 13  4  5 12  2 46.0000000  0  9G02G05G07G08G09G10G13G26G28
  23750084.096    23750083.7774   23750092.4624  124807491.214 6  97252572.44743
     -2850.687       -2221.296
  20962717.799    20962718.0954   20962723.3914  110159874.033 8  85838889.38747
      1052.098         819.819
  21338410.406    21338410.9934   21338416.3224  112134150.668 8  87377279.00146
     -1978.042       -1541.324
  20508505.633    20508505.1614   20508511.5474  107773003.321 8  83978989.29947
       -37.936         -29.563
  22776761.633    22776761.6134   22776770.0734  119692750.987 7  93267094.39844
      3550.052        2766.273
  21554061.105    21554060.1814   21554068.3284  113267360.441 8  88260290.76546
     -2594.868       -2021.979
  24301158.554    24301158.2124   24301169.1754  127703364.547 6  99509107.43642
     -2972.551       -2316.280
  21700978.716    21700978.6754   21700985.5934  114039462.058 7  88861924.60245
      2804.876        2185.619
  22934566.372    22934566.0414   22934574.2684  120522048.328 7  93913320.71144
      2982.712        2324.187
 13  4  5 12  3  1.0000000  0  9G02G05G07G08G09G10G13G26G28
  23758225.822    23758224.7504   23758233.7384  124850272.744 6  97285908.60643
     -2853.537       -2223.507
  20959727.555    20959727.5724   20959732.9994  110144159.425 8  85826644.24047
      1043.162         812.850
  21344064.667    21344064.9674   21344070.4144  112163862.365 8  87400430.95546
     -1983.529       -1545.610
  20508625.065    20508624.4584   20508630.8504  107773630.536 8  83979478.03747
       -45.684         -35.598
  22766634.205    22766633.9414   22766642.2854  119639530.285 6  93225623.78944
      3546.034        2763.139
  21561477.091    21561476.2454   21561484.3144  113306331.636 8  88290657.89046
     -2601.261       -2026.955
  24309644.999    24309644.7514   24309656.4554  127747963.952 6  99543860.10942
     -2973.969       -2317.375
  21692977.921    21692977.9244   21692985.1914  113997419.071 7  88829163.85445
      2800.833        2182.473
  22926058.739    22926058.0504   22926066.7034  120477341.340 7  93878484.16044
      2978.257        2320.708
 13  4  5 12  3 16.0000000  0  9G02G05G07G08G09G10G13G26G28
  23766374.215    23766374.1474   23766383.2104  124893095.983 6  97319277.26243
     -2856.279       -2225.658
  20956762.468    20956762.5124   20956767.9844  110128578.467 8  85814503.23247
      1034.275         805.926
  21349734.279    21349734.4854   21349740.0534  112193655.925 8  87423646.68246
     -1988.952       -1549.828
  20508766.291    20508765.8114   20508772.2084  107774373.327 8  83980056.83347
       -53.369         -41.585
  22756517.799    22756517.3154   22756526.0714  119586369.218 6  93184199.63644
      3542.069        2760.050
  21568910.997    21568910.2964   21568918.3324  113345397.818 8  88321099.03046
     -2607.574       -2031.878
  24318136.352    24318136.1994   24318147.5474  127792583.458 6  99578628.45243
     -2975.275       -2318.405
  21684988.948    21684988.9684   21684996.1294  113955436.429 7  88796450.12445
      2796.815        2179.344
  22917563.770    22917563.2714   22917571.7194  120432700.441 7  93843699.09044
      2973.819        2317.268
 13  4  5 12  3 31.0000000  0  9G02G05G07G08G09G10G13G26G28
  23774531.797    23774530.8254   23774540.1854  124935960.350 6  97352677.95743
     -2858.976       -2227.762
  20953823.023    20953822.9254   20953828.5884  110113131.169 7  85802466.37847
      1025.388         799.002
  21355419.539    21355419.5374   21355425.0464  112223530.896 8  87446925.85546
     -1994.338       -1554.027
  20508929.735    20508929.1224   20508935.5154  107775231.381 8  83980725.44747
       -61.021         -47.551
  22746412.784    22746412.3394   22746421.2004  119533267.692 7  93142821.90544
      3538.137        2756.988
  21576363.148    21576362.2814   21576370.2934  113384558.534 7  88351613.83146
     -2613.849       -2036.763
  24326629.937    24326631.0714   24326641.8114  127837222.752 6  99613412.21643
     -2976.575       -2319.397
  21677011.525    21677011.5784   21677018.4474  113913514.078 7  88763783.36445
      2792.823        2176.223
  22909081.760    22909080.7134   22909089.4584  120388125.749 6  93808965.62744
      2969.441        2313.836
 13  4  5 12  3 46.0000000  0  9G02G05G07G08G09G10G13G26G28
  23782695.647    23782695.7444   23782704.5094  124978864.975 6  97386110.02243
     -2861.662       -2229.867
  20950908.667    20950908.8414   20950914.5674  110097817.240 8  85790533.44547
      1016.455         792.040
  21361119.839    21361119.9994   21361125.5104  112253486.619 8  87470267.95146
     -1999.778       -1558.266
  20509114.821    20509114.3234   20509120.7194  107776204.211 8  83981483.49447
       -68.710         -53.540
  22736319.254    22736318.9104   22736327.3794  119480225.550 7  93101490.43244
      3534.127        2753.858
  21583833.058    21583832.2064   21583840.3324  113423813.256 8  88382201.88246
     -2620.158       -2041.679
  24335129.227    24335128.9314   24335140.0944  127881881.260 6  99648210.94743
     -2977.922       -2320.459
  21669045.014    21669045.1934   21669052.2644  113871651.765 7  88731163.40045
      2788.783        2173.077
  22900612.069    22900611.2044   22900619.5634  120343617.094 7  93774283.61644
      2964.984        2310.374
 13  4  5 12  4  1.0000000  0  9G02G05G07G08G09G10G13G26G28
  23790868.169    23790867.9234   23790876.9954  125021809.457 6  97419573.16143
     -2864.327       -2231.947
  20948020.046    20948020.1534   20948025.9044  110082636.887 8  85778704.60147
      1007.497         785.065
  21366835.391    21366835.6784   21366841.1394  112283522.908 8  87493672.82946
     -2005.173       -1562.468
  20509321.743    20509321.3024   20509327.7404  107777291.742 8  83982330.92647
       -76.387         -59.521
  22726236.830    22726236.9154   22726244.9224  119427243.011 7  93060205.40644
      3530.122        2750.743
  21591321.145    21591320.0214   21591327.9654  113463161.732 7  88412862.98746
     -2626.421       -2046.554
  24343630.795    24343630.8584   24343642.2754  127926559.115 6  99683024.75543
     -2979.274       -2321.492
  21661090.517    21661090.2984   21661097.6064  113829849.707 7  88698590.38345
      2784.733        2169.916
  22892154.796    22892154.2974   22892162.3944  120299175.001 6  93739653.46344
      2960.504        2306.891
 13  4  5 12  4 16.0000000  0  9G02G05G07G08G09G10G13G26G28
  23799048.298    23799047.7294   23799056.3674  125064794.039 6  97453067.53043
     -2866.900       -2233.950
  20945157.136    20945157.1424   20945162.7024  110067591.150 8  85766980.64747
       998.600         778.134
  21372566.714    21372566.7974   21372572.3024  112313640.138 7  87517140.77446
     -2010.485       -1566.608
  20509550.675    20509550.1924   20509556.5974  107778494.484 8  83983268.12547
       -83.971         -65.432
  22716166.110    22716166.3114   22716173.8414  119374320.939 7  93018967.48044
      3526.161        2747.652
  21598826.792    21598825.8704   21598833.8104  113502604.484 8  88443597.55646
     -2632.609       -2051.378
  24352137.015    24352136.7944   24352148.3014  127971256.900 6  99717854.08943
     -2980.470       -2322.451
  21653147.530    21653147.3444   21653154.7674  113788108.677 7  88666064.91845
      2780.741        2166.811
  22883710.328    22883709.6234   22883718.0464  120254800.237 6  93705075.79044
      2956.109        2303.455
 13  4  5 12  4 31.0000000  0  9G02G05G07G08G09G10G13G26G28
  23807234.959    23807234.8084   23807244.1224  125107818.961 6  97486593.34043
     -2869.625       -2236.064
  20942319.818    20942319.6604   20942325.2924  110052680.526 8  85755361.98147
       989.567         771.089
  21378313.307    21378313.4004   21378318.9484  112343838.740 8  87540672.12146
     -2015.930       -1570.849
  20509801.594    20509801.0674   20509807.4554  107779812.892 8  83984295.45747
       -91.718         -71.470
  22706107.161    22706107.1934   22706114.8234  119321460.118 7  92977777.28644
      3522.054        2744.462
  21606350.447    21606349.5524   21606357.4584  113542141.815 8  88474405.82946
     -2638.941       -2056.316
  24360646.328    24360646.3874   24360657.9174  128015974.974 6  99752699.26043
     -2981.870       -2323.533
  21645216.257    21645215.9294   21645223.3604  113746429.425 7  88633587.59745
      2776.580        2163.574
  22875279.290    22875278.5624   22875286.7514  120210493.902 6  93670551.42544
      2951.476        2299.843
 13  4  5 12  4 46.0000000  0  9G02G05G07G08G09G10G13G26G28
  23815430.638    23815429.3884   23815439.2144  125150883.421 6  97520149.95443
     -2872.203       -2238.062
  20939507.911    20939507.8214   20939513.5804  110037904.787 8  85743848.42147
       980.589         764.097
  21384075.525    21384075.3144   21384080.9734  112374117.988 8  87564266.31546
     -2021.248       -1574.999
  20510074.264    20510073.8904   20510080.3144  107781246.483 8  83985412.54047
       -99.358         -77.422
  22696059.891    22696059.6354   22696067.1714  119268660.316 7  92936634.64144
      3517.990        2741.289
  21613891.915    21613891.1354   21613898.9754  113581772.948 8  88505287.18646
     -2645.154       -2061.155
  24369159.970    24369159.5454   24369171.1344  128060713.057 6  99787559.97943
     -2983.145       -2324.509
  21637296.429    21637296.3444   21637303.7084  113704811.648 7  88601158.17645
      2772.512        2160.393
  22866861.166    22866860.0144   22866868.4934  120166256.002 7  93636080.37544
      2946.957        2296.330
 13  4  5 12  5  1.0000000  0  9G02G05G07G08G09G10G13G26G28
  23823632.514    23823631.9914   23823641.4774  125193986.773 6  97553736.86943
     -2874.858       -2240.140
  20936721.820    20936721.6944   20936727.5154  110023263.787 7  85732439.85347
       971.577         757.072
  21389852.486    21389852.5384   21389858.1204  112404477.312 8  87587922.90346
     -2026.579       -1579.152
  20510369.004    20510368.5324   20510374.9414  107782794.794 8  83986619.02047
      -107.008         -83.384
  22686023.626    22686023.6704   22686031.4184  119215921.403 7  92895539.44044
      3513.879        2738.083
  21621451.569    21621450.4524   21621458.2804  113621497.330 7  88536241.21046
     -2651.365       -2065.998
  24377676.822    24377676.8494   24377688.3164  128105470.762 6  99822436.02443
     -2984.471       -2325.550
  21629388.557    21629388.6164   21629395.8674  113663255.232 7  88568776.56445
      2768.368        2157.164
  22858455.610    22858454.9664   22858463.4934  120122086.441 7  93601662.58044
      2942.392        2292.762
 13  4  5 12  5 16.0000000  0  9G02G05G07G08G09G10G13G26G28
  23831842.082    23831841.9844   23831851.7884  125237129.080 6  97587354.16442
     -2877.495       -2242.194
  20933961.391    20933961.3154   20933967.2294  110008758.072 8  85721136.69847
       962.487         749.984
  21395645.023    21395644.9504   21395650.6724  112434916.857 8  87611642.00246
     -2032.006       -1583.379
  20510685.571    20510685.0084   20510691.4614  107784458.063 8  83987915.07547
      -114.762         -89.424
  22675999.234    22675999.3664   22676007.1474  119163243.912 7  92854492.10744
      3509.744        2734.854
  21629028.891    21629027.7434   21629035.4054  113661315.313 8  88567268.16646
     -2657.680       -2070.920
  24386197.843    24386198.0164   24386208.9214  128150248.302 6  99857327.51042
     -2985.846       -2326.619
  21621492.696    21621492.5284   21621499.9834  113621760.675 7  88536443.15445
      2764.209        2153.921
  22850063.518    22850063.0724   22850071.4144  120077985.852 7  93567298.54344
      2937.709        2289.111
 13  4  5 12  5 31.0000000  0  9G02G05G07G08G09G10G13G26G28
  23840059.581    23840058.6134   23840068.7254  125280310.384 6  97621001.79942
     -2879.977       -2244.111
  20931227.145    20931226.9474   20931232.8304  109994388.454 8  85709939.59347
       953.481         742.969
  21401452.908    21401452.7534   21401458.6144  112465437.043 8  87635423.93346
     -2037.311       -1587.509
  20511023.950    20511023.5184   20511029.9934  107786236.761 8  83989301.07247
      -122.354         -95.344
  22665986.781    22665987.1094   22665994.7954  119110628.647 7  92813493.25844
      3505.662        2731.687
  21636623.954    21636622.8054   21636630.4254  113701227.078 7  88598368.20046
     -2663.849       -2075.723
  24394723.033    24394722.5304   24394733.7814  128195046.194 6  99892234.85642
     -2987.124       -2327.629
  21613608.682    21613608.3634   21613615.7754  113580328.748 7  88504158.55245
      2760.095        2150.720
  22841684.672    22841684.3334   22841692.4974  120033955.233 7  93532989.01744
      2933.108        2285.532
 13  4  5 12  5 46.0000000  0  9G02G05G07G08G09G10G13G26G28
  23848283.430    23848282.9684   23848293.4734  125323529.652 6  97654679.04042
     -2882.632       -2246.210
  20928518.366    20928518.3354   20928524.2134  109980154.321 8  85698848.06547
       944.318         735.835
  21407276.119    21407275.7034   21407281.5364  112496036.987 8  87659268.02346
     -2042.741       -1591.749
  20511384.346    20511383.7684   20511390.2544  107788130.098 8  83990776.40247
      -130.133        -101.403
  22655986.457    22655986.7374   22655994.0714  119058075.196 7  92772542.57244
      3501.377        2728.353
  21644236.384    21644235.3504   21644243.1464  113741231.771 7  88629540.65346
     -2670.163       -2080.648
  24403250.927    24403251.1554   24403262.3774  128239863.720 6  99927157.47442
     -2988.603       -2328.772
  21605736.164    21605736.0064   21605743.0124  113538958.926 7  88471922.34045
      2755.827        2147.396
  22833319.425    22833318.9244   22833326.9464  119989994.317 6  93498733.80444
      2928.296        2281.785
 13  4  5 12  6  1.0000000  0  9G02G05G07G08G09G10G13G26G28
  23856514.901    23856514.7464   23856524.5754  125366786.733 6  97688385.74242
     -2884.985       -2248.036
  20925835.918    20925835.5724   20925841.4234  109966056.243 8  85687862.55247
       935.437         728.914
  21413113.745    21413113.9254   21413119.7314  112526716.528 8  87683174.13246
     -2047.860       -1595.738
  20511766.354    20511765.9184   20511772.4794  107790138.363 8  83992341.28747
      -137.612        -107.229
  22645997.741    22645998.0184   22646005.2184  119005584.071 7  92731640.44044
      3497.415        2725.258
  21651866.599    21651865.6754   21651873.5614  113781329.286 8  88660785.42546
     -2676.154       -2085.315
  24411783.669    24411784.1034   24411795.4864  128284701.136 5  99962095.62942
     -2989.797       -2329.719
  21597875.771    21597875.6514   21597882.5854  113497651.609 7  88439734.82745
      2751.844        2144.291
  22824967.894    22824966.6954   22824974.9174  119946103.703 7  93464533.36544
      2923.782        2278.263
 13  4  5 12  6 16.0000000  0  9G02G05G07G08G09G10G13G26G28
  23864754.169    23864752.9394   23864763.6094  125410080.432 5  97722120.97442
     -2887.535       -2250.008
  20923178.645    20923178.6934   20923184.3604  109952093.539 8  85676982.52647
       926.254         721.756
  21418967.293    21418967.1464   21418972.8084  112557474.625 8  87707141.45446
     -2053.223       -1599.914
  20512170.280    20512169.8224   20512176.3454  107792260.680 8  83993995.03947
      -145.370        -113.275
  22636020.520    22636021.0264   22636028.0534  118953154.586 7  92690786.34144
      3493.157        2721.938
  21659514.578    21659513.4884   21659521.3894  113821518.735 7  88692101.83646
     -2682.429       -2090.205
  24420319.509    24420320.0444   24420330.2554  128329557.545 5  99997048.56342
     -2991.127       -2330.732
  21590027.172    21590027.0954   21590033.8814  113456406.255 8  88407595.59545
      2747.539        2140.944
  22816628.368    22816628.0164   22816635.8494  119902282.797 7  93430387.25244
      2918.993        2274.545
 13  4  5 12  6 31.0000000  0  9G02G05G07G08G09G10G13G26G28
  23872999.718    23872999.0764   23873008.9444  125453411.333 6  97755885.17242
     -2889.864       -2251.827
  20920547.628    20920547.6894   20920553.2394  109938267.341 8  85666208.86147
       917.288         714.773
  21424835.416    21424835.2434   21424840.9964  112588312.157 8  87731170.67246
     -2058.377       -1603.930
  20512596.113    20512595.5674   20512602.0224  107794497.871 9  83995738.30547
      -152.863        -119.116
  22626055.510    22626055.6484   22626063.0994  118900787.929 7  92649981.19644
      3489.096        2718.774
  21667180.123    21667178.9174   21667186.8524  113861801.005 8  88723490.57746
     -2688.473       -2094.914
  24428859.245    24428859.5864   24428870.4364  128374433.786 5 100032016.95242
     -2992.324       -2331.652
  21582190.396    21582190.3224   21582197.2144  113415223.891 8  88375505.45545
      2743.479        2137.775
  22808303.092    22808302.6984   22808310.7274  119858533.023 7  93396296.56444
      2914.346        2270.922
 13  4  5 12  6 46.0000000  0  9G02G05G07G08G09G10G13G26G28
  23881251.724    23881251.8004   23881261.5724  125496777.805 6  97789677.11542
     -2892.268       -2253.706
  20917942.548    20917942.5214   20917947.9004  109924576.514 8  85655540.68347
       908.215         707.699
  21430718.349    21430718.4044   21430724.0234  112619227.636 8  87755260.63046
     -2063.620       -1608.016
  20513043.381    20513042.8694   20513049.3174  107796848.512 8  83997569.97347
      -160.472        -125.044
  22616102.069    22616102.0074   22616109.7624  118848483.155 7  92609224.27944
      3484.941        2715.534
  21674862.650    21674861.7074   21674869.7394  113902174.478 7  88754950.38446
     -2694.569       -2099.666
  24437402.049    24437402.4294   24437414.1444  128419328.480 5 100066999.70342
     -2993.574       -2332.648
  21574365.107    21574365.1064   21574372.2254  113374103.470 7  88343463.58045
      2739.308        2134.527
  22799991.395    22799990.9394   22799998.6544  119814853.317 7  93362260.46244
      2909.647        2267.274
 13  4  5 12  7  1.0000000  0  9G02G05G07G08G09G10G13G26G28
  23889511.689    23889511.6184   23889520.3204  125540180.344 5  97823497.14643
     -2894.622       -2255.555
  20915363.095    20915363.1984   20915368.5064  109911021.965 8  85644978.69547
       899.152         700.636
  21436616.279    21436616.3764   21436622.0004  112650221.544 8  87779411.69846
     -2068.809       -1612.061
  20513512.302    20513511.8844   20513518.3574  107799313.250 8  83999490.54647
      -168.050        -130.948
  22606160.758    22606160.6654   22606168.6614  118796241.126 7  92568516.25044
      3480.775        2712.293
  21682562.952    21682562.0614   21682570.1214  113942639.722 7  88786481.70646
     -2700.689       -2104.431
  24445949.143    24445948.8384   24445961.2774  128464242.414 5 100101997.43541
     -2994.852       -2333.661
  21566552.122    21566552.1214   21566559.1584  113333045.885 8  88311470.66445
      2735.118        2131.267
  22791692.658    22791692.1094   22791700.2474  119771244.793 7  93328279.83444
      2904.888        2263.544
 13  4  5 12  7 16.0000000  0  9G02G05G07G08G09G10G13G26G28
  23897778.182    23897777.7404   23897786.5594  125583618.219 6  97857344.70443
     -2897.063       -2257.448
  20912809.558    20912809.8404   20912815.1824  109897603.691 8  85634522.89347
       889.971         693.484
  21442529.291    21442528.9184   21442534.8114  112681293.302 8  87803623.43246
     -2074.081       -1616.164
  20514002.916    20514002.4914   20514008.9924  107801891.685 8  84001499.71947
      -175.722        -136.927
  22596231.210    22596231.2774   22596239.2604  118744061.672 7  92527856.98644
      3476.501        2708.961
  21690280.735    21690279.6864   21690287.7714  113983196.229 7  88818084.13546
     -2706.836       -2109.223
  24454499.344    24454499.9764   24454512.1314  128509175.205 5 100137009.90941
     -2996.140       -2334.644
  21558750.964    21558750.7764   21558758.0274  113292051.095 7  88279526.68545
      2730.865        2127.949
  22783407.800    22783407.3934   22783415.3964  119727707.624 7  93294354.79944
      2900.049        2259.774
 13  4  5 12  7 31.0000000  0  9G02G05G07G08G09G10G13G26G28
  23906050.682    23906050.6204   23906059.3014  125627092.159 6  97891220.38043
     -2899.408       -2259.280
  20910282.391    20910282.5974   20910287.9294  109884322.924 8  85624174.24047
       880.891         686.406
  21448456.736    21448456.6234   21448462.6594  112712443.824 7  87827896.54446
     -2079.259       -1620.199
  20514515.367    20514514.9414   20514521.4884  107804584.758 8  84003598.21447
      -183.292        -142.822
  22586314.028    22586314.0124   22586322.0394  118691946.104 7  92487247.50144
      3472.278        2705.668
  21698015.848    21698014.8654   21698023.0504  114023844.816 8  88849758.31446
     -2712.926       -2113.965
  24463053.772    24463054.0944   24463065.6584  128554128.137 5 100172038.06941
     -2997.479       -2335.721
  21550962.324    21550961.4834   21550969.1614  113251120.288 7  88247632.56045
      2726.677        2124.681
  22775136.430    22775136.3174   22775144.3734  119684243.424 7  93260486.63544
      2895.213        2256.002
 13  4  5 12  7 46.0000000  0  9G02G05G07G08G09G10G13G26G28
  23914329.822    23914329.8574   23914338.8494  125670600.347 5  97925122.73243
     -2901.824       -2261.133
  20907781.176    20907781.2054   20907786.6434  109871178.451 8  85613931.79147
       871.635         679.196
  21454398.859    21454399.0424   21454405.1464  112743671.543 8  87852229.80346
     -2084.536       -1624.316
  20515049.556    20515048.9324   20515055.4384  107807391.071 8  84005784.95147
      -190.983        -148.816
  22576408.618    22576408.5174   22576416.4504  118639893.367 7  92446686.96644
      3467.966        2702.310
  21705768.017    21705767.0964   21705775.4184  114064583.836 7  88881502.96746
     -2719.063       -2118.751
  24471611.144    24471609.7984   24471624.5014  128599099.528 5 100207080.58341
     -2998.823       -2336.715
  21543184.726    21543184.5524   21543192.2164  113210252.177 7  88215787.29445
      2722.324        2121.297
  22766879.577    22766879.2634   22766887.0474  119640850.909 7  93226674.31044
      2890.310        2252.184
 13  4  5 12  8  1.0000000  0  9G02G05G07G08G09G10G13G26G28
  23922615.908    23922615.5454   23922624.8424  125714142.927 6  97959051.87543
     -2903.954       -2262.799
  20905306.026    20905305.8864   20905311.4004  109858171.062 8  85603796.15847
       862.587         672.150
  21460355.973    21460356.1224   21460362.3674  112774976.705 7  87876623.40746
     -2089.565       -1628.230
  20515605.061    20515604.6344   20515611.0614  107810311.030 8  84008060.24647
      -198.425        -154.620
  22566515.426    22566514.9954   22566523.1774  118587904.150 7  92406175.92144
      3463.845        2699.097
  21713537.866    21713536.7784   21713545.1404  114105413.599 8  88913318.32146
     -2724.956       -2123.340
  24480173.120    24480173.0734   24480184.8424  128644089.905 5 100242137.93141
     -2999.944       -2337.597
  21535420.045    21535419.7854   21535427.3244  113169447.629 7  88183991.55545
      2718.191        2118.063
  22758635.744    22758635.4244   22758643.2314  119597531.007 6  93192918.57644
      2885.623        2248.530
 13  4  5 12  8 16.0000000  0  9G02G05G07G08G09G10G13G26G28
  23930908.520    23930907.6914   23930916.9494  125757719.791 6  97993007.77642
     -2906.255       -2264.612
  20902856.859    20902856.7674   20902862.2464  109845301.051 8  85593767.57747
       853.421         665.004
  21466328.001    21466328.1054   21466334.2904  112806359.211 7  87901077.27646
     -2094.741       -1632.267
  20516182.357    20516181.9494   20516188.3564  107813344.714 8  84010424.15347
      -206.040        -160.556
  22556634.135    22556633.9304   22556642.2104  118535978.877 7  92365714.72344
      3459.532        2695.740
  21721324.976    21721323.7134   21721332.2194  114146334.102 7  88945204.38646
     -2731.052       -2128.096
  24488738.124    24488738.7364   24488749.8624  128689099.442 5 100277210.20041
     -3001.284       -2338.663
  21527667.060    21527666.9484   21527674.5494  113128706.880 7  88152245.53045
      2713.918        2114.739
  22750406.225    22750406.0284   22750413.8394  119554284.140 7  93159219.75144
      2880.671        2244.672
 13  4  5 12  8 31.0000000  0  9G02G05G07G08G09G10G13G26G28
  23939207.061    23939206.2344   23939216.2524  125801329.918 6  98026989.56142
     -2908.436       -2266.310
  20900433.839    20900433.7774   20900439.1844  109832567.734 8  85583845.51247
       844.314         657.908
  21472314.509    21472314.6664   21472320.7494  112837818.347 7  87925590.86946
     -2099.858       -1636.253
  20516781.173    20516780.7714   20516787.1644  107816491.423 8  84012876.12947
      -213.568        -166.419
  22546765.179    22546764.9564   22546773.1764  118484117.094 7  92325302.97944
      3455.345        2692.462
  21729128.941    21729127.8054   21729136.1834  114187344.551 7  88977160.53346
     -2737.044       -2132.758
  24497307.305    24497306.2464   24497319.0054  128734127.537 5 100312296.92141
     -3002.549       -2339.591
  21519926.816    21519926.5354   21519933.8304  113088029.527 7  88120548.90845
      2709.707        2111.464
  22742190.795    22742189.9194   22742198.1544  119511110.185 7  93125577.72544
      2875.812        2240.894
 13  4  5 12  8 46.0000000  0  9G02G05G07G08G09G10G13G26G28
  23947512.407    23947511.4674   23947521.7914  125844973.227 6  98060997.21242
     -2910.622       -2268.015
  20898036.972    20898036.8914   20898042.1944  109819971.710 8  85574030.42147
       835.165         650.780
  21478315.800    21478315.9374   21478321.8934  112869354.219 8  87950164.24746
     -2104.907       -1640.185
  20517401.663    20517401.0724   20517407.5084  107819751.478 8  84015416.43347
      -221.097        -172.285
  22536908.399    22536907.8024   22536916.4424  118432319.293 7  92284941.08644
      3451.057        2689.130
  21736950.095    21736949.0574   21736957.3874  114228445.032 7  89009186.84446
     -2743.022       -2137.408
  24505879.092    24505879.3434   24505890.9704  128779174.415 5 100347398.23341
     -3003.725       -2340.560
  21512198.234    21512198.1244   21512205.4034  113047416.079 7  88088902.07745
      2705.435        2108.128
  22733988.647    22733988.2854   22733996.5674  119468009.735 7  93091993.00444
      2870.908        2237.074
 13  4  5 12  9  1.0000000  0  9G02G05G07G08G09G10G13G26G28
  23955823.556    23955822.4274   23955833.0134  125888649.033 6  98095030.17642
     -2912.772       -2269.677
  20895665.918    20895666.1004   20895671.3984  109807512.774 8  85564322.15647
       826.036         643.663
  21484331.932    21484331.6614   21484337.5034  112900966.237 8  87974796.95546
     -2110.001       -1644.158
  20518043.296    20518042.9154   20518049.3604  107823124.252 8  84018044.56447
      -228.605        -178.132
  22527063.610    22527063.0974   22527071.9014  118380585.363 7  92244628.97344
      3446.822        2685.827
  21744788.228    21744787.2054   21744795.7694  114269634.957 7  89041282.84446
     -2748.960       -2142.040
  24514454.272    24514454.8304   24514466.9574  128824239.648 5 100382513.95241
     -3004.902       -2341.523
  21504482.227    21504481.9244   21504488.9774  113006866.296 7  88057304.86145
      2701.188        2104.819
  22725801.217    22725800.5164   22725808.4504  119424982.777 7  93058465.51944
      2866.030        2233.263
 13  4  5 12  9 16.0000000  0  9G02G05G07G08G09G10G13G26G28
  23964141.488    23964139.5554   23964150.4184  125932357.291 5  98129088.42742
     -2914.896       -2271.342
  20893321.362    20893321.4294   20893326.8574  109795191.639 8  85554721.26747
       816.848         636.503
  21490361.339    21490361.8024   21490367.5794  112932654.472 8  87999489.06746
     -2115.029       -1648.068
  20518706.818    20518706.2464   20518712.7794  107826610.106 8  84020760.81647
      -236.115        -183.986
  22517231.337    22517230.9054   22517239.4934  118328915.893 7  92204367.08644
      3442.516        2682.482
  21752643.334    21752642.3774   21752651.1084  114310914.412 7  89073448.61446
     -2754.898       -2146.669
  24523033.841    24523033.7104   24523044.3444  128869323.548 5 100417644.12041
     -3006.124       -2342.412
  21496778.124    21496777.8924   21496784.6474  112966380.848 7  88025757.77245
      2696.923        2101.500
  22717626.885    22717626.7674   22717634.8114  119382030.168 7  93024995.97644
      2861.077        2229.415
 13  4  5 12  9 31.0000000  0  9G02G05G07G08G09G10G13G26G28
  23972464.373    23972463.3654   23972473.9634  125976096.313 6  98163170.65643
     -2916.989       -2272.964
  20891002.681    20891002.7604   20891008.2964  109783007.037 8  85545226.76847
       807.722         629.396
  21496405.812    21496406.1904   21496411.9294  112964417.496 8  88024239.45246
     -2120.059       -1651.993
  20519391.366    20519390.8604   20519397.3174  107830207.701 8  84023564.13147
      -243.591        -189.811
  22507410.897    22507410.5214   22507419.3354  118277309.774 7  92164154.57044
      3438.253        2679.160
  21760515.626    21760514.3054   21760523.1324  114352281.915 7  89105682.98946
     -2760.813       -2151.280
  24531616.664    24531617.6474   24531629.2784  128914424.785 5 100452787.87341
     -3007.377       -2343.358
  21489085.796    21489085.5444   21489092.4324  112925958.537 7  87994259.88245
      2692.690        2098.198
  22709467.428    22709467.0824   22709475.1344  119339150.931 7  92991583.61444
      2856.107        2225.538
 13  4  5 12  9 46.0000000  0  9G02G05G07G08G09G10G13G26G28
  23980793.587    23980792.5084   23980802.9144  126019866.799 6  98197277.41242
     -2919.109       -2274.629
  20888710.245    20888710.2234   20888715.8944  109770960.071 8  85535839.52247
       798.477         622.188
  21502463.988    21502464.8214   21502470.6204  112996255.848 8  88049048.53146
     -2125.127       -1655.943
  20520097.410    20520096.7694   20520103.3144  107833917.659 8  84026455.00547
      -251.146        -195.700
  22497602.504    22497602.1194   22497610.9514  118225768.084 6  92123992.25044
      3433.887        2675.759
  21768404.621    21768403.1584   21768412.1004  114393738.133 8  89137986.49445
     -2766.773       -2155.922
  24540203.312    24540203.7374   24540214.5254  128959544.171 5 100487945.72141
     -3008.626       -2344.386
  21481405.821    21481405.5654   21481412.7924  112885600.436 7  87962812.01845
      2688.337        2094.814
  22701321.546    22701321.3934   22701329.5244  119296346.098 7  92958229.21144
      2851.105        2221.642
 13  4  5 12 10  1.0000000  0  9G02G05G07G08G09G10G13G26G28
  23989129.381    23989128.0194   23989138.0244  126063668.389 6  98231408.40743
     -2921.119       -2276.204
  20886444.135    20886444.0614   20886449.8084  109759051.098 8  85526559.79747
       789.365         615.091
  21508537.215    21508537.9714   21508543.6084  113028169.754 8  88073916.48446
     -2130.094       -1659.811
  20520824.741    20520824.1674   20520830.6954  107837740.117 8  84029433.53947
      -258.552        -201.468
  22487806.750    22487806.5234   22487815.2544  118174291.414 7  92083880.59144
      3429.644        2672.441
  21776310.186    21776308.8144   21776317.7864  114435283.060 7  89170359.12246
     -2772.591       -2160.462
  24548793.580    24548791.5954   24548804.5584  129004681.897 5 100523117.90341
     -3009.791       -2345.281
  21473738.228    21473737.8424   21473745.0274  112845306.960 7  87931414.51845
      2684.105        2091.514
  22693190.521    22693190.3164   22693198.5434  119253616.381 7  92924933.36044
      2846.153        2217.778
 13  4  5 12 10 16.0000000  0  9G02G05G07G08G09G10G13G26G28
  23997470.042    23997469.5754   23997479.6924  126107501.147 6  98265563.67343
     -2923.252       -2277.838
  20884204.294    20884204.1874   20884209.9844  109747280.715 8  85517388.07347
       780.043         607.828
  21514624.825    21514625.3524   21514630.9084  113060159.305 8  88098843.37946
     -2135.155       -1663.754
  20521573.547    20521573.0204   20521579.5514  107841675.458 8  84032500.03647
      -266.121        -207.367
  22478023.926    22478023.4454   22478032.1484  118122880.439 7  92043820.12644
      3425.186        2668.971
  21784232.621    21784231.5444   21784240.4894  114476916.894 7  89202801.02646
     -2778.546       -2165.094
  24557386.015    24557385.2334   24557397.2474  129049838.438 5 100558304.69841
     -3011.063       -2346.293
  21466083.008    21466082.5694   21466089.6694  112805078.753 7  87900067.87945
      2679.682        2088.067
  22685074.016    22685073.3484   22685081.5814  119210962.558 7  92891696.64744
      2841.055        2213.804
 13  4  5 12 10 31.0000000  0  9G02G05G07G08G09G10G13G26G28
  24005817.919    24005816.1424   24005827.2094  126151363.632 6  98299742.12843
     -2925.178       -2279.354
  20881990.640    20881990.6084   20881996.3034  109735648.085 8  85508323.67947
       770.898         600.703
  21520726.386    21520726.9254   21520732.4234  113092223.038 8  88123828.08046
     -2140.048       -1667.568
  20522343.660    20522343.1114   20522349.6314  107845722.463 8  84035653.54347
      -273.531        -213.139
  22468252.883    22468252.5474   22468261.1124  118071534.040 7  92003809.96944
      3420.909        2665.642
  21792172.203    21792170.8954   21792179.8364  114518638.209 7  89235311.10145
     -2784.339       -2169.616
  24565982.017    24565981.7214   24565993.9964  129095012.462 5 100593505.13141
     -3012.170       -2347.138
  21458440.006    21458439.4604   21458446.6604  112764914.722 7  87868771.24645
      2675.428        2084.752
  22676971.174    22676971.0224   22676979.2334  119168383.777 7  92858518.38444
      2836.055        2209.920
 13  4  5 12 10 46.0000000  0  9G02G05G07G08G09G10G13G26G28
  24014170.401    24014169.3404   24014179.2664  126195256.368 6  98333944.14943
     -2927.142       -2280.888
  20879803.532    20879803.3664   20879809.0214  109724153.949 8  85499367.21247
       761.664         593.500
  21526841.979    21526842.6434   21526848.0184  113124361.583 8  88148871.07646
     -2145.074       -1671.483
  20523135.190    20523134.6364   20523141.1194  107849881.743 8  84038894.53847
      -281.042        -218.993
  22458494.518    22458493.8434   22458502.5514  118020253.258 7  91963850.94644
      3416.537        2662.236
  21800128.613    21800127.0244   21800135.9024  114560447.594 7  89267889.80146
     -2790.217       -2174.196
  24574582.784    24574582.1444   24574592.9794  129140204.841 5 100628719.88341
     -3013.412       -2348.126
  21450808.931    21450808.6804   21450815.9734  112724815.943 7  87837525.45645
      2671.079        2081.352
  22668882.879    22668883.0344   22668891.1984  119125881.252 7  92825399.56644
      2830.982        2205.945
 13  4  5 12 11  1.0000000  0  9G02G05G07G08G09G10G13G26G28
  24022528.166    24022527.2604   24022537.8054  126239177.681 6  98368168.43043
     -2929.082       -2282.380
  20877642.185    20877642.2944   20877647.8774  109712797.182 8  85490517.78147
       752.485         586.354
  21532972.052    21532972.2924   21532977.7284  113156573.599 8  88173971.32546
     -2149.943       -1675.275
  20523947.596    20523947.2434   20523953.7354  107854151.947 9  84042221.96847
      -288.415        -224.737
  22448748.528    22448747.8784   22448756.8644  117969037.121 7  91923942.30844
      3412.225        2658.871
  21808101.147    21808099.6904   21808108.5324  114602343.620 7  89300536.00945
     -2795.979       -2178.679
  24583185.146    24583184.9104   24583196.9654  129185414.262 5 100663947.88541
     -3014.531       -2348.990
  21443190.897    21443190.3074   21443197.7774  112684781.319 7  87806329.66145
      2666.809        2078.021
  22660809.492    22660809.5954   22660817.3604  119083454.094 7  92792339.46244
      2825.936        2202.018
 13  4  5 12 11 16.0000000  0  9G02G05G07G08G09G10G13G26G28
  24030891.770    24030891.1674   24030901.5404  126283127.566 6  98402414.96643
     -2930.896       -2283.819
  20875507.544    20875507.3994   20875512.9374  109701578.516 8  85481775.95847
       743.330         579.219
  21539116.339    21539116.0174   21539121.4124  113188859.165 8  88199128.88246
     -2154.796       -1679.062
  20524781.516    20524781.1014   20524787.5354  107858533.535 8  84045636.19247
      -295.794        -230.491
  22439014.684    22439014.1754   22439022.9754  117917886.187 7  91884084.46844
      3407.905        2655.510
  21816090.014    21816088.8094   21816097.6174  114644326.417 7  89333249.83845
     -2801.716       -2183.151
  24591791.511    24591792.8544   24591803.2204  129230641.048 5 100699189.44641
     -3015.683       -2349.884
  21435584.773    21435584.2614   21435591.7274  112644811.442 7  87775184.31445
      2662.511        2074.682
  22652750.110    22652750.1064   22652758.2014  119041103.092 7  92759338.70144
      2820.888        2198.094
 13  4  5 12 11 31.0000000  0  9G02G05G07G08G09G10G13G26G28
  24039260.480    24039260.2234   24039270.0894  126327105.880 6  98436683.65943
     -2932.810       -2285.300
  20873398.949    20873398.9584   20873404.4384  109690498.201 8  85473141.94847
       734.101         572.022
  21545273.665    21545273.8884   21545279.2214  113221218.329 8  88224343.79946
     -2159.688       -1682.874
  20525636.511    20525636.1534   20525642.5844  107863026.542 8  84049137.23247
      -303.221        -236.278
  22429293.384    22429292.9574   22429301.7324  117866800.901 7  91844277.78244
      3403.521        2652.097
  21824095.695    21824094.4594   21824103.4384  114686396.080 7  89366031.35046
     -2807.503       -2187.668
  24600401.881    24600401.8284   24600413.7654  129275885.438 5 100734444.68341
     -3016.845       -2350.785
  21427991.093    21427990.6574   21427997.9594  112604906.707 7  87744089.74645
      2658.165        2071.299
  22644706.321    22644705.8734   22644713.7394  118998828.773 7  92726397.68844
      2815.760        2194.098
 13  4  5 12 11 46.0000000  0  9G02G05G07G08G09G10G13G26G28
  24047635.007    24047634.9534   24047644.6784  126371112.984 6  98470974.78443
     -2934.715       -2286.767
  20871317.048    20871317.0604   20871322.4524  109679557.356 8  85464616.61247
       724.794         564.776
  21551445.411    21551445.7704   21551451.2044  113253651.582 8  88249616.44146
     -2164.643       -1686.734
  20526512.784    20526512.5034   20526518.9774  107867631.657 8  84052725.63047
      -310.707        -242.109
  22419584.492    22419583.8194   22419593.2194  117815782.189 7  91804522.98044
      3399.081        2648.629
  21832118.205    21832116.8114   21832125.6274  114728553.111 7  89398880.94546
     -2813.331       -2192.205
  24609015.284    24609015.4994   24609026.8224  129321148.256 6 100769714.31441
     -3018.071       -2351.740
  21420410.303    21420409.9934   21420416.9984  112565068.101 7  87713046.68945
      2653.744        2067.853
  22636675.750    22636675.8744   22636684.0274  118956632.166 7  92693517.24644
      2810.537        2190.027
 13  4  5 12 12  1.0000000  0  9G02G05G07G08G09G10G13G26G28
  24056014.341    24056014.2034   24056023.7954  126415147.819 6  98505287.52443
     -2936.594       -2288.244
  20869261.542    20869261.6364   20869266.9124  109668755.412 8  85456199.50947
       715.493         557.527
  21557631.442    21557631.6484   21557637.0484  113286158.029 8  88274946.11346
     -2169.533       -1690.543
  20527410.452    20527409.9404   20527416.4724  107872348.058 8  84056400.74547
      -318.135        -247.896
  22409888.687    22409888.2024   22409897.3564  117764829.539 7  91764819.65344
      3394.630        2645.166
  21840156.960    21840155.7594   21840164.4554  114770796.644 7  89431797.94946
     -2819.117       -2196.711
  24617631.474    24617631.6384   24617643.8054  129366428.597 5 100804997.57041
     -3019.309       -2352.682
  21412841.782    21412841.7964   21412848.5774  112525295.069 7  87682054.73745
      2649.346        2064.426
  22628661.393    22628660.7434   22628669.0754  118914513.161 7  92660697.27244
      2805.351        2185.981
 13  4  5 12 12 16.0000000  0 10G02G05G07G08G09G10G13G15G26G28
  24064399.504    24064398.9354   24064409.2524  126459209.556 6  98539621.22543
     -2938.364       -2289.632
  20867232.232    20867232.4944   20867237.7464  109658091.866 8  85447890.25047
       706.280         550.346
  21563830.752    21563831.1264   21563836.5814  113318736.774 8  88300332.12546
     -2174.332       -1694.281
  20528328.979    20528328.4844   20528335.0494  107877175.033 8  84060162.02047
      -325.495        -253.630
  22400205.559    22400204.8504   22400213.5994  117713942.714 7  91725167.61144
      3390.242        2641.731
  21848211.823    21848210.7184   21848219.3734  114813125.810 7  89464781.67046
     -2824.792       -2201.134
  24626251.400    24626251.0254   24626263.5104  129411725.742 5 100840293.96041
     -3020.379       -2353.552
  25167131.926    25167130.7034   25167142.2284  132254157.793 5 103055198.36641
      3287.806        2561.935
  21405285.734    21405285.4844   21405292.5294  112485587.248 7  87651113.60045
      2644.979        2061.020
  22620660.635    22620660.6914   22620668.6104  118872471.255 6  92627937.37144
      2800.222        2181.977
 13  4  5 12 12 31.0000000  0 10G02G05G07G08G09G10G13G15G26G28
  24072789.384    24072789.3194   24072798.5734  126503298.375 6  98573976.04242
     -2940.100       -2290.976
  20865229.411    20865229.7564   20865235.0694  109647567.484 8  85439689.43047
       697.024         543.137
  21570044.185    21570044.5424   21570049.9024  113351388.334 8  88325774.87246
     -2179.143       -1698.033
  20529268.530    20529268.1494   20529274.7084  107882113.082 8  84064009.84847
      -332.870        -259.382
  22390534.897    22390534.0214   22390542.7364  117663122.501 7  91685567.47544
      3385.841        2638.310
  21856283.553    21856282.2924   21856290.8424  114855540.985 7  89497832.41146
     -2830.503       -2205.580
  24634875.090    24634873.8514   24634886.9094  129457040.394 5 100875603.96941
     -3021.552       -2354.452
  25157745.963    25157746.9134   25157758.0694  132204841.015 5 103016769.77342
      3287.804        2561.919
  21397741.935    21397742.0404   21397748.9414  112445945.391 7  87620223.86445
      2640.667        2057.658
  22612675.129    22612675.2844   22612682.9364  118830507.402 7  92595238.28744
      2794.995        2177.928
 13  4  5 12 12 46.0000000  0 10G02G05G07G08G09G10G13G15G26G28
  24081184.555    24081183.6294   24081193.5354  126547413.457 6  98608351.32042
     -2941.888       -2292.376
  20863253.215    20863253.3034   20863258.7814  109637181.918 8  85431596.77747
       687.768         535.928
  21576271.124    21576271.6164   21576276.9614  113384112.069 8  88351273.87146
     -2183.973       -1701.797
  20530229.290    20530228.8584   20530235.4564  107887161.763 8  84067943.88347
      -340.235        -265.119
  22380876.392    22380875.8704   22380884.7134  117612368.648 7  91646019.04244
      3381.386        2634.853
  21864370.692    21864370.0184   21864378.4114  114898041.576 7  89530949.72346
     -2836.208       -2210.027
  24643501.213    24643500.6414   24643513.5224  129502372.189 5 100910927.32441
     -3022.694       -2355.333
  25148364.084    25148361.6464   25148373.4534  132155526.009 5 102978342.52942
      3287.609        2561.763
  21390211.095    21390210.8284   21390217.7824  112406369.256 7  87589385.33245
      2636.252        2054.226
  22604705.055    22604704.3844   22604712.6054  118788621.570 7  92562600.00644
      2789.792        2173.867
 13  4  5 12 13  1.0000000  0 10G02G05G07G08G09G10G13G15G26G28
  24089584.134    24089583.6894   24089593.5904  126591554.883 6  98642747.12142
     -2943.707       -2293.781
  20861303.418    20861303.3694   20861309.0744  109626935.817 8  85423612.80647
       678.366         528.597
  21582512.297    21582512.5364   21582517.9194  113416908.246 8  88376829.30946
     -2188.863       -1705.604
  20531211.205    20531210.6654   20531217.2464  107892321.301 8  84071964.29747
      -347.700        -270.936
  22371230.712    22371230.2774   22371239.2144  117561681.842 7  91606522.85544
      3376.799        2631.282
  21872474.762    21872473.9174   21872482.4084  114940627.794 7  89564133.73846
     -2841.969       -2214.519
  24652131.730    24652130.1154   24652142.7004  129547721.318 5 100946264.18842
     -3023.946       -2356.289
  25138977.440    25138977.3134   25138988.5674  132106213.181 5 102939917.03842
      3287.342        2561.548
  21382692.425    21382692.1174   21382699.2124  112366859.491 7  87558598.53045
      2631.694        2050.670
  22596749.309    22596748.5364   22596756.6154  118746814.577 7  92530023.14744
      2784.453        2169.696
 13  4  5 12 13 16.0000000  0 10G02G05G07G08G09G10G13G15G26G28
  24097988.555    24097988.2494   24097998.7164  126635722.872 6  98677163.62742
     -2945.382       -2295.102
  20859380.358    20859380.2614   20859386.0574  109616830.154 8  85415738.25847
       669.080         521.363
  21588766.857    21588767.2604   21588772.7684  113449777.144 8  88402441.42346
     -2193.652       -1709.339
  20532214.034    20532213.6834   20532220.2164  107897592.207 8  84076071.49047
      -355.068        -276.677
  22361598.826    22361597.6874   22361606.7984  117511062.936 7  91567079.58944
      3372.365        2627.809
  21880595.216    21880594.2154   21880602.6844  114983299.896 7  89597384.68846
     -2847.632       -2218.930
  24660764.221    24660763.6634   24660776.4104  129593088.294 6 100981614.98442
     -3025.042       -2357.174
  25129594.309    25129593.8024   25129605.3534  132056903.350 4 102901493.83441
      3287.216        2561.456
  21375186.479    21375186.4164   21375193.6544  112327416.845 7  87527864.02445
      2627.300        2047.253
  22588808.829    22588808.0854   22588816.2014  118705087.433 7  92497508.51644
      2779.172        2165.589
 13  4  5 12 13 31.0000000  0 10G02G05G07G08G09G10G13G15G26G28
  24106398.669    24106398.3844   24106408.0144  126679915.564 6  98711599.36942
     -2946.924       -2296.306
  20857483.507    20857483.4934   20857489.4424  109606863.136 8  85407971.75147
       659.844         514.169
  21595035.407    21595035.6274   21595041.1514  113482717.008 8  88428108.82346
     -2198.342       -1713.001
  20533238.139    20533237.5574   20533244.0744  107902972.823 8  84080264.17047
      -362.367        -282.363
  22351978.889    22351977.9924   22351986.8814  117460510.521 7  91527688.13944
      3367.962        2624.390
  21888731.323    21888730.6094   21888738.9294  115026056.136 7  89630701.19846
     -2853.214       -2223.283
  24669400.640    24669399.3734   24669412.8994  129638471.874 5 101016978.71242
     -3026.052       -2357.969
  25120211.181    25120212.1464   25120221.9894  132007594.986 5 102863071.76941
      3287.209        2561.456
  21367693.452    21367693.2774   21367700.4584  112288039.937 7  87497180.73945
      2622.951        2043.855
  22580883.365    22580882.6644   22580890.7404  118663438.916 7  92465055.15144
      2773.943        2161.509
 13  4  5 12 13 46.0000000  0 10G02G05G07G08G09G10G13G15G26G28
  24114813.591    24114812.7834   24114822.5624  126724132.865 6  98746054.29242
     -2948.686       -2297.677
  20855613.409    20855613.2924   20855619.1864  109597035.011 8  85400313.47047
       650.514         506.896
  21601317.018    21601317.3074   21601323.0324  113515727.586 8  88453831.32946
     -2203.130       -1716.716
  20534282.747    20534282.3484   20534288.8504  107908463.015 8  84084542.24247
      -369.726        -288.099
  22342371.638    22342370.8574   22342379.5534  117410024.859 7  91488348.69144
      3363.439        2620.852
  21896883.422    21896882.8984   21896891.1594  115068896.339 7  89664083.12646
     -2858.875       -2227.695
  24678039.593    24678039.4524   24678052.6444  129683871.678 5 101052355.05941
     -3027.288       -2358.918
  25110829.683    25110829.2564   25110839.4634  131958288.273 5 102824650.95942
      3286.996        2561.314
  21360212.830    21360212.5724   21360219.6114  112248728.943 7  87466548.82145
      2618.479        2040.370
  22572972.818    22572972.1454   22572980.2614  118621869.289 7  92432663.27044
      2768.592        2157.350
 13  4  5 12 14  1.0000000  0 10G02G05G07G08G09G10G13G15G26G28
  24123232.251    24123231.9244   24123241.7614  126768374.817 6  98780528.40242
     -2950.300       -2298.925
  20853769.667    20853769.7474   20853775.6014  109587346.781 8  85392764.19847
       641.205         499.640
  21607612.441    21607612.6974   21607618.4374  113548809.559 8  88479609.46746
     -2207.844       -1720.397
  20535348.521    20535348.1214   20535354.6154  107914063.537 8  84088906.28347
      -377.058        -293.814
  22332777.316    22332776.5724   22332785.5604  117359606.969 7  91449062.05544
      3358.921        2617.343
  21905051.550    21905051.1164   21905059.5424  115111821.121 7  89697530.96346
     -2864.481       -2232.061
  24686683.301    24686681.6264   24686694.2504  129729288.557 5 101087744.70542
     -3028.365       -2359.758
  25101447.672    25101447.3574   25101457.6134  131908984.241 5 102786232.22642
      3286.854        2561.192
  21352744.762    21352744.7294   21352751.7404  112209485.011 7  87435969.15945
      2614.023        2036.895
  22565077.555    22565077.0184   22565085.0664  118580379.830 7  92400333.84944
      2763.252        2153.178
 13  4  5 12 14 16.0000000  0 10G02G05G07G08G09G10G13G15G26G28
  24131656.230    24131655.5504   24131665.4704  126812639.785 5  98815020.45642
     -2951.788       -2300.088
  20851952.621    20851952.6504   20851958.4074  109577797.524 8  85385323.21647
       631.954         492.425
  21613920.725    21613921.3194   21613927.1644  113581961.469 8  88505442.09346
     -2212.481       -1724.009
  20536435.123    20536434.6064   20536441.1124  107919773.031 8  84093355.23447
      -384.280        -299.439
  22323195.495    22323195.3174   22323204.1744  117309255.768 7  91409827.39544
      3354.497        2613.895
  21913235.874    21913235.2654   21913243.7164  115154828.914 7  89731043.47746
     -2869.964       -2236.335
  24695328.171    24695327.2134   24695340.4214  129774721.293 5 101123146.73442
     -3029.416       -2360.559
  25092065.511    25092064.5094   25092075.2094  131859681.543 6 102747814.54742
      3286.772        2561.106
  21345289.479    21345289.7364   21345296.4654  112170306.895 7  87405440.77745
      2609.633        2033.483
  22557197.805    22557197.0174   22557205.1354  118538969.506 7  92368066.09944
      2758.017        2149.104
 13  4  5 12 14 31.0000000  0 10G02G05G07G08G09G10G13G15G26G28
  24140083.454    24140083.2654   24140093.6024  126856928.510 6  98849531.05042
     -2953.372       -2301.323
  20850162.091    20850162.2084   20850167.8194  109568388.238 8  85377991.30847
       622.615         485.156
  21620242.864    21620243.3244   21620249.1584  113615184.057 8  88531329.80746
     -2217.218       -1727.703
  20537542.399    20537541.9124   20537548.5814  107925592.348 8  84097889.76547
      -391.631        -305.162
  22313627.463    22313626.9274   22313635.3024  117258972.521 7  91370645.66644
      3349.956        2610.351
  21921436.197    21921435.3194   21921443.7504  115197920.638 7  89764621.40046
     -2875.584       -2240.713
  24703977.885    24703976.5044   24703989.4994  129820170.829 5 101158561.85242
     -3030.592       -2361.475
  25082683.734    25082682.7474   25082693.9994  131810381.201 5 102709398.69542
      3286.563        2560.964
  21337846.872    21337847.0364   21337853.9364  112131195.889 7  87374964.69745
      2605.163        2030.001
  22549332.929    22549332.1474   22549340.0754  118497639.770 7  92335861.14544
      2752.615        2144.905
 13  4  5 12 14 46.0000000  0 10G02G05G07G08G09G10G13G15G26G28
  24148515.526    24148516.0044   24148525.8334  126901241.449 6  98884060.49442
     -2954.915       -2302.534
  20848398.557    20848398.5714   20848404.1024  109559119.790 8  85370769.13747
       613.280         477.876
  21626578.416    21626578.8674   21626584.8034  113648477.864 8  88557273.00146
     -2221.891       -1731.340
  20538670.882    20538670.3274   20538676.9984  107931522.187 8  84102510.41047
      -398.930        -310.848
  22304072.041    22304071.4584   22304079.9424  117208758.134 7  91331517.59245
      3345.402        2606.808
  21929652.555    21929651.4674   21929659.9104  115241096.705 7  89798265.04146
     -2881.130       -2245.031
  24712630.313    24712628.2234   24712641.5014  129865637.903 5 101193990.63041
     -3031.652       -2362.352
  25073303.801    25073301.4274   25073313.4494  131761084.159 5 102670985.47042
      3286.401        2560.822
  21330417.370    21330417.2054   21330424.3474  112092152.871 8  87344541.59345
      2600.671        2026.489
  22541483.420    22541482.9354   22541490.6404  118456391.633 7  92303719.77344
      2747.208        2140.685
 13  4  5 12 15  1.0000000  0 10G02G05G07G08G09G10G13G15G26G28
  24156953.059    24156952.3214   24156962.8964  126945576.818 6  98918607.41642
     -2956.465       -2303.730
  20846661.474    20846661.4854   20846666.9004  109549990.976 8  85363655.77347
       603.873         470.549
  21632927.382    21632927.7844   21632933.6414  113681841.358 8  88583270.50046
     -2226.601       -1735.013
  20539819.971    20539819.4254   20539826.1604  107937561.060 9  84107216.02447
      -406.275        -316.576
  22294529.352    22294529.1594   22294537.3244  117158611.407 7  91292442.25645
      3340.786        2603.212
  21937883.875    21937883.3434   21937891.6444  115284355.379 7  89831973.05245
     -2886.735       -2249.395
  24721283.448    24721283.2604   24721297.9794  129911121.070 5 101229431.98341
     -3032.780       -2363.187
  25063922.116    25063922.1754   25063932.5524  131711789.430 6 102632574.01242
      3286.186        2560.677
  21323000.267    21323000.4314   21323007.3094  112053176.677 8  87314170.55645
      2596.156        2022.968
  22533649.658    22533648.9274   22533657.0254  118415224.131 7  92271641.24844
      2741.753        2136.423
 13  4  5 12 15 16.0000000  0 10G02G05G07G08G09G10G13G15G26G28
  24165393.464    24165393.6204   24165403.4324  126989934.951 6  98953172.08442
     -2957.900       -2304.852
  20844951.102    20844951.0774   20844956.5254  109541002.715 8  85356651.92747
       594.533         463.273
  21639289.680    21639290.0424   21639295.8294  113715275.128 8  88609322.75746
     -2231.255       -1738.636
  20540990.125    20540989.4654   20540996.1634  107943709.680 8  84112007.15047
      -413.552        -322.250
  22285000.000    22284999.3684   22285007.8774  117108533.360 7  91253420.44045
      3336.260        2599.673
  21946131.480    21946130.8954   21946139.3314  115327697.195 7  89865745.84845
     -2892.221       -2253.674
  24729943.519    24729943.0914   24729955.2444  129956621.137 5 101264886.43341
     -3033.913       -2364.070
  25054542.790    25054542.0134   25054552.5474  131662497.697 6 102594164.85942
      3286.017        2560.537
  21315596.647    21315596.4324   21315603.1844  112014268.208 8  87283852.28446
      2591.636        2019.453
  22525831.372    22525830.5904   22525838.3974  118374138.287 7  92239626.34744
      2736.327        2132.193
 13  4  5 12 15 31.0000000  0 10G02G05G07G08G09G10G13G15G26G28
  24173838.915    24173838.8444   24173849.1224  127034315.336 5  98987754.07842
     -2959.427       -2306.037
  20843267.162    20843267.4404   20843272.8454  109532155.140 8  85349757.71447
       585.168         455.975
  21645665.211    21645665.5094   21645671.1614  113748778.802 7  88635429.49646
     -2235.879       -1742.240
  20542180.887    20542180.3814   20542187.0624  107949967.793 8  84116883.59847
      -420.824        -327.914
  22275483.673    22275483.1954   22275491.5844  117058524.171 7  91214452.27045
      3331.676        2596.109
  21954395.506    21954394.4624   21954402.8004  115371122.030 7  89899583.34445
     -2897.714       -2257.969
  24738604.758    24738604.2744   24738616.2104  130002137.838 5 101300353.90841
     -3035.008       -2364.915
  25045163.935    25045163.0794   25045173.8714  131613208.951 6 102555758.01142
      3285.822        2560.395
  21308205.408    21308205.5144   21308212.3404  111975427.659 8  87253586.94546
      2587.115        2015.933
  22518028.156    22518027.6274   22518035.8504  118333134.574 7  92207675.45244
      2730.857        2127.938
 13  4  5 12 15 46.0000000  0 10G02G05G07G08G09G10G13G15G26G28
  24182288.393    24182288.5394   24182298.2604  127078717.396 5  99022352.98142
     -2960.868       -2307.165
  20841610.253    20841610.4424   20841615.9184  109523447.750 8  85342972.72747
       575.801         448.678
  21652054.192    21652054.2104   21652059.7704  113782351.574 7  88661590.07146
     -2240.489       -1745.834
  20543392.439    20543391.8604   20543398.6794  107956334.647 8  84121844.77947
      -428.086        -333.574
  22265980.265    22265979.5884   22265988.2184  117008583.467 7  91175537.47045
      3327.064        2592.517
  21962674.681    21962673.6234   21962681.8654  115414629.157 7  89933484.94445
     -2903.234       -2262.252
  24747269.627    24747269.3674   24747280.7014  130047670.601 5 101335833.87241
     -3036.087       -2365.758
  25035783.957    25035784.5204   25035794.1404  131563922.847 5 102517353.26441
      3285.621        2560.232
  21300827.162    21300827.3184   21300834.0344  111936654.629 7  87223374.21646
      2582.601        2012.418
  22510241.225    22510240.6834   22510248.5194  118292212.548 7  92175788.21244
      2725.373        2123.667
 13  4  5 12 16  1.0000000  0 10G02G05G07G08G09G10G13G15G26G28
  24190742.378    24190741.5144   24190752.0644  127123140.626 5  99056968.35642
     -2962.208       -2308.194
  20839979.951    20839980.0584   20839985.5804  109514880.593 8  85336297.01847
       566.502         441.428
  21658456.231    21658455.8274   21658461.5174  113815993.211 7  88687804.30646
     -2245.034       -1749.380
  20544624.532    20544624.1294   20544630.8854  107962810.145 8  84126890.61547
      -435.280        -339.181
  22256489.425    22256489.2804   22256497.7064  116958711.326 7  91136676.10145
      3322.555        2589.000
  21970969.316    21970968.4664   21970976.6134  115458218.137 7  89967450.34545
     -2908.625       -2266.462
  24755936.734    24755936.3324   24755948.2344  130093219.403 5 101371326.33341
     -3037.059       -2366.528
  25026404.740    25026405.2224   25026415.5724  131514639.459 5 102478950.63241
      3285.502        2560.147
  21293461.918    21293461.8284   21293468.6074  111897949.245 7  87193214.19446
      2578.159        2008.952
  22502469.511    22502468.9024   22502476.8114  118251372.550 7  92143964.88544
      2719.948        2119.445
 13  4  5 12 16 16.0000000  0 10G02G05G07G08G09G10G13G15G26G28
  24199199.533    24199199.5644   24199210.2374  127167584.768 5  99091600.03142
     -2963.570       -2309.257
  20838376.444    20838376.5974   20838382.1034  109506453.991 7  85329730.82846
       557.142         434.141
  21664870.882    21664870.7354   21664876.3304  113849703.656 6  88714072.15745
     -2249.582       -1752.913
  20545877.672    20545877.0764   20545883.8944  107969394.396 7  84132021.19546
      -442.497        -344.803
  22247012.815    22247012.4354   22247020.3484  116908908.249 6  91097868.54145
      3317.975        2585.433
  21979279.494    21979278.7994   21979287.0014  115501888.999 6  90001479.54245
     -2914.034       -2270.675
  24764608.062    24764607.9244   24764619.7024  130138784.336 5 101406831.40341
     -3038.110       -2367.380
  25017028.408    25017027.2594   25017038.8024  131465359.075 5 102440550.33842
      3285.309        2559.979
  21286109.493    21286109.1934   21286116.1624  111859311.798 6  87163107.11445
      2573.619        2005.417
  22494713.549    22494713.3884   22494721.0314  118210614.992 6  92112205.80944
      2714.502        2115.189
 13  4  5 12 16 31.0000000  0 10G02G05G07G08G09G10G13G15G26G28
  24207660.643    24207661.3854   24207671.1454  127212048.717 5  99126247.12842
     -2964.906       -2310.307
  20836799.348    20836799.6364   20836805.2064  109498167.284 8  85323273.65347
       547.770         426.833
  21671298.695    21671298.6014   21671304.3134  113883481.894 7  88740392.83846
     -2254.150       -1756.476
  20547150.862    20547150.5724   20547157.3664  107976086.418 8  84137235.75247
      -449.718        -350.431
  22237548.487    22237548.1154   22237556.0984  116859173.503 7  91059114.22945
      3313.376        2581.844
  21987605.245    21987604.4634   21987612.6674  115545640.608 7  90035571.65345
     -2919.476       -2274.910
  24773280.856    24773281.4024   24773293.1754  130184364.540 5 101442348.34641
     -3039.203       -2368.210
  25007651.205    25007650.6534   25007661.2244  131416080.842 5 102402151.76342
      3285.180        2559.865
  21278769.551    21278769.2734   21278776.5794  111820741.702 7  87133052.51645
      2569.098        2001.893
  22486973.310    22486973.0414   22486980.8554  118169939.551 7  92080510.71444
      2708.948        2110.861
 13  4  5 12 16 46.0000000  0 10G02G05G07G08G09G10G13G15G26G28
  24216125.927    24216126.4274   24216136.0734  127256532.259 5  99160909.50742
     -2966.256       -2311.362
  20835249.078    20835249.5384   20835255.0044  109490020.844 7  85316925.77247
       538.420         419.551
  21677739.055    21677739.3204   21677744.9744  113917327.898 7  88766766.32545
     -2258.671       -1760.002
  20548444.813    20548444.4704   20548451.2484  107982886.128 8  84142534.21747
      -456.912        -356.034
  22228097.616    22228097.0464   22228104.8554  116809507.514 7  91020413.48645
      3308.749        2578.250
  21995946.676    21995945.6824   21995953.8584  115589472.970 7  90069726.69745
     -2924.837       -2279.093
  24781957.389    24781958.3484   24781969.5574  130229960.206 5 101477877.30341
     -3040.228       -2369.000
  24998274.174    24998272.7874   24998283.2534  131366805.142 5 102363755.07841
      3284.948        2559.739
  21271442.596    21271442.2304   21271449.8884  111782239.311 7  87103050.67245
      2564.541        1998.340
  22479248.608    22479248.6584   22479255.9604  118129346.653 7  92048879.94744
      2703.413        2106.556
 13  4  5 12 17  1.0000000  0 10G02G05G07G08G09G10G13G15G26G28
  24224593.814    24224594.6354   24224604.7854  127301035.217 5  99195587.02042
     -2967.518       -2312.351
  20833725.867    20833726.1424   20833731.5764  109482015.122 8  85310687.54547
       528.995         412.208
  21684193.043    21684192.9054   21684198.6424  113951241.795 7  88793192.71646
     -2263.205       -1763.538
  20549759.497    20549758.9824   20549765.7214  107989793.939 8  84147916.92247
      -464.151        -361.675
  22218659.417    22218659.2944   22218667.0964  116759910.836 7  90981766.75345
      3304.113        2574.630
  22004302.781    22004301.9984   22004310.2684  115633386.109 7  90103944.68745
     -2930.245       -2283.307
  24790637.805    24790637.5224   24790648.9274  130275571.455 5 101513418.43541
     -3041.241       -2369.803
  24988897.850    24988897.3024   24988908.3474  131317532.434 6 102325360.75641
      3284.742        2559.510
  21264128.536    21264128.2914   21264136.0214  111743805.134 7  87073101.99046
      2559.978        1994.785
  22471540.323    22471539.9604   22471547.3844  118088837.157 7  92017314.17044
      2697.837        2102.214
 13  4  5 12 17 16.0000000  0 10G02G05G07G08G09G10G13G15G26G28
  24233066.863    24233066.2194   24233077.5534  127345557.339 5  99230279.46242
     -2968.803       -2313.351
  20832229.351    20832229.6394   20832235.0114  109474150.404 8  85304559.18747
       519.606         404.889
  21690659.925    21690659.3584   21690665.1174  113985223.409 8  88819671.86846
     -2267.711       -1767.040
  20551094.429    20551094.0244   20551100.7984  107996809.826 8  84153383.84047
      -471.335        -367.272
  22209234.468    22209234.6424   22209242.5654  116710383.820 7  90943174.31945
      3299.450        2570.996
  22012674.631    22012673.7574   22012682.1104  115677380.017 7  90138225.60745
     -2935.633       -2287.506
  24799320.137    24799319.8424   24799332.2554  130321198.410 5 101548971.83041
     -3042.350       -2370.665
  24979522.403    24979522.4084   24979531.8794  131268263.009 6 102286969.00441
      3284.493        2559.342
  21256828.273    21256827.7404   21256835.3704  111705439.524 7  87043206.72746
      2555.431        1991.244
  22463847.216    22463847.2514   22463854.4804  118048411.209 7  91985813.49744
      2692.243        2097.850
 13  4  5 12 17 31.0000000  0 10G02G05G07G08G09G10G13G15G26G28
  24241542.703    24241542.0644   24241553.5594  127390098.365 5  99264986.66642
     -2970.102       -2314.384
  20830759.488    20830759.9364   20830765.2104  109466426.771 8  85298540.76647
       510.105         397.484
  21697138.892    21697138.7604   21697144.5314  114019272.638 7  88846203.70946
     -2272.277       -1770.608
  20552450.124    20552449.5814   20552456.2864  108003933.504 8  84158934.74947
      -478.598        -372.933
  22199823.170    22199822.8844   22199830.8834  116660926.553 7  90904636.23045
      3294.708        2567.298
  22021061.948    22021060.8234   22021069.1444  115721454.379 7  90172569.21745
     -2941.052       -2291.723
  24808005.927    24808005.7404   24808017.9824  130366841.092 5 101584537.48341
     -3043.439       -2371.514
  24970147.460    24970147.7104   24970157.1944  131218996.934 6 102248579.86142
      3284.149        2559.081
  21249540.406    21249540.0204   21249547.7314  111667142.569 7  87013364.97046
      2550.717        1987.566
  22456170.569    22456170.3104   22456177.6084  118008069.211 7  91954378.22844
      2686.560        2093.418
 13  4  5 12 17 46.0000000  0 10G02G05G07G08G09G10G13G15G26G28
  24250022.168    24250022.1954   24250032.9974  127434658.680 5  99299708.87342
     -2971.253       -2315.275
  20829316.893    20829317.1924   20829322.4374  109458845.130 8  85292632.99247
       500.767         390.211
  21703631.125    21703631.2404   21703636.7914  114053389.985 8  88872788.63646
     -2276.698       -1774.050
  20553826.494    20553825.9174   20553832.6224  108011165.785 8  84164570.28847
      -485.702        -378.470
  22190425.185    22190424.7914   22190432.8774  116611540.092 7  90866153.30745
      3290.122        2563.733
  22029464.258    22029463.3494   22029471.7104  115765609.814 7  90206976.00045
     -2946.325       -2295.835
  24816694.748    24816694.0024   24816706.8294  130412500.309 5 101620115.99041
     -3044.439       -2372.280
  24960772.807    24960772.3204   24960783.0514  131169735.141 5 102210194.06542
      3284.038        2558.980
  21242265.766    21242265.6714   21242273.2284  111628915.286 7  86983577.49846
      2546.223        1984.064
  22448509.768    22448509.6914   22448516.9104  117967812.439 7  91923009.37744
      2681.004        2089.083
 13  4  5 12 18  1.0000000  0 10G02G05G07G08G09G10G13G15G26G28
  24258505.828    24258505.5294   24258516.3254  127479236.828 5  99334444.97142
     -2972.433       -2316.176
  20827900.939    20827901.2594   20827906.4774  109451404.568 8  85286835.14847
       491.354         382.875
  21710136.108    21710136.2064   21710141.8994  114087574.111 8  88899425.58946
     -2281.143       -1777.511
  20555223.263    20555222.6974   20555229.2824  108018505.373 8  84170289.44047
      -492.871        -384.056
  22181040.485    22181040.1674   22181048.2664  116562223.532 7  90827724.86045
      3285.470        2560.105
  22037881.934    22037880.9544   22037889.3424  115809844.867 7  90241444.82545
     -2951.640       -2299.981
  24825386.450    24825386.6194   24825398.1514  130458174.874 5 101655706.43041
     -3045.482       -2373.086
  24951399.055    24951399.0794   24951408.7414  131120476.553 5 102171810.74741
      3283.830        2558.831
  21235004.927    21235004.1804   21235011.8404  111590756.803 8  86953843.63346
      2541.625        1980.495
  22440865.255    22440865.0114   22440872.1464  117927639.978 7  91891706.21745
      2675.366        2084.700
 13  4  5 12 18 16.0000000  0 10G02G05G07G08G09G10G13G15G26G28
  24266992.694    24266991.6044   24267002.9354  127523832.927 5  99369195.07742
     -2973.649       -2317.122
  20826511.998    20826512.1334   20826517.4134  109444105.450 8  85281147.51947
       481.862         375.478
  21716653.727    21716653.9074   21716659.6884  114121825.118 7  88926114.66446
     -2285.646       -1781.026
  20556640.481    20556639.8504   20556646.4044  108025952.643 8  84176092.50447
      -500.109        -389.692
  22171668.924    22171668.7804   22171676.9354  116512977.393 7  90789351.28545
      3280.705        2556.384
  22046314.487    22046313.7844   22046322.2254  115854159.656 7  90275975.78745
     -2956.989       -2304.146
  24834080.113    24834080.6994   24834092.7074  130503865.029 5 101691309.03841
     -3046.551       -2373.930
  24942026.780    24942025.6204   24942035.0544  131071221.736 5 102133430.32741
      3283.510        2558.572
  21227756.412    21227756.2274   21227763.4984  111552667.648 8  86924163.79246
      2536.931        1976.827
  22433236.866    22433236.5684   22433243.8964  117887552.548 7  91860469.32144
      2669.638        2080.233
 13  4  5 12 18 31.0000000  0 10G02G05G07G08G09G10G13G15G26G28
  24275482.508    24275481.4264   24275492.7674  127568446.964 5  99403959.14042
     -2974.875       -2318.076
  20825150.110    20825150.0474   20825155.3534  109436948.228 8  85275570.45947
       472.409         368.113
  21723183.842    21723184.3184   21723190.1974  114156143.256 8  88952856.05046
     -2290.112       -1784.502
  20558078.205    20558077.5654   20558084.1084  108033507.920 8  84181979.72647
      -507.281        -395.280
  22162311.083    22162310.9584   22162319.0994  116463802.348 7  90751033.10645
      3275.952        2552.689
  22054762.705    22054761.8784   22054770.1904  115898554.366 7  90310569.01245
     -2962.312       -2308.291
  24842778.161    24842779.5524   24842790.4594  130549571.199 5 101726924.16641
     -3047.621       -2374.737
  24932655.277    24932654.0944   24932664.4364  131021971.058 5 102095053.21141
      3283.192        2558.331
  21220521.789    21220521.5684   21220528.5754  111514648.443 8  86894538.44546
      2532.289        1973.211
  22425624.609    22425624.1574   22425631.6854  117847550.910 7  91829299.28745
      2663.888        2075.755
 13  4  5 12 18 46.0000000  0 10G02G05G07G08G09G10G13G15G26G28
  24283975.135    24283975.2944   24283985.2384  127613078.220 5  99438736.65242
     -2975.974       -2318.919
  20823815.115    20823814.9314   20823820.4234  109429932.867 8  85270103.94047
       463.002         360.786
  21729727.675    21729727.5994   21729733.4764  114190528.179 8  88979649.47346
     -2294.495       -1787.914
  20559536.297    20559535.6914   20559542.3094  108041170.807 8  84187950.80247
      -514.381        -400.813
  22152967.201    22152966.6944   22152974.6364  116414698.450 7  90712770.35745
      3271.255        2549.024
  22063225.833    22063224.8574   22063233.2974  115943028.521 7  90345224.14145
     -2967.535       -2312.356
  24851478.109    24851479.2384   24851490.9854  130595293.049 5 101762551.48141
     -3048.596       -2375.511
  24923282.193    24923281.8964   24923293.2884  130972724.799 5 102056679.54641
      3282.979        2558.173
  21213300.237    21213299.9594   21213306.9804  111476699.037 8  86864967.50246
      2527.665        1969.609
  22418028.877    22418028.5784   22418035.8774  117807635.248 7  91798196.22745
      2658.205        2071.332
 13  4  5 12 19  1.0000000  0 10G02G05G07G08G09G10G13G15G26G28
  24292471.975    24292471.1304   24292482.2244  127657726.246 6  99473527.19742
     -2977.169       -2319.849
  20822507.093    20822506.8794   20822512.4604  109423059.388 8  85264747.97847
       453.447         353.341
  21736283.286    21736283.5084   21736289.4784  114224979.457 7  89006494.59646
     -2299.018       -1791.438
  20561014.835    20561014.2814   20561020.8954  108048940.934 8  84194005.44447
      -521.637        -406.470
  22143636.596    22143635.7444   22143644.2374  116365665.643 7  90674563.00545
      3266.406        2545.251
  22071704.315    22071703.2024   22071711.5774  115987581.795 7  90379940.92945
     -2972.923       -2316.554
  24860181.873    24860182.4104   24860195.3104  130641030.561 6 101798190.99941
     -3049.780       -2376.424
  24913911.942    24913911.5254   24913920.3074  130923482.618 5 102018309.05541
      3282.594        2557.859
  21206092.208    21206091.7924   21206098.7594  111438819.479 8  86835450.98046
      2522.924        1965.913
  22410449.366    22410448.9804   22410456.5224  117767805.680 7  91767160.26344
      2652.348        2066.763
 13  4  5 12 19 16.0000000  0 10G02G05G07G08G09G10G13G15G26G28
  24300970.948    24300971.8454   24300981.7334  127702391.199 6  99508330.99642
     -2978.296       -2320.770
  20821226.050    20821226.0004   20821231.6264  109416328.468 8  85259503.09747
       443.908         345.902
  21742851.662    21742851.9754   21742858.0784  114259497.422 7  89033391.69246
     -2303.494       -1794.922
  20562514.059    20562513.2794   20562520.0214  108056818.741 8  84200143.98647
      -528.829        -412.071
  22134319.115    22134318.6514   22134327.3184  116316704.643 7  90636411.62345
      3261.595        2541.500
  22080197.901    22080196.5174   22080205.0294  116032214.492 7  90414719.60745
     -2978.212       -2320.677
  24868888.752    24868889.3334   24868901.6474  130686784.045 6 101833842.98541
     -3050.837       -2377.241
  24904543.172    24904542.8534   24904552.7014  130874245.169 5 101979942.21041
      3282.257        2557.605
  21198897.110    21198896.9184   21198903.9264  111401010.627 8  86805989.54946
      2518.164        1962.204
  22402886.345    22402885.9544   22402893.5884  117728063.079 7  91736192.06745
      2646.540        2062.240
 13  4  5 12 19 31.0000000  0 10G02G05G07G08G09G10G13G15G26G28
  24309473.133    24309473.3024   24309484.0774  127747072.983 6  99543147.82842
     -2979.240       -2321.486
  20819972.391    20819972.3764   20819977.9864  109409740.282 8  85254369.44247
       434.510         338.583
  21749433.174    21749433.1684   21749439.2474  114294082.012 7  89060340.69946
     -2307.830       -1798.305
  20564033.481    20564032.8364   20564039.6294  108064804.205 8  84206366.42347
      -535.914        -417.596
  22125016.255    22125015.4004   22125023.9314  116267815.842 7  90598316.48545
      3256.925        2537.869
  22088706.183    22088705.1224   22088713.5144  116076926.522 7  90449560.09945
     -2983.384       -2324.717
  24877598.096    24877598.3114   24877611.1174  130732553.664 5 101869507.48141
     -3051.820       -2377.999
  24895173.057    24895174.4484   24895183.3164  130825012.690 5 101941579.24841
      3282.083        2557.467
  21191715.881    21191715.6054   21191722.6304  111363272.661 8  86776583.36146
      2513.567        1958.616
  22395340.156    22395339.6984   22395347.4454  117688407.920 7  91705292.00744
      2640.792        2057.751
 13  4  5 12 19 46.0000000  0 10G02G05G07G08G09G10G13G15G26G28
  24317979.366    24317979.2754   24317990.2484  127791770.456 5  99577976.92042
     -2980.314       -2322.315
  20818745.836    20818745.8994   20818751.4324  109403294.317 8  85249346.60947
       425.007         331.173
  21756026.639    21756026.8014   21756033.1164  114328732.153 7  89087340.79146
     -2312.167       -1801.690
  20565573.487    20565572.7774   20565579.5254  108072896.525 8  84212672.12047
      -543.020        -423.132
  22115726.269    22115725.8264   22115733.9574  116218998.592 7  90560277.09745
      3252.107        2534.113
  22097229.277    22097228.4744   22097236.8404  116121716.813 7  90484461.57045
     -2988.605       -2328.776
  24886310.983    24886311.4164   24886324.5804  130778338.517 5 101905183.92341
     -3052.797       -2378.777
  24885806.005    24885806.2854   24885815.7994  130775784.520 5 101903219.70841
      3281.722        2557.187
  21184548.050    21184547.6194   21184554.9484  111325605.061 8  86747231.99846
      2508.849        1954.946
  22387810.582    22387809.8814   22387817.8564  117648839.715 7  91674459.70644
      2635.000        2053.242
 13  4  5 12 20  1.0000000  0 10G02G05G07G08G09G10G13G15G26G28
  24326488.854    24326487.7574   24326498.2894  127836484.145 6  99612818.65742
     -2981.430       -2323.180
  20817546.772    20817546.6054   20817552.1254  109396991.517 8  85244435.33147
       415.438         323.723
  21762633.084    21762633.2164   21762639.3794  114363448.578 7  89114392.52246
     -2316.615       -1805.151
  20567133.860    20567133.1364   20567139.8914  108081096.359 8  84219061.59547
      -550.204        -428.728
  22106450.710    22106449.8024   22106458.3074  116170254.130 7  90522294.42545
      3247.229        2530.308
  22105767.810    22105766.7164   22105775.2334  116166586.056 7  90519424.57045
     -2993.893       -2332.898
  24895026.160    24895027.2014   24895039.9144  130824139.716 5 101940873.05841
     -3053.927       -2379.674
  24876440.784    24876439.4534   24876449.7394  130726561.729 5 101864864.30542
      3281.331        2556.910
  21177393.503    21177393.3624   21177400.8084  111288008.924 8  86717936.32346
      2504.052        1951.205
  22380298.028    22380296.9354   22380305.0034  117609359.792 7  91643696.18845
      2629.063        2048.621
 13  4  5 12 20 16.0000000  0 10G02G05G07G08G09G10G13G15G26G28
  24335000.813    24335000.2974   24335010.2324  127881213.121 6  99647672.30942
     -2982.370       -2323.885
  20816374.323    20816374.5394   20816380.0544  109390831.668 8  85239635.44847
       405.950         316.326
  21769252.404    21769251.9354   21769258.3004  114398230.570 7  89141495.37346
     -2320.932       -1808.516
  20568714.627    20568713.9214   20568720.5894  108089403.144 8  84225534.41247
      -557.303        -434.264
  22097188.330    22097187.9114   22097196.1994  116121582.067 7  90484368.17945
      3242.457        2526.587
  22114321.149    22114320.0854   22114328.6084  116211533.570 7  90554448.55845
     -2999.048       -2336.925
  24903746.231    24903746.1024   24903758.9094  130869956.590 5 101976574.45741
     -3054.939       -2380.484
  24867072.829    24867073.0254   24867083.0574  130677343.974 4 101826512.85342
      3281.037        2556.669
  21170252.646    21170252.4304   21170259.9324  111250483.878 8  86688696.04646
      2499.354        1947.545
  22372802.207    22372800.6074   22372808.9344  117569967.869 7  91613001.24544
      2623.232        2044.083
 13  4  5 12 20 31.0000000  0 10G02G05G07G08G09G10G13G15G26G28
  24343515.197    24343514.5684   24343524.7844  127925956.438 5  99682537.13442
     -2983.312       -2324.653
  20815229.137    20815229.3914   20815234.9424  109384813.888 8  85234946.25947
       396.513         308.973
  21775883.296    21775883.1404   21775889.3194  114433077.265 7  89168648.61746
     -2325.231       -1811.867
  20570315.505    20570314.8924   20570321.5764  108097816.059 8  84232089.92447
      -564.334        -439.741
  22087940.069    22087939.4974   22087947.7884  116072981.927 7  90446497.96145
      3237.669        2522.862
  22122888.905    22122888.0884   22122896.6074  116256558.323 7  90589532.73145
     -3004.186       -2340.918
  24912467.748    24912466.9054   24912480.4424  130915788.296 5 102012287.36641
     -3055.908       -2381.209
  24857707.671    24857707.6444   24857718.8094  130628130.745 5 101788164.90642
      3280.809        2556.447
  21163125.503    21163125.0454   21163132.4974  111213029.455 8  86659510.79746
      2494.674        1943.901
  22365321.934    22365321.1294   22365329.5464  117530663.584 7  91582374.59745
      2617.388        2039.524
 13  4  5 12 20 46.0000000  0 10G02G05G07G08G09G10G13G15G26G28
  24352031.679    24352031.1254   24352041.6744  127970713.915 5  99717412.95542
     -2984.310       -2325.430
  20814111.185    20814111.3304   20814116.9704  109378938.656 8  85230368.14947
       386.891         301.476
  21782526.955    21782526.6314   21782532.9674  114467988.732 8  89195852.33346
     -2329.604       -1815.277
  20571936.729    20571936.0804   20571942.7584  108106335.293 8  84238728.28747
      -571.530        -445.350
  22078705.323    22078705.1034   22078713.4534  116024454.243 7  90408684.20945
      3232.721        2519.014
  22131471.572    22131470.7144   22131479.2464  116301660.438 7  90624677.18645
     -3009.422       -2345.001
  24921191.918    24921192.8754   24921203.7704  130961635.160 5 102048012.10141
     -3056.979       -2382.067
  24848344.131    24848343.4684   24848354.5314  130578922.400 5 101749820.76942
      3280.397        2556.155
  21156011.548    21156011.4444   21156018.7714  111175646.171 8  86630380.97946
      2489.817        1940.116
  22357859.575    22357858.6824   22357866.9454  117491447.597 7  91551816.75045
      2611.418        2034.865
 13  4  5 12 21  1.0000000  0 10G02G05G07G08G09G10G13G15G26G28
  24360551.845    24360550.8854   24360560.6794  128015485.800 5  99752300.02641
     -2985.276       -2326.173
  20813020.580    20813020.5134   20813026.2314  109373206.767 8  85225901.74047
       377.342         294.034
  21789182.360    21789182.5614   21789188.7344  114502965.401 7  89223106.85746
     -2333.967       -1818.672
  20573578.228    20573577.5644   20573584.3124  108114961.387 8  84245449.91347
      -578.647        -450.892
  22069485.358    22069484.7754   22069493.0604  115975999.833 7  90370927.55745
      3227.861        2515.207
  22140069.133    22140068.1604   22140076.9374  116346840.229 7  90659882.16345
     -3014.574       -2349.014
  24929920.586    24929918.6964   24929931.6134  131007497.792 5 102083749.12741
     -3058.085       -2382.915
  24838980.963    24838981.6304   24838991.1064  130529719.636 5 101711480.98542
      3279.970        2555.833
  21148911.356    21148911.3414   21148918.6554  111138334.843 8  86601307.23046
      2485.017        1936.377
  22350414.048    22350413.0964   22350421.1434  117452320.906 7  91521328.47945
      2605.425        2030.199
 13  4  5 12 21 16.0000000  0 10G02G05G07G08G09G10G13G15G26G28
  24369074.361    24369073.6814   24369083.5564  128060271.074 5  99787197.55341
     -2986.136       -2326.836
  20811956.883    20811956.8594   20811962.6394  109367617.569 8  85221546.51247
       367.841         286.628
  21795851.119    21795850.6194   21795856.7854  114538006.246 7  89250411.38646
     -2338.209       -1821.978
  20575239.845    20575239.2004   20575245.9164  108123693.427 8  84252254.09947
      -585.682        -456.378
  22060278.509    22060277.6994   22060286.0904  115927618.040 7  90333227.48545
      3223.007        2511.435
  22148681.277    22148680.0464   22148688.8574  116392096.740 7  90695146.92945
     -3019.665       -2352.981
  24938649.687    24938649.0644   24938662.2134  131053375.340 5 102119497.76041
     -3058.996       -2383.587
  24829619.922    24829619.5404   24829629.2504  130480521.907 5 101673145.12642
      3279.685        2555.613
  21141825.217    21141824.8444   21141832.0744  111101094.837 8  86572289.06246
      2480.275        1932.677
  22342985.657    22342984.3254   22342992.6714  117413283.206 7  91490909.55045
      2599.539        2025.615
 13  4  5 12 21 31.0000000  0 10G02G05G07G08G09G10G13G15G26G28
  24377598.511    24377598.3574   24377609.0094  128105069.852 6  99822105.60042
     -2987.043       -2327.574
  20810920.450    20810920.4524   20810926.3504  109362171.682 8  85217302.95847
       358.289         279.187
  21802530.926    21802530.8724   21802537.1724  114573111.588 7  89277766.17446
     -2342.491       -1825.320
  20576921.582    20576921.0394   20576927.7724  108132531.715 8  84259141.07347
      -592.734        -461.874
  22051085.594    22051085.1984   22051093.3574  115879309.683 7  90295584.63045
      3218.096        2507.609
  22157307.803    22157306.8124   22157315.7384  116437430.224 7  90730471.66645
     -3024.781       -2356.973
  24947383.036    24947382.4444   24947395.6874  131099268.306 5 102155258.43541
     -3060.030       -2384.419
  24820259.309    24820258.7254   24820268.5024  130431329.695 6 101634813.52843
      3279.281        2555.291
  21134752.265    21134751.9054   21134759.1524  111063926.819 8  86543326.99246
      2475.466        1928.934
  22335573.766    22335572.7714   22335580.8364  117374334.896 7  91460560.27745
      2593.548        2020.946
 13  4  5 12 21 46.0000000  0 10G02G05G07G08G09G10G13G15G26G28
  24386125.718    24386125.8474   24386136.7004  128149880.787 6  99857023.10042
     -2987.816       -2328.157
  20809911.329    20809911.2484   20809917.1384  109356868.414 8  85213170.53547
       348.809         271.797
  21809223.445    21809223.3454   21809229.5444  114608280.454 7  89305170.46946
     -2346.690       -1828.588
  20578623.494    20578622.9454   20578629.6534  108141475.359 8  84266110.13847
      -599.741        -467.331
  22041906.766    22041906.3514   22041914.2724  115831074.187 7  90257998.54945
      3213.279        2503.852
  22165949.082    22165948.0214   22165956.8014  116482839.637 7  90765855.56845
     -3029.795       -2360.882
  24956118.594    24956119.0564   24956132.0694  131145175.966 5 102191030.52641
     -3060.970       -2385.208
  24810899.485    24810898.5354   24810908.8344  130382142.268 6 101596485.69343
      3278.958        2555.051
  21127692.873    21127692.4544   21127699.7214  111026830.298 8  86514420.62246
      2470.696        1925.216
  22328178.913    22328177.9464   22328186.1994  117335475.748 7  91430280.47645
      2587.623        2016.336
 13  4  5 12 22  1.0000000  0 10G02G05G07G08G09G10G13G15G26G28
  24394656.525    24394655.2984   24394666.1324  128194703.447 6  99891949.75342
     -2988.615       -2328.787
  20808929.329    20808929.1984   20808935.0964  109351707.802 8  85209149.26647
       339.245         264.346
  21815928.135    21815927.8264   21815933.8584  114643512.396 7  89332623.90746
     -2350.940       -1831.907
  20580345.539    20580344.9074   20580351.5464  108150523.968 8  84273160.99747
      -606.796        -472.827
  22032741.828    22032740.9624   22032749.2214  115782911.435 7  90220469.16345
      3208.366        2500.020
  22174604.262    22174603.6494   22174612.5194  116528324.516 7  90801298.27145
     -3034.909       -2364.858
  24964859.522    24964856.4534   24964869.7544  131191097.939 5 102226813.80941
     -3061.979       -2385.985
  24801539.311    24801539.4104   24801549.3914  130332959.701 6 101558161.64043
      3278.607        2554.771
  21120647.040    21120646.4724   21120653.9324  110989805.137 8  86485569.85946
      2465.883        1921.475
  22320801.367    22320800.4714   22320808.5154  117296705.917 7  91400070.26845
      2581.580        2011.620
 13  4  5 12 22 16.0000000  0 10G02G05G07G08G09G10G13G15G26G28
  24403187.415    24403188.1774   24403197.7574  128239538.226 6  99926885.83442
     -2989.457       -2329.440
  20807974.326    20807974.4644   20807980.2524  109346690.331 8  85205239.54447
       329.683         256.897
  21822644.593    21822644.4784   21822650.3694  114678807.868 7  89360126.85346
     -2355.196       -1835.219
  20582087.472    20582086.8534   20582093.5844  108159678.111 8  84280294.09547
      -613.836        -478.316
  22023590.375    22023589.8394   22023598.0714  115734822.327 7  90182997.15445
      3203.433        2496.171
  22183274.357    22183273.4634   22183282.5254  116573885.339 7  90836800.15945
     -3039.965       -2368.799
  24973599.454    24973598.9614   24973612.2454  131237034.729 5 102262608.61541
     -3062.988       -2386.764
  24792181.850    24792181.7194   24792191.0054  130283782.928 6 101519842.07943
      3278.208        2554.432
  21113615.217    21113614.7634   21113622.0004  110952852.202 7  86456775.38946
      2461.060        1917.710
  22313440.922    22313439.9444   22313447.7254  117258026.392 7  91369930.43745
      2575.558        2006.926
 13  4  5 12 22 31.0000000  0 10G02G05G07G08G09G10G13G15G26G28
  24411722.072    24411722.3174   24411732.4834  128284385.462 6  99961831.63642
     -2990.233       -2330.034
  20807047.179    20807047.1994   20807052.8334  109341816.872 8  85201442.03547
       320.092         249.422
  21829373.093    21829373.4454   21829379.2154  114714167.266 8  89387679.60846
     -2359.433       -1838.511
  20583849.636    20583849.0354   20583855.8004  108168938.331 8  84287509.84647
      -620.877        -483.799
  22014452.966    22014453.4334   22014461.2594  115686807.648 7  90145583.14245
      3198.488        2492.324
  22191959.161    22191958.0644   22191966.9584  116619522.423 7  90872361.46845
     -3045.005       -2372.725
  24982343.380    24982342.2864   24982356.8874  131282987.029 5 102298415.49841
     -3063.984       -2387.553
  24782824.599    24782824.7854   24782834.5104  130234612.611 6 101481527.55343
      3277.804        2554.114
  21106597.285    21106596.6014   21106603.9994  110915972.314 8  86428037.83346
      2456.215        1913.932
  22306097.835    22306096.9834   22306104.5114  117219438.054 7  91339861.65545
      2569.517        2002.214
 13  4  5 12 22 46.0000000  0 10G02G05G07G08G09G10G13G15G26G28
  24420258.267    24420257.6744   24420268.6594  128329243.586 6  99996785.90642
     -2990.833       -2330.502
  20806146.961    20806147.1914   20806152.6414  109337086.326 8  85197755.88947
       310.632         242.051
  21836113.763    21836113.7764   21836119.7804  114749589.254 7  89415281.14446
     -2363.536       -1841.710
  20585631.755    20585631.0614   20585637.8634  108178303.384 8  84294807.28747
      -627.809        -489.199
  22005330.856    22005330.3034   22005338.3624  115638866.501 7  90108226.42845
      3193.670        2488.569
  22200657.639    22200656.8684   22200665.6594  116665234.369 7  90907981.11345
     -3049.917       -2376.551
  24991090.359    24991091.1554   24991103.6264  131328953.703 5 102334233.54941
     -3064.915       -2388.207
  24773469.179    24773468.7104   24773478.5494  130185447.661 6 101443217.21543
      3277.495        2553.904
  21099592.804    21099592.3064   21099599.6804  110879164.542 7  86399356.47146
      2451.480        1910.238
  22298772.108    22298770.9794   22298778.6174  117180940.108 7  91309863.30445
      2563.560        1997.570
 13  4  5 12 23  1.0000000  0 10G02G05G07G08G09G10G13G15G26G28
  24428796.211    24428796.0744   24428807.0624  128374112.146 6 100031748.32442
     -2991.667       -2331.142
  20805274.102    20805274.2714   20805279.6444  109332498.820 8  85194181.20347
       301.011         234.558
  21842865.894    21842866.2594   21842872.2084  114785073.460 7  89442931.15346
     -2367.743       -1844.999
  20587433.758    20587433.0464   20587439.8884  108187772.987 8  84302186.19047
      -634.833        -494.672
  21996221.877    21996221.5194   21996229.3664  115590998.983 7  90070927.08745
      3188.648        2484.659
  22209370.604    22209369.8264   22209378.6524  116711020.952 7  90943658.91645
     -3054.973       -2380.498
  24999840.583    24999839.7224   24999855.0524  131374934.464 5 102370062.62741
     -3065.906       -2389.001
  24764114.141    24764114.0014   24764124.0574  130136287.952 6 101404910.97543
      3277.005        2553.506
  21092602.347    21092602.0574   21092609.1084  110842429.035 8  86370731.41446
      2446.563        1906.412
  22291463.431    22291462.3964   22291469.7874  117142532.821 7  91279935.59745
      2557.392        1992.774
 13  4  5 12 23 16.0000000  0 10G02G05G07G08G09G10G13G15G26G28
  24437336.823    24437335.9014   24437347.7484  128418991.332 6 100066718.99242
     -2992.234       -2331.624
  20804428.469    20804428.6544   20804434.0094  109328054.988 8  85190718.46247
       291.474         227.124
  21849630.512    21849630.4334   21849636.6154  114820620.390 7  89470630.04546
     -2371.857       -1848.198
  20589255.858    20589255.0714   20589261.8314  108197347.650 8  84309646.96647
      -641.785        -500.095
  21987127.206    21987126.6144   21987134.3514  115543205.847 7  90033685.71145
      3183.739        2480.837
  22218098.127    22218097.0564   22218105.8674  116756882.429 7  90979395.08045
     -3059.898       -2384.327
  25008593.561    25008593.3234   25008608.3244  131420930.014 5 102405903.23641
     -3066.820       -2389.741
  24754761.544    24754760.1654   24754770.4224  130087134.294 6 101366609.42443
      3276.760        2553.323
  21085625.823    21085625.4454   21085632.5064  110805766.480 8  86342163.20446
      2441.767        1902.673
  22284172.082    22284171.0974   22284178.4034  117104217.061 7  91250079.20645
      2551.357        1988.071
 13  4  5 12 23 31.0000000  0 10G02G05G07G08G09G10G13G15G26G28
  24445878.878    24445878.6004   24445889.7494  128463880.638 6 100101697.58642
     -2992.948       -2332.169
  20803609.999    20803610.3394   20803615.6084  109323754.756 8  85187367.62747
       281.898         219.661
  21856406.412    21856406.4994   21856412.8914  114856229.542 7  89498377.41245
     -2376.058       -1851.469
  20591097.862    20591097.0274   20591103.7974  108207027.008 8  84317189.32047
      -648.810        -505.563
  21978046.329    21978045.8624   21978053.7534  115495487.130 7  89996502.32245
      3178.755        2476.955
  22226839.284    22226838.5634   22226847.3084  116802818.265 7  91015189.19145
     -3064.868       -2388.211
  25017348.611    25017347.9854   25017362.1164  131466940.117 5 102441755.13841
     -3067.861       -2390.521
  24745408.213    24745407.8974   24745418.0484  130037986.627 6 101328312.56243
      3276.305        2552.953
  21078663.120    21078662.5684   21078669.6414  110769176.819 8  86313651.79846
      2436.858        1898.848
  22276898.254    22276897.5684   22276904.5924  117065992.889 7  91220294.17745
      2545.212        1983.274
 13  4  5 12 23 46.0000000  0 10G02G05G07G08G09G10G13G15G26G28
  24454422.874    24454422.1624   24454433.6264  128508779.847 6 100136683.88642
     -2993.574       -2332.657
  20802819.239    20802819.3094   20802824.6324  109319598.247 8  85184128.78247
       272.342         212.212
  21863194.382    21863194.4414   21863200.9994  114891900.739 7  89526173.11845
     -2380.099       -1854.620
  20592959.479    20592958.9014   20592965.6164  108216811.044 8  84324813.24147
      -655.709        -510.947
  21968979.975    21968979.8754   21968987.4754  115447843.029 7  89959377.08445
      3173.822        2473.103
  22235594.785    22235594.0294   22235602.7874  116848828.436 7  91051041.22045
     -3069.781       -2392.039
  25026107.195    25026107.5474   25026120.0854  131512964.705 5 102477618.37541
     -3068.749       -2391.230
  24736057.030    24736056.5334   24736066.0294  129988845.250 6 101290020.58943
      3275.932        2552.683
  21071714.055    21071714.0764   21071720.7754  110732660.394 8  86285197.46046
      2432.014        1895.073
  22269642.107    22269641.1434   22269648.2774  117027860.769 7  91190580.88645
      2539.092        1978.516
 13  4  5 12 24  1.0000000  0 10G02G05G07G08G09G10G13G15G26G28
  24462968.247    24462967.8714   24462979.8724  128553688.202 5 100171677.30542
     -2994.187       -2333.105
  20802055.647    20802055.5854   20802060.9754  109315585.323 8  85181001.81647
       262.750         204.745
  21869994.132    21869994.2914   21870000.6734  114927633.449 7  89554016.77745
     -2384.219       -1857.833
  20594841.268    20594840.6584   20594847.2794  108226699.268 8  84332518.35047
      -662.663        -516.363
  21959927.953    21959927.4314   21959935.3514  115400273.525 7  89922309.96645
      3168.823        2469.212
  22244364.408    22244363.6034   22244372.2144  116894912.382 7  91086950.73745
     -3074.706       -2395.872
  25034868.571    25034867.9574   25034881.2054  131559003.466 5 102513492.58741
     -3069.728       -2391.981
  24726705.964    24726706.6994   24726716.6174  129939709.910 6 101251733.35843
      3275.481        2552.314
  21064779.197    21064779.1574   21064785.9634  110696217.128 8  86256800.12746
      2427.093        1891.244
  22262403.165    22262402.5624   22262409.5264  116989820.749 7  91160939.34745
      2532.949        1973.720
 13  4  5 12 24 16.0000000  0 10G02G05G07G08G09G10G13G15G26G28
  24471516.760    24471515.3784   24471527.9264  128598604.978 5 100206677.27542
     -2994.783       -2333.584
  20801319.181    20801319.1864   20801324.5674  109311715.679 8  85177986.50047
       253.170         197.274
  21876805.849    21876805.6584   21876812.0754  114963427.162 7  89581907.96945
     -2388.299       -1861.018
  20596742.724    20596742.0724   20596748.7194  108236691.203 8  84340304.26947
      -669.612        -521.773
  21950889.840    21950889.7724   21950897.1684  115352778.338 7  89885300.76045
      3163.822        2465.310
  22253147.746    22253147.0274   22253155.7434  116941069.521 7  91122917.28845
     -3079.616       -2399.698
  25043631.671    25043631.3404   25043645.0434  131605055.922 5 102549377.48541
     -3070.635       -2392.701
  24717357.635    24717357.6254   24717366.9604  129890580.361 6 101213450.61243
      3275.071        2551.986
  21057857.885    21057858.1454   21057864.7964  110659846.750 8  86228459.58446
      2422.230        1887.455
  22255182.027    22255181.2794   22255188.2884  116951872.750 7  91131369.51745
      2526.756        1968.897
 13  4  5 12 24 31.0000000  0 10G02G05G07G08G09G10G13G15G26G28
  24480066.245    24480065.2074   24480076.8144  128643530.604 5 100241684.14742
     -2995.252       -2333.963
  20800610.162    20800610.1694   20800615.6574  109307990.121 8  85175083.45947
       243.668         189.874
  21883628.357    21883628.5264   21883635.2224  114999282.522 7  89609847.18045
     -2392.317       -1864.141
  20598663.992    20598663.4204   20598669.9514  108246787.597 8  84348171.58547
      -676.485        -527.129
  21941865.987    21941865.9294   21941873.5014  115305358.451 7  89848350.22645
      3158.924        2461.496
  22261945.238    22261944.4374   22261953.2864  116987300.346 7  91158941.25145
     -3084.435       -2403.446
  25052398.392    25052397.2624   25052411.6514  131651122.972 5 102585273.81341
     -3071.561       -2393.430
  24708010.019    24708009.9004   24708018.9094  129841457.478 6 101175173.05643
      3274.748        2551.775
  21050951.212    21050951.3214   21050957.8464  110623550.240 8  86200176.60846
      2417.425        1883.705
  22247978.512    22247977.7774   22247984.7894  116914018.088 7  91101872.42445
      2520.617        1964.110
 13  4  5 12 24 46.0000000  0 10G02G05G07G08G09G10G13G15G26G28
  24488616.549    24488616.1064   24488627.6734  128688464.184 6 100276697.21842
     -2995.862       -2334.454
  20799928.501    20799928.5674   20799934.1264  109304408.380 8  85172292.48447
       233.950         182.301
  21890463.049    21890463.1374   21890469.9084  115035198.807 7  89637833.87745
     -2396.489       -1867.396
  20600604.949    20600604.4474   20600610.9524  108256987.827 8  84356119.81247
      -683.520        -532.609
  21932856.461    21932856.2834   21932864.0604  115258013.640 7  89811458.20245
      3153.767        2457.488
  22270756.423    22270755.7534   22270764.5724  117033604.108 7  91195022.06045
     -3089.402       -2407.317
  25061166.638    25061167.3664   25061179.7624  131697204.203 5 102621181.13941
     -3072.598       -2394.256
  24698663.360    24698663.2634   24698672.3234  129792340.978 6 101136900.48443
      3274.198        2551.321
  21044058.128    21044058.2924   21044064.9124  110587327.398 8  86171951.03446
      2412.366        1879.762
  22240792.161    22240791.8164   22240799.0044  116876256.187 7  91072447.60245
      2514.308        1959.200
 13  4  5 12 25  1.0000000  0 10G02G05G07G08G09G10G13G15G26G28
  24497168.616    24497168.9714   24497179.6774  128733406.624 6 100311717.19042
     -2996.419       -2334.847
  20799274.658    20799274.5324   20799280.1854  109300971.493 8  85169614.38847
       224.326         174.798
  21897309.384    21897309.3714   21897316.4374  115071176.806 7  89665868.65645
     -2400.550       -1870.558
  20602565.750    20602565.4224   20602571.9544  108267292.658 8  84364149.55047
      -690.448        -538.013
  21923861.434    21923861.0924   21923869.2324  115210745.147 7  89774625.65045
      3148.689        2453.523
  22279581.808    22279581.0574   22279590.0374  117079981.623 7  91231160.33745
     -3094.271       -2411.128
  25069938.763    25069936.5754   25069951.4674  131743300.310 5 102657100.09041
     -3073.545       -2394.955
  24689317.101    24689318.2714   24689326.8414  129743232.130 6 101098633.86343
      3273.638        2550.910
  21037179.557    21037179.3794   21037186.2194  110551179.422 8  86143783.79646
      2407.393        1875.893
  22233624.409    22233623.8964   22233631.1574  116838588.534 7  91043096.22145
      2508.020        1954.307
 13  4  5 12 25 16.0000000  0 10G02G05G07G08G09G10G13G15G26G28
  24505722.052    24505722.2324   24505733.3874  128778356.410 5 100346742.87942
     -2996.861       -2335.195
  20798648.149    20798648.0464   20798653.7434  109297678.960 8  85167048.76647
       214.737         167.327
  21904167.451    21904167.3024   21904174.4554  115107215.455 7  89693950.69345
     -2404.560       -1873.688
  20604546.611    20604546.1324   20604552.6484  108277701.052 8  84372259.98447
      -697.312        -543.360
  21914881.192    21914880.9574   21914888.5534  115163552.241 7  89737851.98645
      3143.691        2449.631
  22288421.181    22288420.3054   22288429.3204  117126431.677 7  91267355.12845
     -3099.037       -2414.835
  25078714.068    25078713.3054   25078728.1074  131789410.442 5 102693029.95241
     -3074.414       -2395.637
  24679973.960    24679973.7584   24679983.2354  129694130.002 6 101060372.49742
      3273.288        2550.610
  21030314.766    21030314.5944   21030321.6594  110515105.509 8  86115674.27546
      2402.484        1872.058
  22226474.463    22226473.9664   22226480.9284  116801014.572 7  91013817.84045
      2501.841        1949.489
 13  4  5 12 25 31.0000000  0 10G02G05G07G08G09G10G13G15G26G28
  24514277.127    24514277.0394   24514288.1064  128823313.518 5 100381774.28442
     -2997.394       -2335.624
  20798048.854    20798048.9414   20798054.6874  109294530.584 8  85164595.47647
       205.075         159.799
  21911037.306    21911036.8224   21911043.9424  115143314.807 7  89722080.02945
     -2408.637       -1876.850
  20606547.071    20606546.4684   20606553.0914  108288213.129 8  84380451.21047
      -704.258        -548.772
  21905915.037    21905914.9214   21905922.5004  115116435.363 7  89701137.56845
      3138.569        2445.640
  22297273.970    22297273.3294   22297282.2084  117172954.220 7  91303606.40945
     -3103.919       -2418.643
  25087489.722    25087489.7184   25087504.1304  131835534.835 5 102728970.92341
     -3075.435       -2396.391
  24670631.291    24670631.9764   24670640.9754  129645035.058 6 101022116.73142
      3272.765        2550.212
  21023464.370    21023464.0194   21023471.1384  110479106.148 8  86087622.84046
      2397.456        1868.145
  22219341.842    22219341.4174   22219348.9104  116763534.889 7  90984612.93445
      2495.502        1944.548
 13  4  5 12 25 46.0000000  0 10G02G05G07G08G09G10G13G15G26G28
  24522834.733    24522834.2594   24522844.6454  128868277.183 6 100416810.77342
     -2997.795       -2335.938
  20797476.998    20797477.2924   20797483.0134  109291526.145 8  85162254.34647
       195.506         152.344
  21917918.101    21917917.8364   21917924.9464  115179474.164 7  89750256.11145
     -2412.623       -1879.966
  20608567.100    20608566.4734   20608573.2104  108298828.408 8  84388722.85247
      -711.117        -554.115
  21896963.419    21896963.1034   21896970.8694  115069394.259 7  89664482.19745
      3133.529        2441.711
  22306140.558    22306139.8964   22306148.6914  117219548.590 7  91339913.65645
     -3108.649       -2422.325
  25096270.545    25096270.6334   25096284.6904  131881672.947 5 102764922.58941
     -3076.310       -2397.115
  24661290.160    24661290.0284   24661299.1404  129595946.905 6 100983866.24342
      3272.288        2549.832
  21016627.997    21016627.8384   21016634.7544  110443181.110 8  86059629.32346
      2392.514        1864.297
  22212227.605    22212227.1364   22212234.5594  116726149.210 7  90955481.27245
      2489.257        1939.679
 13  4  5 12 26  1.0000000  0 10G02G05G07G08G09G10G13G15G26G28
  24531391.961    24531391.5504   24531402.7894  128913247.012 5 100451852.07642
     -2998.138       -2336.203
  20796932.815    20796932.9794   20796938.6614  109288665.544 8  85160025.30347
       185.922         144.876
  21924810.379    21924810.3094   21924817.1414  115215693.228 7  89778478.73345
     -2416.593       -1883.060
  20610606.596    20610606.0924   20610612.8414  108309546.647 8  84397074.72547
      -717.980        -559.466
  21888026.295    21888025.6834   21888033.5324  115022429.082 7  89627885.99645
      3128.511        2437.799
  22315020.893    22315020.1384   22315029.1064  117266214.505 7  91376276.65445
     -3113.417       -2426.039
  25105053.533    25105053.3084   25105065.5184  131927824.827 5 102800884.98841
     -3077.243       -2397.856
  24651950.299    24651950.8374   24651959.2314  129546865.510 5 100945621.04042
      3271.896        2549.524
  21009806.077    21009805.6504   21009812.6294  110407330.411 8  86031693.72946
      2387.582        1860.460
  22205131.152    22205130.6394   22205138.1864  116688857.874 7  90926423.12645
      2482.931        1934.757
 13  4  5 12 26 16.0000000  0 10G02G05G07G08G09G10G13G15G26G28
  24539950.213    24539949.1304   24539961.5854  128958223.016 5 100486898.17942
     -2998.681       -2336.607
  20796416.121    20796416.1824   20796421.8534  109285949.542 8  85157908.93047
       176.240         137.332
  21931713.896    21931713.9194   21931720.9214  115251972.089 7  89806747.95445
     -2420.609       -1886.193
  20612666.070    20612665.3614   20612672.0814  108320368.009 8  84405506.95347
      -724.876        -564.841
  21879103.487    21879102.8854   21879110.8414  114975540.325 7  89591349.34445
      3123.342        2433.769
  22323915.162    22323914.0234   22323923.1314  117312952.169 7  91412695.57045
     -3118.274       -2429.822
  25113837.329    25113838.1154   25113851.4824  131973990.803 5 102836858.34041
     -3078.287       -2398.659
  24642611.747    24642612.1044   24642621.0314  129497791.441 6 100907381.53242
      3271.318        2549.065
  21002997.953    21002997.7734   21003004.4894  110371554.745 8  86003816.60746
      2382.521        1856.511
  22198052.968    22198052.6284   22198059.9494  116651661.622 7  90897439.06645
      2476.525        1929.755
 13  4  5 12 26 31.0000000  0  9G02G05G07G08G09G10G15G26G28
  24548510.348    24548509.4494   24548520.7084  129003204.421 5 100521948.49642
     -2998.888       -2336.783
  20795926.451    20795926.7384   20795932.3784  109283377.630 8  85155904.83247
       166.687         129.888
  21938628.904    21938628.7984   21938635.8124  115288310.256 7  89835063.37845
     -2424.512       -1889.218
  20614744.716    20614744.1084   20614750.7974  108331291.978 8  84414019.13247
      -731.665        -570.131
  21870195.298    21870194.7514   21870202.9114  114928727.839 7  89554872.11045
      3118.323        2429.859
  22332822.339    22332821.5494   22332830.6224  117359760.796 7  91449169.77645
     -3122.913       -2433.439
  24633273.760    24633275.0144   24633283.6154  129448724.524 5 100869147.59542
      3270.921        2548.765
  20996204.077    20996204.2474   20996210.6694  110335853.764 8  85975997.67546
      2377.607        1852.678
  22190992.980    22190992.3484   22190999.7904  116614560.437 7  90868529.08345
      2470.259        1924.881
 13  4  5 12 26 46.0000000  0  9G02G05G07G08G09G10G15G26G28
  24557070.302    24557070.6364   24557081.6914  129048191.197 5 100557002.99842
     -2999.291       -2337.085
  20795464.735    20795464.8424   20795470.4704  109280950.246 8  85154013.36247
       156.959         122.306
  21945555.181    21945554.8714   21945562.1054  115324707.761 7  89863425.04645
     -2428.551       -1892.364
  20616842.853    20616842.3804   20616849.0764  108342318.708 8  84422611.38247
      -738.594        -575.525
  21861301.991    21861301.4604   21861309.1074  114881992.067 7  89518454.66645
      3113.129        2425.814
  22341743.343    22341742.3604   22341751.4844  117406640.570 7  91485699.41345
     -3127.723       -2437.183
  24623937.479    24623938.6294   24623947.7754  129399665.008 5 100830919.48341
      3270.380        2548.334
  20989425.029    20989424.7704   20989431.3074  110300228.056 8  85948237.39546
      2372.497        1848.700
  22183950.872    22183950.3214   22183957.9054  116577554.869 7  90839693.61145
      2463.801        1919.846
 13  4  5 12 27  1.0000000  0  9G02G05G07G08G09G10G15G26G28
  24565632.709    24565632.7634   24565643.9814  129093183.404 5 100592061.73942
     -2999.647       -2337.398
  20795030.486    20795030.4674   20795036.1214  109278667.917 8  85152234.91347
       147.352         114.819
  21952492.761    21952492.5584   21952499.6854  115361164.891 7  89891833.17045
     -2432.438       -1895.402
  20618960.813    20618960.2154   20618966.9854  108353448.461 8  84431283.91247
      -745.373        -580.812
  21852422.907    21852422.7304   21852430.4774  114835333.658 7  89482097.50545
      3107.991        2421.806
  22350677.958    22350676.9414   22350685.9844  117453591.649 7  91522284.61745
     -3132.411       -2440.843
  24614604.066    24614604.9884   24614613.6764  129350613.572 5 100792697.61241
      3269.827        2547.905
  20982659.960    20982659.7134   20982666.5784  110264678.168 8  85920536.20046
      2367.467        1844.782
  22176927.177    22176926.7084   22176934.1694  116540645.625 7  90810933.19345
      2457.419        1914.867
 13  4  5 12 27 16.0000000  0  9G02G05G07G08G09G10G15G26G28
  24574195.591    24574195.5024   24574207.0254  129138179.571 6 100627123.54442
     -2999.899       -2337.567
  20794623.491    20794623.5954   20794629.1494  109276529.654 8  85150568.73247
       137.734         107.329
  21959441.206    21959441.0704   21959448.1704  115397680.341 7  89920286.73245
     -2436.292       -1898.412
  20621098.141    20621097.5204   20621104.2774  108364680.130 8  84440035.85647
      -752.173        -586.109
  21843558.869    21843558.5104   21843566.3334  114788751.738 7  89445799.94045
      3102.908        2417.841
  22359625.607    22359624.8204   22359633.7094  117500612.565 7  91558924.23945
     -3137.053       -2444.454
  24605271.160    24605271.9094   24605281.3694  129301569.244 5 100754481.30441
      3269.381        2547.532
  20975909.169    20975909.0384   20975915.8294  110229203.246 8  85892893.42546
      2362.484        1840.890
  22169922.008    22169921.3494   22169928.6954  116503832.034 7  90782247.29445
      2451.043        1909.908
 13  4  5 12 27 31.0000000  0  9G02G05G07G08G09G10G15G26G28
  24582759.111    24582758.1994   24582770.0354  129183179.588 5 100662188.35342
     -3000.179       -2337.773
  20794244.096    20794244.2034   20794249.7264  109274535.783 8  85149015.06047
       128.108          99.826
  21966401.546    21966400.7814   21966408.0714  115434254.045 7  89948785.69245
     -2440.189       -1901.441
  20623255.015    20623254.2534   20623260.9214  108376013.700 8  84448867.20247
      -758.958        -591.398
  21834709.195    21834708.9024   21834716.3484  114742246.583 7  89409562.19445
      3097.781        2413.853
  22368586.785    22368585.8584   22368594.9034  117547703.232 7  91595618.21745
     -3141.706       -2448.071
  24595940.727    24595939.4434   24595949.1104  129252532.293 5 100716270.72441
      3268.816        2547.130
  20969172.712    20969172.6734   20969179.4394  110193803.696 8  85865309.37346
      2357.452        1836.974
  22162934.802    22162934.1074   22162941.5854  116467114.393 7  90753636.18545
      2444.637        1904.906
 13  4  5 12 27 46.0000000  0  9G02G05G07G08G09G10G15G26G28
  24591322.771    24591321.9944   24591333.3694  129228182.445 5 100697255.39042
     -3000.304       -2337.902
  20793892.129    20793892.2074   20793897.6244  109272685.790 8  85147573.49947
       118.544          92.368
  21973372.231    21973371.6744   21973378.6134  115470885.153 7  89977329.38445
     -2443.970       -1904.397
  20625430.841    20625430.1414   20625436.8764  108387448.318 8  84457777.28647
      -765.668        -596.621
  21825873.836    21825873.6044   21825881.3304  114695817.823 7  89373383.97145
      3092.693        2409.895
  22377561.052    22377559.9224   22377569.1864  117594862.904 7  91632365.96845
     -3146.296       -2451.661
  24586610.379    24586610.6614   24586617.9014  129203502.295 5 100678065.52941
      3268.402        2546.820
  20962450.884    20962450.2334   20962457.6164  110158479.022 7  85837783.66946
      2352.485        1833.104
  22155965.781    22155965.1134   22155972.5234  116430492.417 7  90725099.60845
      2438.253        1899.932
 13  4  5 12 28  1.0000000  0  9G02G05G07G08G09G10G15G26G28
  24599887.018    24599886.4454   24599897.9884  129273188.842 6 100732325.16442
     -3000.531       -2338.077
  20793567.642    20793567.7854   20793573.0764  109270980.728 8  85146244.87447
       108.839          84.808
  21980353.898    21980353.4944   21980360.3144  115507574.483 7  90005918.44445
     -2447.904       -1907.458
  20627626.245    20627625.4774   20627632.2334  108398985.013 8  84466766.91547
      -772.521        -601.969
  21817053.852    21817053.4714   21817060.9694  114649466.654 7  89337266.21745
      3087.489        2405.823
  22386548.577    22386547.6234   22386556.7584  117642092.410 7  91669168.13245
     -3150.965       -2455.297
  24577281.921    24577281.8004   24577291.0414  129154480.468 5 100639866.75341
      3267.822        2546.369
  20955742.843    20955742.6294   20955750.0554  110123230.440 8  85810317.26846
      2347.366        1829.111
  22149015.402    22149014.6284   22149022.0924  116393967.552 7  90696638.71045
      2431.729        1894.851
 13  4  5 12 28 16.0000000  0  9G02G05G07G08G09G10G15G26G28
  24608451.678    24608451.4554   24608462.3794  129318198.464 5 100767397.46542
     -3000.734       -2338.209
  20793270.864    20793271.0114   20793276.2194  109269420.528 8  85145029.13047
        99.191          77.291
  21987346.622    21987346.2684   21987353.2054  115544321.908 7  90034552.77945
     -2451.701       -1910.421
  20629840.972    20629840.2664   20629847.0804  108410623.792 8  84475836.08147
      -779.286        -607.229
  21808248.143    21808247.9234   21808255.2834  114603193.324 7  89301209.10345
      3082.310        2401.796
  22395549.009    22395548.3394   22395557.5054  117689391.485 7  91706024.50445
     -3155.540       -2458.863
  24567955.028    24567954.4514   24567964.7344  129105466.865 5 100601674.37741
      3267.279        2545.932
  20949050.067    20949049.7354   20949056.9934  110088058.270 8  85782910.39546
      2342.258        1825.135
  22142083.550    22142082.5324   22142090.2954  116357540.106 7  90668253.71845
      2425.293        1889.837
 13  4  5 12 28 31.0000000  0  9G02G05G07G08G09G10G15G26G28
  24617017.538    24617017.0544   24617028.6204  129363209.339 5 100802470.73742
     -3000.773       -2338.283
  20793001.231    20793001.4374   20793006.5614  109268003.741 8  85143925.13647
        89.605          69.821
  21994350.203    21994349.7104   21994356.6024  115581125.613 7  90063230.95845
     -2455.512       -1913.377
  20632074.737    20632074.1564   20632080.9454  108422362.634 8  84484983.22847
      -785.969        -612.446
  21799457.260    21799456.9134   21799464.4724  114556996.370 7  89265211.50345
      3077.192        2397.805
  22404563.079    22404561.9274   22404571.2604  117736758.168 7  91742933.55545
     -3160.059       -2462.384
  24558629.417    24558628.5464   24558638.8664  129056459.941 5 100563487.18941
      3266.792        2545.567
  20942371.395    20942371.1004   20942378.0674  110052960.936 8  85755561.84346
      2337.262        1821.243
  22135169.736    22135168.9594   22135176.6164  116321208.873 7  90639943.69545
      2418.834        1884.791
 13  4  5 12 28 46.0000000  0  9G02G05G07G08G09G10G15G26G28
  24625583.402    24625582.9434   24625594.4364  129408221.654 5 100837545.09142
     -3000.812       -2338.262
  20792759.111    20792759.1964   20792764.3574  109266731.072 8  85142933.43647
        80.055          62.385
  22001364.462    22001364.0864   22001370.9974  115617985.852 7  90091953.19945
     -2459.219       -1916.276
  20634327.750    20634327.2174   20634333.8894  108434201.948 8  84494208.65947
      -792.629        -617.634
  21790680.877    21790680.5004   21790688.0984  114510876.560 7  89229274.01745
      3072.103        2393.840
  22413589.298    22413588.4434   22413597.5874  117784192.718 7  91779895.49845
     -3164.538       -2465.868
  24549303.010    24549304.2864   24549314.1884  129007460.430 5 100525305.81641
      3266.412        2545.248
  20935706.861    20935706.7334   20935713.7844  110017939.252 8  85728272.23646
      2332.271        1817.353
  22128274.403    22128273.7024   22128281.2794  116284974.494 7  90611709.14345
      2412.418        1879.803
 13  4  5 12 29  1.0000000  0  9G02G05G07G08G09G10G15G26G28
  24634149.677    24634148.4324   24634160.1184  129453235.523 5 100872620.68642
     -3000.954       -2338.402
  20792544.425    20792544.4904   20792549.6584  109265602.931 8  85142054.36447
        70.419          54.873
  22008389.568    22008389.3324   22008396.2124  115654902.991 7  90120719.77845
     -2463.031       -1919.246
  20636599.987    20636599.5144   20636605.9844  108446142.258 8  84503512.78747
      -799.360        -622.878
  21781919.144    21781919.0534   21781926.6834  114464834.523 7  89193397.14245
      3066.881        2389.777
  22422628.770    22422627.7444   22422637.3154  117831695.436 7  91816910.55945
     -3169.102       -2469.436
  24539981.252    24539981.5194   24539991.0364  128958469.159 5 100487130.82642
      3265.807        2544.780
  20929057.115    20929056.7834   20929063.8454  109982993.893 8  85701042.11346
      2327.168        1813.377
  22121397.555    22121397.2094   22121404.7534  116248837.690 7  90583550.63645
      2405.847        1874.679
 13  4  5 12 29 16.0000000  0  9G02G05G07G08G09G10G15G26G28
  24642715.420    24642714.7704   24642726.1864  129498250.430 5 100907697.10142
     -3001.033       -2338.457
  20792357.147    20792357.2954   20792362.4724  109264619.260 8  85141287.85747
        60.755          47.341
  22015425.732    22015425.3614   22015432.1384  115691876.582 7  90149530.34445
     -2466.754       -1922.152
  20638891.273    20638890.8824   20638897.2524  108458183.099 8  84512895.25047
      -806.057        -628.094
  21773172.556    21773171.9924   21773179.8324  114418870.276 7  89157580.87245
      3061.669        2385.712
  22431681.274    22431679.9134   22431689.8404  117879265.872 7  91853978.38445
     -3173.623       -2472.949
  24530661.219    24530660.0234   24530670.3944  128909485.765 5 100448962.00542
      3265.266        2544.370
  20922421.500    20922421.6414   20922428.2974  109948124.826 8  85673871.41946
      2322.050        1809.389
  22114539.731    22114539.2034   22114546.8374  116212798.666 7  90555468.31845
      2399.334        1869.606
 13  4  5 12 29 31.0000000  0  9G02G05G07G08G09G10G15G26G28
  24651281.694    24651281.1134   24651292.5334  129543265.755 5 100942773.82642
     -3001.042       -2338.438
  20792197.295    20792197.5424   20792202.7794  109263779.782 8  85140633.71247
        51.192          39.888
  22022472.541    22022471.8644   22022478.6744  115728906.364 7  90178384.68445
     -2470.508       -1925.072
  20641201.591    20641201.1634   20641207.5324  108470324.025 8  84522355.70347
      -812.687        -633.262
  21764440.588    21764440.0764   21764447.8724  114372983.699 7  89121825.12245
      3056.528        2381.709
  22440746.551    22440745.3354   22440755.1524  117926903.558 7  91891098.61445
     -3178.078       -2476.425
  24521340.989    24521340.6424   24521350.6504  128860510.182 6 100410799.25442
      3264.784        2543.972
  20915800.869    20915800.8124   20915807.2934  109913331.976 8  85646760.12446
      2317.016        1805.462
  22107700.456    22107699.8684   22107707.3584  116176857.450 7  90527462.20945
      2392.835        1864.541
 13  4  5 12 29 46.0000000  0  9G02G05G07G08G09G10G15G26G28
  24659847.798    24659847.4354   24659859.2884  129588280.926 5 100977850.42342
     -3000.938       -2338.386
  20792065.009    20792065.1454   20792070.4214  109263084.372 8  85140091.82847
        41.611          32.426
  22029529.431    22029529.2084   22029535.8834  115765991.842 7  90207282.43745
     -2474.127       -1927.893
  20643531.009    20643530.4614   20643536.8484  108482564.730 8  84531893.90947
      -819.306        -638.423
  21755723.372    21755722.5914   21755730.7304  114327174.757 7  89086129.88445
      3051.383        2377.695
  22449824.512    22449823.2914   22449833.0074  117974607.961 7  91928270.82345
     -3182.437       -2479.821
  24512022.329    24512022.8244   24512031.8094  128811542.446 6 100372642.61242
      3264.304        2543.604
  20909194.505    20909194.4254   20909201.0804  109878615.308 8  85619708.19446
      2311.931        1801.505
  22100879.819    22100879.1964   22100886.5954  116141014.185 7  90499532.43245
      2386.354        1859.493
 13  4  5 12 30  1.0000000  0  9G02G05G07G08G09G10G15G26G28
  24668414.116    24668413.7284   24668425.1414  129633295.338 5 101012926.42542
     -3000.977       -2338.404
  20791960.163    20791960.0904   20791965.5194  109262532.699 8  85139661.94347
        31.974          24.917
  22036597.335    22036596.7654   22036603.3174  115803132.182 7  90236222.93745
     -2477.870       -1930.812
  20645879.240    20645878.6714   20645885.0644  108494904.790 8  84541509.53247
      -825.997        -643.631
  21747020.705    21747020.4794   21747028.2484  114281443.362 7  89050495.06145
      3046.173        2373.633
  22458914.767    22458913.6034   22458923.5514  118022378.447 7  91965494.52945
     -3186.920       -2483.311
  24502705.614    24502706.4444   24502714.9854  128762582.163 6 100334491.79042
      3263.726        2543.161
  20902602.603    20902602.4184   20902609.2924  109843974.667 8  85592715.50246
      2306.825        1797.525
  22094077.877    22094077.0004   22094084.4114  116105268.812 7  90471678.93845
      2379.740        1854.339
 13  4  5 12 30 16.0000000  0  9G02G05G07G08G09G10G15G26G28
  24676979.317    24676979.4164   24676991.6004  129678309.173 5 101048002.00742
     -3000.913       -2338.357
  20791882.570    20791882.6144   20791888.0434  109262125.525 8  85139344.65647
        22.327          17.395
  22043675.348    22043674.7384   22043681.5794  115840327.985 7  90265206.64845
     -2481.561       -1933.681
  20648246.431    20648245.8414   20648252.3214  108507344.710 8  84551202.96747
      -832.648        -648.817
  21738333.371    21738333.0144   21738340.8634  114235790.302 7  89014921.27145
      3040.927        2369.554
  22468017.524    22468016.5784   22468026.7574  118070215.424 7  92002770.04245
     -3191.343       -2486.761
  24493390.458    24493391.1404   24493399.9524  128713630.206 6 100296347.42842
      3263.184        2542.749
  20896025.350    20896025.1774   20896031.8504  109809410.914 8  85565782.72046
      2301.694        1793.531
  22087294.163    22087293.6784   22087301.1924  116069622.216 7  90443902.41045
      2373.121        1849.189
 13  4  5 12 30 31.0000000  0  9G02G05G07G08G09G10G15G26G28
  24685545.593    24685545.4934   24685557.9374  129723322.562 5 101083077.18142
     -3000.804       -2338.270
  20791832.664    20791832.7514   20791838.1914  109261863.395 8  85139140.39547
        12.680           9.874
  22050764.090    22050763.7794   22050770.1454  115877579.232 7  90294233.58745
     -2485.234       -1936.549
  20650632.742    20650632.0274   20650638.5814  108519884.623 8  84560974.31547
      -839.299        -653.998
  21729660.679    21729660.5854   21729668.3594  114190216.165 7  88979408.99145
      3035.682        2365.463
  22477133.479    22477132.3524   22477142.4824  118118119.077 7  92040097.51045
     -3195.756       -2490.193
  24484076.935    24484076.4104   24484086.7604  128664687.098 6 100258209.98042
      3262.598        2542.306
  20889462.658    20889462.6554   20889469.3764  109774924.499 8  85538910.20946
      2296.549        1789.517
  22080529.864    22080529.2504   22080536.4704  116034075.142 7  90416203.43845
      2366.517        1844.034
 13  4  5 12 30 46.0000000  0  9G02G05G07G08G09G10G15G26G28
  24694111.535    24694111.1414   24694123.5754  129768334.258 5 101118151.06042
     -3000.756       -2338.215
  20791810.450    20791810.3904   20791815.7504  109261745.394 8  85139048.43947
         3.069           2.390
  22057862.771    22057862.6834   22057869.1934  115914885.093 7  90323303.06445
     -2488.879       -1939.385
  20653037.786    20653037.1054   20653043.7064  108532523.529 8  84570822.80447
      -845.886        -659.131
  21721003.271    21721002.8674   21721010.6144  114144720.371 7  88943957.74045
      3030.445        2361.385
  22486261.880    22486260.7514   22486270.8904  118166088.251 7  92077476.03745
     -3200.133       -2493.601
  24474764.362    24474765.0634   24474774.4864  128615752.055 5 100220078.81743
      3262.056        2541.865
  20882914.814    20882914.6724   20882921.5114  109740514.902 8  85512097.55146
      2291.419        1785.518
  22073784.204    22073783.7944   22073791.0324  115998626.939 7  90388581.50045
      2359.903        1838.881
 13  4  5 12 31  1.0000000  0  9G02G05G07G08G09G10G15G26G28
  24702675.861    24702675.0314   24702688.3464  129813344.209 5 101153223.59542
     -3000.623       -2338.132
  20791815.364    20791815.5144   20791820.8454  109261772.004 8  85139069.16747
        -6.623          -5.159
  22064972.091    22064972.2414   22064978.7374  115952245.678 7  90352415.18345
     -2492.522       -1942.218
  20655461.667    20655461.0474   20655467.6434  108545261.653 8  84580748.60947
      -852.522        -664.302
  21712360.794    21712360.2064   21712368.3704  114099303.342 7  88908567.87445
      3025.133        2357.242
  22495402.631    22495401.4934   22495411.6104  118214123.101 7  92114905.73745
     -3204.510       -2497.025
  24465454.150    24465454.1054   24465463.7444  128566825.607 6 100181954.35243
      3261.429        2541.376
  20876381.676    20876381.4764   20876388.3674  109706182.598 8  85485345.12446
      2286.206        1781.462
  22067057.730    22067057.3034   22067064.2744  115963278.379 7  90361037.21345
      2353.218        1833.678
 13  4  5 12 31 16.0000000  0  9G02G05G07G08G09G10G15G26G28
  24711241.254    24711240.7924   24711253.0044  129858352.428 5 101188294.77441
     -3000.527       -2338.070
  20791848.059    20791848.1724   20791853.5014  109261943.514 8  85139202.80847
       -16.290         -12.696
  22072092.040    22072092.2134   22072098.6134  115989661.087 7  90381570.02545
     -2496.202       -1945.094
  20657904.453    20657903.9224   20657910.5264  108558099.164 8  84590751.85347
      -859.164        -669.477
  21703733.357    21703732.6744   21703740.7024  114053965.540 7  88873239.75345
      3019.865        2353.132
  22504556.290    22504554.6724   22504564.9244  118262223.567 7  92152386.55945
     -3208.901       -2500.445
  24456145.813    24456145.7164   24456154.9454  128517908.105 6 100143836.84443
      3260.858        2540.911
  20869863.160    20869863.0384   20869869.7494  109671928.067 8  85458653.30046
      2281.014        1777.420
  22060349.924    22060349.6614   22060356.6674  115928030.014 8  90333571.00145
      2346.512        1828.452
 13  4  5 12 31 31.0000000  0  9G02G05G07G08G09G10G15G26G28
  24719806.414    24719805.1584   24719818.3534  129903358.398 5 101223364.17841
     -3000.302       -2337.892
  20791907.967    20791908.3764   20791913.5974  109262259.851 8  85139449.29647
       -25.933         -20.202
  22079222.539    22079222.4524   22079229.0454  116027130.996 7  90410767.32745
     -2499.829       -1947.918
  20660366.277    20660365.6734   20660372.3264  108571035.840 8  84600832.37347
      -865.763        -674.622
  21695120.992    21695119.9744   21695127.8724  114008706.928 7  88837973.32045
      3014.609        2349.046
  22513721.686    22513720.3914   22513730.4874  118310389.226 7  92189918.19945
     -3213.209       -2503.802
  24446838.544    24446838.6254   24446847.6634  128468999.570 6 100105726.33643
      3260.269        2540.469
  20863359.493    20863359.4304   20863366.1534  109637751.314 8  85432022.07946
      2275.858        1773.398
  22053661.700    22053661.0244   22053668.1764  115892881.833 7  90306182.86045
      2339.851        1823.254
 13  4  5 12 31 46.0000000  0  9G02G05G07G08G09G10G15G26G28
  24728369.013    24728369.8514   24728381.3094  129948361.649 5 101258431.51441
     -3000.113       -2337.727
  20791995.747    20791996.1664   20792001.4084  109262720.943 8  85139808.58747
       -35.566         -27.715
  22086362.793    22086363.3764   22086369.6924  116064655.158 7  90440006.91545
     -2503.418       -1950.718
  20662847.029    20662846.2624   20662852.9054  108584071.331 8  84610989.88647
      -872.325        -679.731
  21686523.446    21686522.4934   21686530.8104  113963527.706 7  88802768.75545
      3009.297        2344.900
  22522899.509    22522898.5974   22522908.5654  118358619.786 7  92227500.39245
     -3217.533       -2507.167
  24437533.320    24437533.7494   24437542.5394  128420100.092 6 100067622.87443
      3259.623        2539.977
  20856870.717    20856870.5154   20856877.2924  109603652.469 8  85405451.56946
      2270.642        1769.333
  22046992.757    22046991.6114   22046998.6394  115857834.272 7  90278873.10745
      2333.153        1818.032
 13  4  5 12 32  1.0000000  0  9G02G05G07G08G09G10G15G26G28
  24736932.229    24736933.4134   24736946.2944  129993362.397 5 101293496.84441
     -2999.789       -2337.460
  20792111.208    20792111.5184   20792116.8074  109263327.289 8  85140281.05647
       -45.202         -35.221
  22093513.841    22093514.2854   22093520.7484  116102233.878 7  90469289.01345
     -2507.009       -1953.518
  20665346.375    20665345.7704   20665352.3774  108597206.080 8  84621224.75247
      -878.901        -684.860
  21677940.978    21677940.3054   21677948.5274  113918428.471 7  88767626.52345
      3004.009        2340.786
  22532090.126    22532089.1964   22532099.0324  118406915.517 7  92265133.37945
     -3221.817       -2510.494
  24428229.527    24428230.4174   24428239.1384  128371210.233 6 100029526.91943
      3259.076        2539.559
  20850396.800    20850396.5344   20850403.4384  109569632.276 8  85378942.34646
      2265.451        1765.285
  22040342.124    22040341.5544   22040348.5034  115822888.102 7  90251642.38745
      2326.421        1812.789
 13  4  5 12 32 16.0000000  0  9G02G05G07G08G09G10G15G26G28
  24745495.599    24745496.1304   24745507.9214  130038359.830 5 101328559.58241
     -2999.770       -2337.490
  20792254.094    20792254.3594   20792259.7114  109264078.253 8  85140866.21547
       -54.923         -42.799
  22100674.833    22100675.5644   22100681.9574  116139866.136 7  90498612.81745
     -2510.616       -1956.324
  20667864.697    20667864.0284   20667870.6224  108610439.287 8  84631536.32847
      -885.523        -690.015
  21669374.286    21669373.4904   21669381.7104  113873408.880 7  88732546.35745
      2998.627        2336.591
  22541293.014    22541291.7374   22541301.5764  118455275.537 7  92302816.45745
     -3226.163       -2513.885
  24418928.336    24418928.6544   24418937.4794  128322329.558 6  99991438.11043
      3258.371        2538.988
  20843937.667    20843937.6534   20843944.2714  109535690.269 8  85352494.04346
      2260.155        1761.159
  22033711.047    22033710.6464   22033717.6084  115788042.899 7  90224490.33445
      2319.613        1807.484
 13  4  5 12 32 31.0000000  0  9G02G05G07G08G09G10G15G26G28
  24754057.271    24754056.9694   24754070.5774  130083353.060 5 101363619.07041
     -2999.402       -2337.201
  20792424.664    20792424.7194   20792430.1524  109264974.009 8  85141564.20247
       -64.540         -50.289
  22107846.214    22107846.6754   22107853.1434  116177551.496 7  90527978.00445
     -2514.152       -1959.081
  20670401.703    20670401.0194   20670407.5814  108623770.491 8  84641924.27147
      -892.035        -695.091
  21660822.509    21660822.1514   21660829.8454  113828468.737 7  88697528.09245
      2993.355        2332.481
  22550507.656    22550506.6184   22550516.3554  118503699.191 7  92340549.12445
     -3230.388       -2517.173
  24409628.323    24409628.5764   24409637.8684  128273457.987 6  99953356.38943
      3257.791        2538.551
  20837493.671    20837493.5304   20837500.3784  109501826.322 8  85326106.57246
      2254.982        1757.125
  22027099.682    22027098.9454   22027105.9074  115753298.684 7  90197416.96945
      2312.892        1802.254
 13  4  5 12 32 46.0000000  0  9G02G05G07G08G09G10G15G26G28
  24762618.855    24762618.2814   24762631.8164  130128342.382 5 101398675.49641
     -2999.173       -2336.991
  20792622.632    20792622.7674   20792628.2874  109266015.008 8  85142375.36747
       -74.237         -57.842
  22115027.694    22115028.2554   22115034.7644  116215290.323 7  90557384.85245
     -2517.684       -1961.832
  20672957.021    20672956.6334   20672963.2364  108637200.004 8  84652388.81847
      -898.556        -700.173
  21652286.012    21652285.3804   21652293.3594  113783608.789 7  88662572.31445
      2987.999        2328.303
  22559734.560    22559733.3664   22559743.1444  118552186.806 7  92378331.62745
     -3234.628       -2520.482
  24400330.236    24400330.8354   24400339.2344  128224596.058 6  99915282.18043
      3257.115        2538.029
  20831064.650    20831064.2784   20831071.2634  109468041.200 8  85299780.51946
      2249.715        1753.019
  22020507.359    22020506.4794   22020513.5404  115718656.245 7  90170422.91445
      2306.110        1796.964
 13  4  5 12 33  1.0000000  0  8G05G07G08G09G10G15G26G28
  20792848.180    20792848.2704   20792853.8264  109267200.239 8  85143298.92147
       -83.865         -65.353
  22122219.489    22122219.6624   22122226.1014  116253081.696 7  90586832.63845
     -2521.235       -1964.587
  20675531.231    20675530.8114   20675537.3794  108650726.994 8  84662929.32247
      -905.098        -705.276
  21643764.494    21643763.9954   21643771.7894  113738828.374 7  88627678.51345
      2982.661        2324.152
  22568973.714    22568972.5594   22568981.9764  118600737.456 7  92416163.25245
     -3238.865       -2523.794
  24391033.182    24391034.2724   24391043.1004  128175743.305 6  99877215.14843
      3256.507        2537.526
  20824650.478    20824650.0344   20824657.0454  109434334.292 8  85273515.41546
      2244.486        1748.944
  22013934.342    22013933.6084   22013940.5674  115684115.171 8  90143507.85145
      2299.300        1791.655
 13  4  5 12 33 16.0000000  0  8G05G07G08G09G10G15G26G28
  20793101.298    20793101.4264   20793107.0634  109268530.717 8  85144335.65347
       -93.537         -72.888
  22129420.629    22129421.2764   22129427.8824  116290926.459 7  90616322.03345
     -2524.730       -1967.316
  20678124.015    20678123.6164   20678130.2174  108664352.388 8  84673546.50347
      -911.607        -710.342
  21635258.362    21635257.7164   21635265.5684  113694128.775 8  88592847.68345
      2977.254        2319.936
  22578224.385    22578223.6714   22578232.9594  118649351.935 7  92454044.61145
     -3243.102       -2527.085
  24381739.502    24381739.6974   24381749.0854  128126900.792 6  99839156.07843
      3255.821        2536.989
  20818251.280    20818250.8194   20818257.8644  109400706.912 8  85247312.27446
      2239.163        1744.801
  22007380.850    22007379.9274   22007387.1454  115649676.804 7  90116672.81545
      2292.458        1786.333
 13  4  5 12 33 31.0000000  0  8G05G07G08G09G10G15G26G28
  20793382.365    20793382.3044   20793387.8814  109270006.346 8  85145485.48347
      -103.164         -80.389
  22136632.835    22136632.8934   22136639.3344  116328823.918 7  90645852.48445
     -2528.213       -1970.039
  20680735.539    20680735.0124   20680741.6994  108678075.563 8  84684239.87747
      -918.092        -715.396
  21626767.606    21626767.0154   21626774.9974  113649509.858 8  88558079.72045
      2971.944        2315.805
  22587487.564    22587486.5304   22587496.0564  118698029.481 7  92491975.11245
     -3247.213       -2530.290
  24372446.330    24372447.0214   24372456.5074  128078068.316 6  99801104.82743
      3255.187        2536.531
  20811867.274    20811866.7594   20811873.9164  109367158.736 7  85221170.85646
      2233.947        1740.739
  22000846.891    22000846.1214   22000853.1394  115615340.904 7  90089917.62445
      2285.674        1781.046
 13  4  5 12 33 46.0000000  0  8G05G07G08G09G10G15G26G28
  20793690.749    20793690.8154   20793696.3584  109271627.100 8  85146748.40447
      -112.872         -87.951
  22143853.999    22143854.4214   22143860.9014  116366773.909 7  90675423.87845
     -2531.736       -1972.783
  20683365.445    20683364.8914   20683371.7804  108691896.415 8  84695009.36347
      -924.621        -720.485
  21618292.341    21618291.7464   21618299.6404  113604971.827 7  88523374.79245
      2966.514        2311.577
  22596762.662    22596761.6454   22596771.2874  118746769.836 7  92529954.55645
     -3251.431       -2533.576
  24363156.014    24363156.4534   24363165.2284  128029246.039 6  99763061.53643
      3254.498        2535.974
  20805498.081    20805497.8894   20805505.1244  109333690.104 8  85195091.42746
      2228.601        1736.572
  21994332.161    21994331.6584   21994338.8824  115581107.831 7  90063242.56645
      2278.775        1775.665
 13  4  5 12 34  1.0000000  0  8G05G07G08G09G10G15G26G28
  20794026.866    20794027.0034   20794032.4874  109273393.432 8  85148124.76247
      -122.617         -95.549
  22151085.934    22151086.2194   22151092.6274  116404776.737 7  90705036.44545
     -2535.292       -1975.552
  20686014.000    20686013.4254   20686020.4114  108705815.213 8  84705855.16947
      -931.192        -725.603
  21609832.599    21609832.0064   21609839.6804  113560515.156 7  88488733.25445
      2961.039        2307.308
  22606049.860    22606048.6404   22606058.2594  118795573.099 7  92567983.02245
     -3255.662       -2536.880
  24353867.764    24353867.7204   24353876.9314  127980434.405 6  99725026.51243
      3253.771        2535.389
  20799144.559    20799144.1524   20799151.3224  109300301.423 8  85169074.28346
      2223.218        1732.379
  21987837.544    21987837.1354   21987844.1664  115546978.313 7  90036648.19945
      2271.829        1770.253
 13  4  5 12 34 16.0000000  0  8G05G07G08G09G10G15G26G28
  20794390.354    20794390.7094   20794396.1674  109275304.561 8  85149613.94647
      -132.269        -103.070
  22158327.508    22158327.6754   22158334.0514  116442831.379 7  90734689.37245
     -2538.710       -1978.210
  20688681.258    20688680.4114   20688687.5364  108719830.952 8  84716776.51947
      -937.635        -730.625
  21601387.963    21601387.4014   21601395.3114  113516139.215 7  88454154.63145
      2955.669        2303.111
  22615348.624    22615347.5994   22615356.9504  118844438.360 7  92606059.80045
     -3259.781       -2540.090
  24344579.644    24344580.9324   24344590.9764  127931632.784 6  99686999.32143
      3253.087        2534.877
  20792805.920    20792805.5964   20792812.7394  109266992.168 8  85143119.04246
      2217.933        1728.260
  21981362.658    21981362.0364   21981369.0224  115512951.789 7  90010134.08445
      2264.942        1764.888
 13  4  5 12 34 31.0000000  0  8G05G07G08G09G10G15G26G28
  20794781.844    20794782.0214   20794787.5414  109277361.094 8  85151216.43647
      -141.936        -110.599
  22165579.259    22165579.3684   22165585.6404  116480938.176 7  90764382.94945
     -2542.191       -1980.921
  20691366.799    20691366.0624   20691373.1254  108733944.056 8  84727773.73547
      -944.115        -735.672
  21592959.025    21592958.3044   21592966.3164  113471844.786 8  88419639.52545
      2950.263        2298.899
  22624658.789    22624658.1394   22624667.5054  118893365.750 7  92644184.97744
     -3263.890       -2543.286
  24335295.561    24335296.7384   24335305.8184  127882841.774 6  99648980.38943
      3252.395        2534.343
  20786482.842    20786482.3724   20786489.3834  109233763.077 8  85117226.26146
      2212.611        1724.111
  21974907.705    21974906.8664   21974913.8744  115479029.100 7  89983700.87845
      2258.037        1759.511
 13  4  5 12 34 46.0000000  0  8G05G07G08G09G10G15G26G28
  20795200.828    20795200.9114   20795206.5444  109279562.701 8  85152931.97247
      -151.617        -118.141
  22172840.401    22172840.4784   22172846.6554  116519096.399 7  90794116.61145
     -2545.616       -1983.593
  20694070.719    20694070.1604   20694077.2514  108748154.068 8  84738846.46247
      -950.567        -740.700
  21584545.446    21584544.6604   21584552.7824  113427631.672 7  88385187.78345
      2944.826        2294.668
  22633981.460    22633980.3864   22633989.8704  118942354.779 7  92682358.19244
     -3267.994       -2546.479
  24326013.603    24326013.8674   24326023.3054  127834061.195 5  99610969.57943
      3251.670        2533.787
  20780174.690    20780174.3604   20780181.2464  109200613.942 8  85091395.78446
      2207.265        1719.948
  21968472.073    21968471.3534   21968478.1974  115445210.138 8  89957348.49545
      2251.110        1754.108
 13  4  5 12 35  1.0000000  0  8G05G07G08G09G10G15G26G28
  20795647.251    20795647.3684   20795653.1474  109281909.422 8  85154760.57947
      -161.302        -125.691
  22180111.770    22180111.8284   22180117.8394  116557305.968 7  90823890.26845
     -2549.028       -1986.257
  20696793.332    20696792.6384   20696799.6744  108762460.690 8  84749994.47747
      -957.029        -745.734
  21576147.673    21576147.2404   21576154.6064  113383500.026 8  88350799.51445
      2939.354        2290.404
  22643315.264    22643314.4464   22643323.9204  118991405.237 7  92720579.27744
     -3272.101       -2549.688
  24316732.552    24316733.4624   24316742.5684  127785291.249 6  99572967.08243
      3250.943        2533.183
  20773881.875    20773881.6524   20773888.4294  109167544.942 8  85065627.75246
      2201.891        1715.759
  21962056.312    21962055.6164   21962062.4574  115411495.234 7  89931077.20045
      2244.151        1748.684
 13  4  5 12 35 16.0000000  0  8G05G07G08G09G10G15G26G28
  20796121.375    20796121.3934   20796127.2224  109284400.764 8  85156701.87647
      -170.945        -133.205
  22187392.896    22187392.4724   22187398.4774  116595566.223 7  90853703.42645
     -2552.387       -1988.879
  20699534.197    20699533.4954   20699540.3794  108776863.450 8  84761217.39347
      -963.415        -750.705
  21567764.929    21567764.7054   21567772.0624  113339449.589 7  88316474.52946
      2933.953        2286.195
  22652660.739    22652660.2094   22652669.8794  119040516.415 7  92758847.67045
     -3276.106       -2552.803
  24307453.501    24307453.9194   24307462.9744  127736531.659 5  99534972.63042
      3250.283        2532.688
  20767604.388    20767604.0734   20767610.8174  109134555.932 8  85039922.04346
      2196.579        1711.618
  21955660.421    21955659.8404   21955666.3854  115377884.372 8  89904886.97345
      2237.218        1743.289
 13  4  5 12 35 31.0000000  0  8G05G07G08G09G10G15G26G28
  20796623.402    20796623.3004   20796629.2294  109287038.477 8  85158757.23247
      -180.776        -140.866
  22194683.294    22194683.1544   22194688.9524  116633878.434 7  90883557.06645
     -2555.914       -1991.619
  20702293.342    20702292.8934   20702299.6784  108791363.514 8  84772516.14647
      -969.963        -755.811
  21559398.151    21559397.9154   21559405.5054  113295481.964 7  88282214.06346
      2928.380        2281.852
  22662018.460    22662017.1744   22662027.0164  119089689.293 7  92797164.14344
     -3280.276       -2556.057
  24298177.794    24298177.7294   24298187.6084  127687783.892 5  99496987.39142
      3249.403        2532.010
  20761342.083    20761341.9464   20761348.6984  109101648.419 8  85014279.84646
      2191.056        1707.315
  21949284.337    21949283.8934   21949290.4204  115344379.069 7  89878779.00645
      2230.147        1737.774
 13  4  5 12 35 46.0000000  0  8G05G07G08G09G10G15G26G28
  20797152.973    20797152.8024   20797158.7834  109289821.330 8  85160925.68247
      -190.370        -148.342
  22201983.243    22201983.2524   22201989.3024  116672241.271 7  90913450.16945
     -2559.208       -1994.190
  20705070.966    20705070.5284   20705077.1674  108805959.809 8  84783889.87547
      -976.289        -760.741
  21551046.963    21551046.0544   21551054.3654  113251596.249 7  88248017.44145
      2922.973        2277.638
  22671387.118    22671386.1864   22671395.7674  119138922.558 7  92835527.65644
     -3284.254       -2559.139
  24288902.983    24288903.4004   24288913.4694  127639047.067 5  99459010.66142
      3248.742        2531.484
  20755095.560    20755095.2704   20755101.9624  109068821.538 8  84988700.47346
      2185.764        1703.191
  21942928.430    21942927.9594   21942934.5204  115310978.365 8  89852752.53345
      2223.207        1732.371
 13  4  5 12 36  1.0000000  0  8G05G07G08G09G10G15G26G28
  20797710.245    20797709.9984   20797715.9694  109292749.257 8  85163207.17747
      -199.966        -155.819
  22209292.824    22209293.2284   22209298.9764  116710654.609 7  90943382.62345
     -2562.480       -1996.750
  20707866.968    20707866.4404   20707873.0154  108820652.129 8  84795338.43547
      -982.615        -765.673
  21542711.172    21542710.6184   21542718.9594  113207792.623 7  88213884.77846
      2917.559        2273.421
  22680767.558    22680766.5264   22680776.2844  119188216.046 7  92873938.11244
     -3288.194       -2562.228
  24279630.602    24279631.0584   24279640.6934  127590321.155 5  99421042.49142
      3248.090        2530.963
  20748864.056    20748863.7374   20748870.6274  109036075.550 8  84963184.13846
      2180.442        1699.046
  21936592.235    21936591.8154   21936598.3964  115277682.790 8  89826807.98945
      2216.227        1726.927
 13  4  5 12 36 16.0000000  0  8G05G07G08G09G10G15G26G28
  20798295.181    20798294.7734   20798300.6924  109295822.347 8  85165601.78447
      -209.695        -163.400
  22216612.558    22216612.3954   22216618.6684  116749118.266 7  90973354.27145
     -2565.924       -1999.417
  20710681.154    20710680.5974   20710687.1224  108835440.492 8  84806861.82747
      -989.093        -770.720
  21534391.486    21534390.9874   21534398.9604  113164071.296 7  88179816.24346
      2912.025        2269.114
  22690158.856    22690158.1884   22690167.6474  119237569.482 7  92912395.27844
     -3292.221       -2565.354
  24270361.033    24270361.1514   24270371.2744  127541606.777 6  99383083.26642
      3247.237        2530.320
  20742648.011    20742647.7644   20742654.7094  109003410.639 8  84937730.97646
      2174.966        1694.780
  21930276.692    21930275.8904   21930282.6124  115244492.715 7  89800945.64645
      2209.145        1721.409
 13  4  5 12 36 31.0000000  0  8G05G07G08G09G10G15G26G28
  20798907.467    20798907.2174   20798913.1814  109299040.733 8  85168109.61547
      -219.393        -170.952
  22223940.865    22223941.4294   22223947.4924  116787632.225 7  91003365.12245
     -2569.255       -2002.009
  20713513.461    20713513.0364   20713519.5414  108850324.740 8  84818459.93847
      -995.476        -775.691
  21526087.344    21526087.0584   21526094.6094  113120432.557 7  88145812.06346
      2906.521        2264.820
  22699562.221    22699561.4794   22699570.8474  119286982.804 7  92950899.09544
     -3296.217       -2568.463
  24261093.592    24261093.2534   24261102.9934  127492903.958 6  99345133.04442
      3246.500        2529.756
  20736447.686    20736447.5524   20736454.3024  108970827.215 8  84912341.31746
      2169.530        1690.537
  21923981.020    21923980.0704   21923986.7424  115211408.523 8  89775165.81145
      2202.076        1715.906
 13  4  5 12 36 46.0000000  0  8G05G07G08G09G10G15G26G28
  20799547.614    20799547.3704   20799553.3154  109302404.874 8  85170731.01447
      -229.135        -178.545
  22231279.863    22231279.9174   22231286.1994  116826196.590 7  91033415.25245
     -2572.650       -2004.663
  20716364.086    20716363.7334   20716370.2114  108865305.124 8  84830132.96347
     -1001.910        -780.711
  21517799.287    21517798.5254   21517806.2554  113076876.923 7  88111872.63546
      2900.953        2260.478
  22708976.602    22708975.8154   22708985.3094  119336456.092 7  92989449.65145
     -3300.198       -2571.572
  24251827.279    24251827.5454   24251837.7894  127444213.211 5  99307192.26642
      3245.643        2529.076
  20730262.859    20730262.5104   20730269.4564  108938325.765 8  84887015.52646
      2164.010        1686.239
  21917705.166    21917704.4594   21917711.3284  115178430.820 8  89749468.95345
      2194.962        1710.359
 13  4  5 12 37  1.0000000  0  8G05G07G08G09G10G15G26G28
  20800215.704    20800215.2634   20800221.1524  109305914.689 8  85173465.92947
      -238.833        -186.105
  22238628.059    22238628.1594   22238634.2634  116864810.925 7  91063504.32345
     -2575.979       -2007.259
  20719232.983    20719232.6554   20719239.1304  108880381.344 8  84841880.66047
     -1008.284        -785.673
  21509526.273    21509525.7544   21509533.6034  113033404.370 7  88077997.93946
      2895.413        2256.166
  22718402.459    22718401.7924   22718411.0994  119385988.855 7  93028046.55645
     -3304.154       -2574.666
  24242564.485    24242565.2384   24242573.6414  127395534.404 6  99269260.77142
      3244.863        2528.454
  20724093.395    20724093.0984   20724100.2844  108905906.201 8  84861753.54746
      2158.564        1681.993
  21911449.704    21911449.2724   21911456.1034  115145559.513 7  89723854.99145
      2187.852        1704.823
 13  4  5 12 37 16.0000000  0  8G05G07G08G09G10G15G26G28
  20800911.222    20800910.9414   20800916.8004  109309570.491 8  85176314.60047
      -248.608        -193.717
  22245985.537    22245985.8464   22245992.1304  116903475.542 7  91093632.56645
     -2579.372       -2009.905
  20722120.171    20722119.7934   20722126.4274  108895553.553 8  84853703.15547
     -1014.694        -790.672
  21501269.662    21501269.0414   21501276.7714  112990015.466 7  88044188.43145
      2889.792        2251.786
  22727839.693    22727838.7434   22727848.1344  119435581.251 7  93066689.91844
     -3308.187       -2577.806
  24233303.310    24233303.7254   24233312.5764  127346868.118 6  99231339.00942
      3243.963        2527.764
  20717940.137    20717939.5784   20717946.7084  108873569.196 8  84836555.90046
      2153.036        1677.684
  21905214.898    21905214.2924   21905221.4384  115112795.478 7  89698324.63645
      2180.648        1699.200
 13  4  5 12 37 31.0000000  0  8G05G07G08G09G10G15G26G28
  20801634.514    20801634.4404   20801640.1464  109313371.809 8  85179276.65847
      -258.311        -201.282
  22253352.649    22253353.0604   22253359.2814  116942189.859 7  91123799.53845
     -2582.643       -2012.452
  20725025.543    20725025.0134   20725031.7874  108910821.266 8  84865600.07347
     -1021.050        -795.625
  21493028.917    21493028.5664   21493035.7474  112946710.073 8  88010443.99046
      2884.185        2247.415
  22737288.283    22737287.3874   22737296.5014  119485232.671 7  93105379.27345
     -3312.115       -2580.875
  24224044.998    24224045.9274   24224054.0244  127298214.156 6  99193426.86042
      3243.153        2527.119
  20711802.048    20711801.7154   20711808.8394  108841314.555 8  84811422.42446
      2147.530        1673.396
  21899000.481    21898999.9084   21899006.9424  115080138.570 7  89672877.74645
      2173.475        1693.615
 13  4  5 12 37 46.0000000  0  8G05G07G08G09G10G15G26G28
  20802385.570    20802385.5384   20802391.2034  109317318.847 8  85182352.26347
      -267.988        -208.822
  22260729.370    22260729.4944   22260735.8284  116980953.700 7  91154005.10545
     -2585.889       -2014.974
  20727948.808    20727948.3794   20727955.2784  108926184.209 8  84877571.19347
     -1027.386        -800.561
  21484804.155    21484803.9914   21484811.0784  112903488.482 8  87976764.85446
      2878.667        2243.113
  22746747.798    22746746.8984   22746756.1294  119534942.828 7  93144114.39445
     -3315.955       -2583.852
  24214788.601    24214789.0734   24214797.5154  127249572.710 6  99155524.47842
      3242.390        2526.527
  20705679.907    20705679.5784   20705686.7704  108809142.543 8  84786353.33746
      2142.051        1669.131
  21892806.466    21892805.8854   21892813.0564  115047589.090 7  89647514.57045
      2166.371        1688.085
 13  4  5 12 38  1.0000000  0  8G05G07G08G09G10G15G26G28
  20803164.519    20803164.4674   20803170.0514  109321411.965 8  85185541.69647
      -277.636        -216.336
  22268115.170    22268115.1904   22268122.0064  117019767.158 7  91184249.32245
     -2589.105       -2017.474
  20730890.636    20730890.0254   20730896.9094  108941642.596 8  84889616.68447
     -1033.625        -805.419
  21476595.324    21476594.7064   21476602.5244  112860351.041 8  87943151.28746
      2873.125        2238.800
  22756218.494    22756217.6554   22756226.8804  119584711.778 7  93182895.33444
     -3319.772       -2586.822
  24205535.142    24205535.8564   24205543.2944  127200944.196 6  99117632.16542
      3241.583        2525.902
  20699573.787    20699573.3834   20699580.5114  108777053.579 8  84761348.96346
      2136.606        1664.890
  21886632.750    21886632.3954   21886639.6774  115015147.579 7  89622235.51945
      2159.273        1682.554
 13  4  5 12 38 16.0000000  0  8G05G07G08G09G10G15G26G28
  20803971.052    20803970.9344   20803976.3904  109325649.902 8  85188843.98047
      -287.305        -223.877
  22275510.695    22275510.3084   22275517.0384  117058628.774 7  91214531.07345
     -2592.313       -2019.982
  20733850.268    20733849.5924   20733856.4674  108957194.989 8  84901735.42747
     -1039.918        -810.322
  21468402.402    21468401.6034   21468409.8084  112817296.552 7  87909602.36446
      2867.575        2234.470
  22765700.001    22765699.2734   22765708.4954  119634537.937 7  93221720.85544
     -3323.595       -2589.808
  24196283.765    24196283.5404   24196292.1324  127152327.365 6  99079748.94242
      3240.779        2525.289
  20693482.932    20693482.4604   20693489.6444  108745046.561 8  84736408.44846
      2131.095        1660.594
  21880480.076    21880479.3844   21880486.5064  114982813.046 8  89597039.82845
      2152.113        1676.970
 13  4  5 12 38 31.0000000  0  8G05G07G08G09G10G15G26G28
  20804805.469    20804805.2244   20804810.5864  109330033.688 8  85192259.90747
      -297.086        -231.497
  22282914.659    22282914.7174   22282921.4484  117097539.395 7  91244851.01745
     -2595.660       -2022.588
  20736827.880    20736827.2094   20736833.9884  108972842.314 8  84913928.14447
     -1046.295        -815.299
  21460225.328    21460224.6924   21460232.7174  112774326.394 7  87876119.15646
      2861.891        2230.045
  22775192.753    22775191.9154   22775200.9964  119684422.188 7  93260591.63844
     -3327.513       -2592.867
  24187034.783    24187034.8544   24187043.4614  127103723.602 6  99041875.91942
      3239.837        2524.520
  20687407.847    20687407.7854   20687414.6944  108713122.864 8  84711532.85646
      2125.498        1656.228
  21874347.655    21874346.8714   21874354.0154  114950586.837 8  89571928.54945
      2144.842        1671.293
 13  4  5 12 38 46.0000000  0  8G05G07G08G09G10G15G26G28
  20805667.025    20805667.2064   20805672.4444  109334562.917 8  85195789.17047
      -306.818        -239.080
  22290328.936    22290328.4464   22290335.0164  117136498.349 7  91275208.60745
     -2598.884       -2025.090
  20739823.524    20739822.8154   20739829.5414  108988584.038 8  84926194.41947
     -1052.598        -820.206
  21452064.335    21452063.9674   21452071.4654  112731440.321 8  87842701.45146
      2856.229        2225.631
  22784696.480    22784695.6424   22784704.6544  119734363.783 7  93299507.10244
     -3331.419       -2595.889
  24177787.917    24177788.2624   24177797.2694  127055132.649 6  99004012.88343
      3238.943        2523.855
  20681348.921    20681348.8194   20681355.6664  108681282.132 8  84686721.91346
      2119.948        1651.903
  21868235.926    21868235.0844   21868241.9914  114918468.776 8  89546901.53445
      2137.570        1665.644
 13  4  5 12 39  1.0000000  0  8G05G07G08G09G10G15G26G28
  20806556.543    20806556.8524   20806562.0394  109339237.706 8  85199431.85747
      -316.462        -246.596
  22297751.429    22297751.3464   22297757.6344  117175505.484 7  91305603.76045
     -2602.003       -2027.532
  20742836.924    20742836.3414   20742843.0704  109004420.130 8  84938534.22747
     -1058.823        -825.057
  21443919.695    21443919.1274   21443926.5444  112688638.535 7  87809349.43146
      2850.671        2221.300
  22794211.159    22794210.0914   22794219.3014  119784362.631 7  93338467.18144
     -3335.120       -2598.788
  24168543.705    24168544.1044   24168553.0014  127006554.640 6  98966159.91843
      3238.164        2523.246
  20675305.749    20675305.4364   20675312.4764  108649524.774 8  84661975.93846
      2114.431        1647.602
  21862144.223    21862143.7994   21862150.8024  114886459.140 8  89521959.00945
      2130.402        1660.052
 13  4  5 12 39 16.0000000  0  8G05G07G08G09G10G15G26G28
  20807473.986    20807474.1364   20807479.2674  109344058.000 8  85203187.92347
      -326.217        -254.194
  22305183.280    22305183.6414   22305189.7514  117214560.763 7  91336036.42345
     -2605.317       -2030.115
  20745868.318    20745867.7534   20745874.4414  109020350.395 8  84950947.41747
     -1065.191        -830.017
  21435790.747    21435790.4704   21435797.9044  112645921.247 8  87776063.25246
      2844.988        2216.875
  22803736.481    22803735.4084   22803744.6114  119834418.500 7  93377471.69244
     -3338.949       -2601.768
  24159301.472    24159303.1854   24159311.1454  126957989.593 6  98928317.07443
      3237.204        2522.505
  20669278.259    20669278.1024   20669285.0594  108617850.835 8  84637294.96746
      2108.780        1643.202
  21856073.813    21856073.2954   21856080.1774  114854558.311 7  89497101.27245
      2123.062        1654.335
 13  4  5 12 39 31.0000000  0  8G05G07G08G09G10G15G26G28
  20808419.067    20808419.1444   20808424.3874  109349024.329 8  85207057.77947
      -335.918        -261.754
  22312624.790    22312624.4034   22312630.7674  117253664.533 7  91366506.87345
     -2608.466       -2032.569
  20748917.817    20748917.2054   20748923.9434  109036375.302 8  84963434.34747
     -1071.429        -834.881
  21427677.924    21427677.5264   21427685.4944  112603289.186 8  87742843.49346
      2839.331        2212.456
  22813272.646    22813271.5604   22813280.7254  119884531.619 7  93416520.82144
     -3342.717       -2604.719
  24150063.507    24150063.9124   24150072.2854  126909438.413 6  98890485.02343
      3236.295        2521.780
  20663267.190    20663266.9734   20663273.6684  108586261.163 8  84612679.64646
      2103.194        1638.858
  21850024.375    21850023.6414   21850030.5134  114822767.197 8  89472329.02445
      2115.794        1648.663
 13  4  5 12 39 46.0000000  0  8G05G07G08G09G10G15G26G28
  20809391.722    20809391.8644   20809397.2064  109354136.147 8  85211041.00747
      -345.590        -269.291
  22320074.669    22320074.5904   22320081.3114  117292815.952 7  91397014.45145
     -2611.627       -2035.038
  20751985.136    20751984.4894   20751991.2394  109052494.018 8  84975994.38247
     -1077.648        -839.730
  21419581.642    21419581.0654   21419589.0414  112560741.922 8  87709689.79546
      2833.706        2208.078
  22822819.528    22822818.6824   22822827.7284  119934701.098 7  93455613.85544
     -3346.451       -2607.623
  24140826.976    24140827.4444   24140835.7054  126860900.721 6  98852663.48843
      3235.462        2521.131
  20657271.336    20657271.4264   20657278.1834  108554755.348 8  84588129.67946
      2097.644        1634.528
  21843995.312    21843994.7054   21844001.4964  114791085.317 7  89447641.89245
      2108.527        1643.002
 13  4  5 12 40  1.0000000  0  8G05G07G08G09G10G15G26G28
  20810392.123    20810392.0724   20810397.5454  109359392.376 8  85215136.76447
      -355.285        -276.845
  22327534.436    22327533.6224   22327540.5204  117332013.763 7  91427558.17345
     -2614.770       -2037.481
  20755070.014    20755069.5394   20755076.1324  109068705.310 8  84988626.55847
     -1083.874        -844.580
  21411500.972    21411500.3374   21411508.4764  112518278.475 7  87676601.41846
      2828.048        2203.673
  22832376.937    22832376.0834   22832385.2224  119984925.581 7  93494749.74844
     -3350.196       -2610.538
  24131593.362    24131593.3404   24131601.1964  126812375.314 6  98814851.50943
      3234.558        2520.417
  20651291.996    20651291.8924   20651298.5854  108523332.451 8  84563644.31946
      2092.065        1630.173
  21837987.054    21837986.3204   21837993.2014  114759511.968 8  89423039.32745
      2101.205        1637.297
 13  4  5 12 40 16.0000000  0  8G05G07G08G09G10G15G26G28
  20811420.031    20811419.9184   20811425.4914  109364793.933 8  85219345.75847
      -364.866        -284.312
  22335002.414    22335001.7244   22335008.7334  117371258.718 7  91458138.63045
     -2617.805       -2039.839
  20758172.855    20758172.2424   20758178.8074  109085009.994 8  85001331.49947
     -1089.995        -849.351
  21403436.327    21403436.0064   21403443.9764  112475899.941 7  87643579.20146
      2822.479        2199.329
  22841945.152    22841944.1104   22841953.1174  120035205.690 7  93533928.98744
     -3353.767       -2613.313
  24122361.787    24122361.6354   24122370.3134  126763863.429 6  98777050.08243
      3233.728        2519.783
  20645328.653    20645328.4134   20645334.8694  108491993.504 8  84539224.37746
      2086.539        1625.870
  21831999.486    21831999.1324   21832005.7014  114728048.250 7  89398522.19445
      2094.013        1631.688
 13  4  5 12 40 31.0000000  0  8G05G07G08G09G10G15G26G28
  20812475.526    20812475.3844   20812481.0604  109370340.832 8  85223668.00747
      -374.654        -291.937
  22342479.366    22342478.8404   22342485.7764  117410550.534 7  91488755.61245
     -2621.045       -2042.369
  20761293.113    20761292.6624   20761299.1644  109101407.812 8  85014109.01647
     -1096.318        -854.272
  21395388.316    21395387.7274   21395395.5464  112433606.478 8  87610623.26946
      2816.703        2194.841
  22851523.620    22851522.6424   22851531.8564  120085541.178 7  93573151.38344
     -3357.569       -2616.278
  24113133.169    24113132.7424   24113141.3674  126715365.106 6  98739259.21043
      3232.729        2519.020
  20639380.976    20639380.8154   20639387.2974  108460738.789 8  84514870.06946
      2080.813        1621.411
  21826033.179    21826032.6094   21826039.3234  114696694.391 8  89374090.65745
      2086.539        1625.870
 13  4  5 12 40 46.0000000  0  8G05G07G08G09G10G15G26G28
  20813558.627    20813558.5554   20813564.3274  109376032.978 8  85228103.43947
      -384.349        -299.489
  22349964.936    22349964.9394   22349971.4924  117449888.918 7  91519408.87545
     -2624.147       -2044.796
  20764431.211    20764430.6494   20764437.2474  109117898.516 8  85026958.90847
     -1102.506        -859.094
  21387356.524    21387355.9524   21387363.5034  112391398.215 7  87577733.73046
      2810.999        2190.397
  22861112.540    22861111.6154   22861121.1174  120135931.845 7  93612416.77244
     -3361.232       -2619.146
  24103905.877    24103905.9694   24103915.4684  126666880.409 6  98701478.98843
      3231.810        2518.296
  20633449.520    20633449.2444   20633455.7294  108429568.411 8  84490581.47846
      2075.176        1617.020
  21820087.513    21820087.2164   21820093.6944  114665450.627 8  89349744.91345
      2079.201        1620.154
 13  4  5 12 41  1.0000000  0  8G05G07G08G09G10G15G26G28
  20814669.555    20814669.4434   20814675.1824  109381870.529 8  85232652.17047
      -394.044        -307.050
  22357459.856    22357459.6154   22357466.4214  117489273.908 7  91550098.44945
     -2627.240       -2047.198
  20767586.673    20767586.2814   20767593.0454  109134482.036 8  85039881.12647
     -1108.674        -863.901
  21379340.701    21379340.0784   21379347.8224  112349275.419 8  87544910.79046
      2805.321        2185.960
  22870712.434    22870711.1314   22870720.5414  120186377.400 6  93651724.93444
     -3364.906       -2622.003
  24094681.429    24094682.5134   24094691.0074  126618409.679 6  98663709.63343
      3230.896        2517.575
  20627533.730    20627533.6644   20627540.2474  108398482.649 8  84466358.82846
      2069.550        1612.635
  21814162.856    21814162.7074   21814169.1874  114634317.405 8  89325485.30545
      2071.817        1614.407
 13  4  5 12 41 16.0000000  0  8G05G07G08G09G10G15G26G28
  20815807.869    20815807.7724   20815813.5544  109387852.397 8  85237313.35847
      -403.635        -314.527
  22364963.439    22364962.9674   22364969.8864  117528704.165 7  91580823.29545
     -2630.214       -2049.514
  20770760.203    20770759.4134   20770766.1694  109151157.221 8  85052874.77147
     -1114.761        -868.643
  21371340.843    21371340.5104   21371348.2954  112307237.240 8  87512153.78246
      2799.693        2181.577
  22880321.958    22880320.7044   22880330.0184  120236876.558 7  93691074.85844
     -3368.442       -2624.755
  24085461.338    24085460.9464   24085470.3184  126569951.982 6  98625950.42543
      3230.046        2516.920
  20621634.440    20621634.2224   20621640.7744  108367480.642 8  84442201.44246
      2063.985        1608.294
  21808259.369    21808259.0634   21808265.5184  114603293.732 8  89301311.06145
      2064.547        1608.723
