     2.11           OBSERVATION DATA    G (GPS)             RINEX VERSION / TYPE
teqc  2013Mar15                         20130704 16:40:11UTCPGM / RUN BY / DATE
Test_Nave_2013_04_05                                        MARKER NAME
                                                            OBSERVER / AGENCY
                    u-blox                                  REC # / TYPE / VERS
                                                            ANT # / TYPE
        0.0000        0.0000        0.0000                  APPROX POSITION XYZ
        0.0000        0.0000        0.0000                  ANTENNA: DELTA H/E/N
     1     0                                                WAVELENGTH FACT L1/2
     4    C1    L1    S1    D1                              # / TYPES OF OBSERV
    15.0000                                                 INTERVAL
  2013     4     5    11    35    0.9980011     GPS         TIME OF FIRST OBS
Linux2.6.32-279.el6.x86_64|x86_64|gcc|Win64-MinGW64|=       COMMENT
     2.10           OBSERVATION DATA    G (GPS)             COMMENT
goGPS                                                       COMMENT
                                                            END OF HEADER
 13  4  5 11 35  0.9980011  0 11G02G04G05G07G08G09G10G13G23G26G28
  22694251.033 7 119259082.69527        45.00027      -437.87427
  24795985.191 6 130303762.29226        40.00026     -1429.47026
  21225107.788 7 111538691.29927        47.00027      3896.87627
  20599486.832 7 108251025.18527        43.00027       668.13127
  20416721.126 7 107290576.33427        45.00027      2789.13827
  23743417.891 7 124772499.22727        42.00027      5845.55527
  20633898.249 7 108431867.13327        47.00027       135.51927
  23167155.073 6 121744202.06326        37.00026      -854.07526
  25300115.496 5                        31.00025     -1047.55325
  22434978.044 7 117896618.54827        42.00027      5132.03427
  23722812.925 7 124664242.65227        42.00027      5267.40327
 13  4  5 11 35 15.9980011  0 11G02G04G05G07G08G09G10G13G23G26G28
  22695509.976 7 119265706.32027        45.00027      -444.97027
  24800068.926 7 130325211.65027        42.00027     -1429.68727
  21213998.261 7 111480306.80827        47.00027      3888.52427
  20597591.369 7 108241067.42127        43.00027       659.95627
  20408773.159 7 107248812.16027        45.00027      2779.82227
  23726735.744 7 124684837.66727        43.00027      5842.54027
  20633525.213 8 108429903.48428        48.00028       127.30228
  23169590.513 6 121757025.93026        37.00026      -855.04426
  25303077.304 5                        30.00025     -1048.48325
  22420338.462 7 117819675.42627        43.00027      5128.04427
  23707781.813 7 124585248.52427        43.00027      5265.40027
 13  4  5 11 35 30.9980011  0 11G02G04G05G07G08G09G10G13G23G26G28
  22696786.806 7 119272420.16127        44.00027      -450.74527
  24804149.328 6 130346651.72526        41.00026     -1429.15426
  21202909.709 7 111422037.20727        47.00027      3881.69327
  20595717.667 7 108231222.97127        43.00027       653.79727
  20400850.199 7 107207175.43427        45.00027      2772.12127
  23710063.019 7 124597218.04327        42.00027      5839.96827
  20633174.548 7 108428061.74827        47.00027       119.72927
  23172038.708 6 121769883.49726        38.00026      -857.50326
  25306095.109 4                        28.00024     -1050.29324
  22405705.808 7 117742782.34827        42.00027      5125.60327
  23692754.610 7 124506287.29327        42.00027      5263.61427
 13  4  5 11 35 45.9980011  0 11G02G04G05G07G08G09G10G13G23G26G28
  22698082.012 7 119279225.42027        44.00027      -456.77627
  24808226.083 6 130368083.84726        40.00026     -1427.41226
  21191843.877 7 111363884.37327        47.00027      3873.21627
  20593866.213 7 108221493.10727        42.00027       645.22327
  20392951.110 7 107165667.79227        45.00027      2763.21127
  23693397.363 7 124509642.08427        42.00027      5837.92227
  20632847.527 7 108426343.32827        47.00027       111.01427
  23174487.583 5 121782776.37325        35.00025      -860.47325
  25309073.740 4                        26.00024     -1047.97524
  22391084.339 7 117665941.13327        42.00027      5121.25327
  23677734.159 7 124427360.97927        42.00027      5261.03527
 13  4  5 11 36  0.9980011  0 11G02G04G05G07G08G09G10G13G23G26G28
  22699392.347 7 119286116.06527        43.00027      -462.00427
  24812302.664 6 130389502.14726        41.00026     -1426.36826
  21180799.282 7 111305842.99727        47.00027      3865.87027
  20592034.443 6 108211872.13926        41.00026       637.70926
  20385076.120 7 107124283.66627        45.00027      2754.88027
  23676740.047 7 124422104.52527        42.00027      5834.67427
  20632543.175 7 108424742.59127        47.00027       102.96927
  23176955.078 6 121795698.79126        38.00026      -862.71026
  25312081.702 4                        24.00024     -1051.98324
  22376470.094 7 117589146.30327        43.00027      5118.76527
  23662722.539 7 124348464.36727        42.00027      5259.29527
 13  4  5 11 36 15.9980011  0 11G02G04G05G07G08G09G10G13G23G26G28
  22700721.056 7 119293102.08927        42.00027      -468.94127
  24816378.616 6 130410916.55426        40.00026     -1427.18026
  21169778.123 7 111247923.72627        47.00027      3857.68927
  20590225.830 6 108202370.19826        41.00026       629.80226
  20377226.555 7 107083033.41227        45.00027      2746.22627
  23660091.142 6 124334615.98526        41.00026      5831.73226
  20632263.113 7 108423269.84827        46.00027        94.69827
  23179415.069 5 121808661.07315        32.00025      -865.51525
  25315100.834 4                        29.00024     -1052.07224
  22361866.389 7 117512408.37027        42.00027      5114.29927
  23647715.665 7 124269608.10327        42.00027      5256.63727
 13  4  5 11 36 30.9980011  0 11G02G04G05G07G08G09G10G13G23G26G28
  22702067.582 7 119300174.90927        43.00027      -475.40327
  24820450.938 6 130432318.67126        39.00026     -1427.45326
  21158778.794 7 111190118.59427        47.00027      3848.37227
  20588437.528 6 108192978.98026        40.00026       621.95626
  20369402.118 7 107041908.75427        46.00027      2735.91827
  23643450.508 7 124247168.36127        42.00027      5827.30127
  20632004.951 7 108421916.55427        46.00027        85.12127
  23181891.864 6 121821655.12336        37.00026      -868.91326
  25318079.026 4                        25.00024     -1056.28724
  22347274.446 7 117435719.27527        44.00027      5109.96327
  23632716.119 6 124190784.34026        41.00026      5252.53626
 13  4  5 11 36 45.9980011  0 11G02G04G05G07G08G09G10G13G23G26G28
  22703430.947 7 119307343.97727        43.00027      -482.74227
  24824524.883 6 130453717.86326        41.00026     -1427.47426
  21147802.621 8 111132437.55728        48.00028      3840.12728
  20586673.902 6 108183708.07826        41.00026       613.46926
  20361602.112 7 107000919.51127        46.00027      2727.03127
  23626820.345 7 124159771.71327        43.00027      5824.50527
  20631771.970 7 108420692.36227        46.00027        76.55327
  23184368.258 5 121834690.34225        34.00025      -872.96525
  25321123.042 5                        30.00025     -1055.18425
  22332691.053 7 117359088.97127        43.00027      5105.71527
  23617725.177 7 124112003.21727        42.00027      5249.31627
 13  4  5 11 37  0.9980011  0 11G02G04G05G07G08G09G10G13G23G26G28
  22704812.497 7 119314598.91127        43.00027      -486.22227
  24828593.385 6 130475103.80726        41.00026     -1424.90626
  21136848.175 8 111074870.85828        48.00028      3834.01128
  20584931.478 6 108174547.19026        41.00026       607.97026
  20353826.309 7 106960055.79327        46.00027      2719.64227
  23610195.609 7 124072416.21727        42.00027      5823.27327
  20631560.558 7 108419587.10727        45.00027        69.78027
  23186861.685 6 121847756.92136        38.00026      -872.29726
  25324106.558 4                        28.00024     -1056.41324
  22318119.178 7 117282507.54927        44.00027      5104.81127
  23602739.226 7 124033255.10727        42.00027      5249.18827
 13  4  5 11 37 15.9980011  0 11G02G04G05G07G08G09G10G13G23G26G28
  22706208.862 7 119321937.36927        43.00027      -491.46327
  24832660.316 6 130496474.09126        39.00026     -1424.64326
  21125914.250 8 111017416.74628        48.00028      3826.93128
  20583207.882 6 108165493.98726        41.00026       599.63726
  20346073.733 7 106919315.46427        47.00027      2711.80127
  23593579.126 7 123985100.08027        42.00027      5819.35427
  20631372.285 7 108418598.63627        45.00027        62.27527
  23189352.737 6 121860852.42426        37.00026      -873.90926
  25327151.446 4                        29.00024     -1057.08424
  22303555.051 7 117205973.15727        44.00027      5101.19027
  23587760.255 7 123954538.34427        43.00027      5246.54127
 13  4  5 11 37 30.9980011  0 11G02G04G05G07G08G09G10G13G23G26G28
  22707621.524 7 119329361.57127        43.00027      -497.57527
  24836722.273 6 130517831.24326        39.00026     -1424.27926
  21115003.707 7 110960078.15027        46.00027      3818.95827
  20581506.466 6 108156550.98426        40.00026       593.72026
  20338344.924 7 106878701.11827        46.00027      2703.69427
  23576971.578 6 123897826.17626        41.00026      5816.04026
  20631206.871 7 108417729.44527        44.00027        54.32427
  23191845.448 5 121873979.86025        33.00025      -875.58125
  25330154.157 5                        31.00025     -1057.33625
  22289001.708 7 117129488.52927        44.00027      5098.24627
  23572786.449 6 123875855.91026        41.00026      5244.30826
 13  4  5 11 37 45.9980011  0 11G02G04G05G07G08G09G10G13G23G26G28
  22709048.427 7 119336861.17827        43.00027      -502.63427
  24840782.905 6 130539164.86826        40.00026     -1421.56526
  21104112.029 7 110902845.36627        46.00027      3812.07127
  20579822.796 6 108147707.92226        40.00026       585.09926
  20330639.882 7 106838202.75227        47.00027      2695.73227
  23560370.644 7 123810584.76527        42.00027      5814.33727
  20631063.166 7 108416969.40327        45.00027        46.96527
  23194352.154 5 121887128.70725        35.00025      -877.78725
  25333185.295 5 133126786.32735        32.00025     -1058.73725
  22274452.901 7 117053043.78727        43.00027      5093.69827
  23557819.990 6 123797198.22626        41.00026      5242.91526
 13  4  5 11 38  0.9980011  0 11G02G04G05G07G08G09G10G13G23G26G28
  22710492.133 7 119344445.00927        44.00027      -508.68627
  24844839.225 6 130560483.66026        39.00026     -1421.40526
  21093242.216 7 110845727.87427        45.00027      3803.85627
  20578160.293 6 108138973.74926        40.00026       578.66126
  20322957.298 7 106797829.55427        47.00027      2686.61927
  23543776.673 7 123723385.14227        42.00027      5812.24127
  20630941.465 7 108416327.45127        45.00027        38.80227
  23196857.846 5 121900308.44625        35.00025      -881.34925
  25336206.696 5 133142664.44935        35.00025     -1057.58925
  22259916.258 7 116976648.25327        43.00027      5091.01527
  23542856.201 6 123718574.85426        40.00026      5241.21326
 13  4  5 11 38 15.9980011  0 11G02G04G05G07G08G09G10G13G23G26G28
  22711950.987 7 119352106.97127        44.00027      -513.51727
  24848889.998 6 130581782.04726        39.00026     -1417.64526
  21082393.273 7 110788720.34027        45.00027      3797.01227
  20576517.231 6 108130342.74426        40.00026       571.52026
  20315297.941 8 106757575.96028        48.00028      2680.42428
  23527191.218 7 123636222.06227        43.00027      5810.52927
  20630841.019 7 108415797.94227        46.00027        31.88827
  23199370.939 6 121913513.26926        36.00026      -882.23926
  25339228.828 5 133158548.87415        32.00025     -1060.05225
  22245385.426 7 116900296.51527        42.00027      5089.39727
  23527898.938 6 123639980.43326        40.00026      5239.54726
 13  4  5 11 38 30.9980011  0 11G02G04G05G07G08G09G10G13G23G26G28
  22713422.562 7 119359837.66827        44.00027      -517.72727
  24852939.722 6 130603050.07926        40.00026     -1417.57526
  21071563.072 7 110731813.68327        44.00027      3790.29027
  20574894.603 7 108121805.41527        42.00027       566.62127
  20307658.355 8 106717432.65028        48.00028      2672.32128
  23510608.536 7 123549086.31427        43.00027      5807.65527
  20630760.501 7 108415371.40327        47.00027        25.35727
  23201885.795 6 121926733.96326        36.00026      -881.62526
  25342252.428 5 133174431.32515        35.00025     -1059.36925
  22230865.256 7 116823979.40927        43.00027      5086.33827
  23512947.207 6 123561406.06926        41.00026      5236.49526
 13  4  5 11 38 45.9980011  0 11G02G04G05G07G08G09G10G13G23G26G28
  22714911.499 7 119367659.15927        44.00027      -524.28427
  24856985.451 6 130624310.02326        39.00026     -1416.43526
  21060757.562 7 110675030.55727        44.00027      3781.40427
  20573293.629 7 108113383.94527        42.00027       557.66627
  20300044.909 7 106677422.04427        47.00027      2663.40427
  23494037.337 7 123462000.70927        43.00027      5804.43827
  20630703.418 7 108415070.25727        47.00027        16.08927
  23204412.062 6 121939992.45026        37.00026      -885.21926
  25345276.917 5 133190334.17925        32.00025     -1058.66225
  22216349.361 6 116747719.58026        40.00026      5082.71726
  23498002.839 6 123482874.61026        40.00026      5233.52726
 13  4  5 11 39  0.9980011  0 11G02G04G05G07G08G09G10G13G23G26G28
  22716413.316 7 119375549.29127        45.00027      -528.73027
  24861022.944 6 130645540.07426        38.00026     -1414.78926
  21049969.050 7 110618349.62927        44.00027      3774.57727
  20571709.932 7 108105056.46527        42.00027       551.80227
  20292451.304 7 106637522.53227        47.00027      2655.81827
  23477471.671 7 123374943.82627        43.00027      5803.10027
  20630665.775 8 108414872.61428        48.00028         9.32628
  23206934.892 5 121953267.34625        35.00025      -886.44425
  25348303.098 4                        29.00024     -1060.78824
  22201847.287 6 116671495.59926        41.00026      5080.88026
  23483063.760 6 123404364.71126        40.00026      5233.01926
 13  4  5 11 39 15.9980011  0 11G02G04G05G07G08G09G10G13G23G26G28
  22717929.441 7 119383516.39327        45.00027      -534.24127
  24865061.012 6 130666748.58626        40.00026     -1413.13126
  21039204.426 7 110561780.06427        43.00027      3766.25527
  20570144.087 7 108096831.58527        42.00027       544.04527
  20284880.751 7 106597742.92727        46.00027      2647.37427
  23460911.413 7 123287924.66927        43.00027      5799.57027
  20630649.369 8 108414787.11128        48.00028         1.29828
  23209470.617 6 121966567.44326        38.00026      -887.99026
  25351331.479 4                        28.00024     -1060.00024
  22187348.440 6 116595316.22626        41.00026      5075.62926
  23468129.357 6 123325885.59926        41.00026      5230.54826
 13  4  5 11 39 30.9980011  0 11G02G04G05G07G08G09G10G13G23G26G28
  22719460.923 7 119391564.50127        45.00027      -539.20527
  24869094.211 6 130687939.38426        39.00026     -1411.68226
  21028463.099 7 110505326.23227        45.00027      3759.09027
  20568598.134 7 108088713.22627        42.00027       537.41727
  20277334.017 7 106558087.42627        45.00027      2639.28927
  23444360.055 7 123200947.70227        42.00027      5796.60527
  20630655.003 8 108414817.84228        48.00028        -6.13528
  23212006.203 6 121979896.77926        38.00026      -890.27326
  25354355.863 5                        31.00025     -1062.39825
  22172859.314 6 116519185.92726        40.00026      5074.03926
  23453200.398 6 123247441.92226        40.00026      5228.47926
 13  4  5 11 39 45.9980011  0 11G02G04G05G07G08G09G10G13G23G26G28
  22721007.621 7 119399692.56427        44.00027      -544.31927
  24873123.816 6 130709111.74426        40.00026     -1410.11626
  21017743.009 7 110448987.81727        46.00027      3752.38927
  20567073.995 7 108080700.72927        43.00027       531.14227
  20269810.614 7 106518555.36427        45.00027      2631.64027
  23427815.642 7 123114012.54927        42.00027      5795.22327
  20630682.414 8 108414963.93128        49.00028       -13.04628
  23214547.129 6 121993254.83626        37.00026      -890.87626
  25357392.009 5 133253993.79315        31.00025     -1060.53125
  22158380.955 6 116443104.22326        40.00026      5071.55326
  23438283.130 6 123169033.41726        40.00026      5225.21526
 13  4  5 11 40  0.9980011  0 11G02G04G05G07G08G09G10G13G23G26G28
  22722570.512 7 119407900.65327        45.00027      -550.29027
  24877149.163 6 130730265.79526        41.00026     -1409.82126
  21007045.341 7 110392765.51527        47.00027      3743.75627
  20565569.626 7 108072794.29127        43.00027       523.72327
  20262311.520 7 106479147.36327        45.00027      2623.10227
  23411278.872 7 123027119.94927        42.00027      5791.03027
  20630731.813 8 108415225.93328        49.00028       -21.36228
  23217095.052 6 122006641.91726        39.00026      -892.49226
  25360419.604 4                        27.00024     -1061.41924
  22143911.127 6 116367071.71526        39.00026      5065.94626
  23423367.102 6 123090660.82626        40.00026      5223.38626
 13  4  5 11 40 15.9980011  0 11G02G04G05G07G08G09G10G13G23G26G28
  22724148.045 7 119416191.99127        44.00027      -556.35127
  24881172.939 6 130751404.65926        41.00026     -1409.59926
  20996369.505 7 110336663.16427        47.00027      3736.10327
  20564086.460 7 108064997.23927        43.00027       515.86427
  20254835.669 7 106439866.67227        44.00027      2614.12527
  23394753.532 7 122940273.55927        42.00027      5787.68927
  20630804.786 8 108415607.13728        48.00028       -29.58128
  23219649.361 6 122020061.38226        39.00026      -896.03326
  25363455.278 3                        23.00023     -1065.03523
  22129455.540 6 116291092.06626        41.00026      5062.78626
  23408463.498 6 123012328.06726        41.00026      5219.73026
 13  4  5 11 40 30.9980011  0 10G02G04G05G07G08G09G10G13G26G28
  22725739.747 7 119424561.81327        44.00027      -560.31827
  24885189.508 6 130772523.71526        40.00026     -1407.75026
  20985716.650 7 110280676.57327        47.00027      3728.84627
  20562622.558 7 108057305.00127        43.00027       509.30527
  20247384.248 7 106400708.97927        44.00027      2607.33027
  23378234.387 6 122853469.30226        41.00026      5784.32526
  20630898.980 8 108416102.92728        48.00028       -36.79828
  23222201.298 5 122033508.83025        35.00025      -896.98925
  22115002.204 6 116215161.16126        39.00026      5059.81326
  23393564.520 6 122934031.21226        41.00026      5220.21026
 13  4  5 11 40 45.9980011  0 10G02G04G05G07G08G09G10G13G26G28
  22727350.610 7 119433022.93227        44.00027      -566.15627
  24889208.312 6 130793635.73626        41.00026     -1406.36026
  20975086.881 7 110224819.00527        47.00027      3719.97027
  20561180.696 7 108049730.28027        43.00027       501.29827
  20239959.456 7 106361687.43227        44.00027      2597.15527
  23361725.956 6 122766720.35626        40.00026      5781.83426
  20631016.434 7 108416726.24327        47.00027       -45.18127
  23224777.856 6 122046997.26626        40.00026      -899.35026
  22100568.849 6 116139292.05526        41.00026      5057.10326
  23378672.956 6 122855783.56326        41.00026      5215.18826
 13  4  5 11 41  0.9980011  0 10G02G04G05G07G08G09G10G13G26G28
  22728975.885 7 119441562.17627        44.00027      -572.74327
  24893221.129 6 130814727.51426        41.00026     -1406.02926
  20964479.868 7 110169078.11127        47.00027      3711.47627
  20559761.101 7 108042260.21427        45.00027       494.61627
  20232557.768 7 106322789.29127        45.00027      2588.32127
  23345226.059 6 122680014.20526        41.00026      5778.88226
  20631156.399 7 108417464.27827        47.00027       -53.31127
  23227344.521 6 122060513.85526        37.00026      -901.68626
  22086140.396 7 116063472.18427        42.00027      5052.91827
  23363791.618 7 122777572.81627        42.00027      5212.39027
 13  4  5 11 41 15.9980011  0 10G02G04G05G07G08G09G10G13G26G28
  22730615.715 7 119450186.09127        43.00027      -577.55227
  24897231.294 6 130835805.94026        39.00026     -1404.43826
  20953894.807 7 110113460.92027        46.00027      3703.29127
  20558359.671 7 108034901.41727        44.00027       487.33627
  20225180.511 7 106284021.28027        44.00027      2579.96927
  23328739.667 6 122593358.03726        41.00026      5775.04726
  20631319.276 7 108418323.70727        45.00027       -61.11627
  23229924.237 6 122074065.51726        38.00026      -905.56826
  22071724.368 6 115987708.61326        41.00026      5047.34726
  23348916.685 7 122699406.19127        42.00027      5209.71527
 13  4  5 11 41 30.9980011  0 10G02G04G05G07G08G09G10G13G26G28
  22732269.837 7 119458886.89227        42.00027      -581.97127
  24901239.941 6 130856863.10926        39.00026     -1402.95626
  20943334.613 7 110057960.54627        45.00027      3696.81327
  20556979.880 7 108027646.58127        44.00027       481.04927
  20217826.987 7 106245376.25027        43.00027      2572.91327
  23312255.737 6 122506744.84626        40.00026      5773.18826
  20631503.094 7 108419297.00027        43.00027       -68.55727
  23232507.219 6 122087644.84226        38.00026      -905.04926
  22057315.234 6 115911994.30526        41.00026      5045.33126
  23334049.361 6 122621276.69226        41.00026      5207.08426
 13  4  5 11 41 45.9980011  0 10G02G04G05G07G08G09G10G13G26G28
  22733942.246 7 119467662.92227        44.00027      -588.22227
  24905241.521 6 130877897.55526        39.00026     -1402.65726
  20932793.946 7 110002575.73427        46.00027      3687.84627
  20555617.870 7 108020493.91627        44.00027       472.95927
  20210496.164 7 106206852.65927        45.00027      2563.71027
  23295784.022 7 122420173.44727        43.00027      5768.89727
  20631709.719 7 108420382.71527        45.00027       -76.95827
  23235098.330 6 122101250.55726        41.00026      -908.85926
  22042917.302 7 115836327.96427        43.00027      5040.83627
  23319190.168 7 122543183.46727        43.00027      5204.07327
 13  4  5 11 42  0.9980011  0 10G02G04G05G07G08G09G10G13G26G28
  22735624.219 7 119476517.98627        42.00027      -592.80827
  24909240.344 6 130898913.10226        40.00026     -1399.92226
  20922277.813 7 109947311.01027        45.00027      3680.24827
  20554277.045 7 108013447.55727        44.00027       464.79327
  20203189.074 7 106168454.75927        44.00027      2555.56227
  23279316.512 7 122333648.30327        42.00027      5766.54327
  20631939.309 7 108421584.94527        45.00027       -84.32827
  23237691.100 6 122114886.58626        39.00026      -911.07126
  22028531.376 7 115760713.91527        44.00027      5038.50027
  23304338.600 7 122465131.10327        43.00027      5201.57427
 13  4  5 11 42 15.9980011  0 10G02G04G05G07G08G09G10G13G26G28
  22737328.300 7 119485459.55527        43.00027      -598.41027
  24913234.768 6 130919917.41226        37.00026     -1399.93426
  20911785.465 7 109892174.46727        44.00027      3672.05327
  20552957.980 7 108006515.10727        43.00027       458.30227
  20195908.160 7 106130190.42227        44.00027      2546.60227
  23262861.566 6 122247177.46026        41.00026      5762.39626
  20632192.473 7 108422911.26227        45.00027       -92.79027
  23240293.434 6 122128560.84326        37.00026      -911.98226
  22014152.430 7 115685160.19927        43.00027      5034.62227
  23289493.874 7 122387127.82527        42.00027      5198.66527
 13  4  5 11 42 30.9980011  0 10G02G04G05G07G08G09G10G13G26G28
  22739045.609 7 119494487.11627        43.00027      -604.66327
  24917232.579 6 130940909.97826        40.00026     -1399.76726
  20901316.937 7 109837166.22727        44.00027      3662.72127
  20551660.065 7 107999696.18027        45.00027       451.35027
  20188650.558 7 106092059.49427        45.00027      2537.87127
  23246418.870 7 122160760.96427        42.00027      5759.17927
  20632470.086 7 108424361.49227        46.00027      -100.37427
  23242906.044 6 122142273.12526        39.00026      -915.88526
  21999788.178 7 115609666.85627        45.00027      5031.19427
  23274660.262 7 122309173.69327        43.00027      5195.76227
 13  4  5 11 42 45.9980011  0 10G02G04G05G07G08G09G10G13G26G28
  22740775.221 7 119503579.09827        43.00027      -608.17027
  24921219.536 6 130961868.89826        39.00026     -1396.42526
  20890869.070 7 109782265.09827        44.00027      3656.02227
  20550382.044 7 107992969.07927        45.00027       444.66827
  20181417.109 7 106054040.49127        44.00027      2530.44027
  23229977.850 7 122074377.67827        42.00027      5758.05727
  20632765.725 7 108425913.86927        46.00027      -107.35127
  23245516.299 6 122156001.91526        39.00026      -916.88326
  21985427.398 7 115534212.41327        43.00027      5028.45027
  23259829.793 7 122231247.62627        42.00027      5193.63427
 13  4  5 11 43  0.9980011  0 10G02G04G05G07G08G09G10G13G26G28
  22742521.810 7 119512746.87527        43.00027      -615.49127
  24925204.415 6 130982806.11026        38.00026     -1395.57926
  20880442.579 7 109727483.46827        42.00027      3646.76427
  20549121.576 7 107986345.74527        46.00027       436.78327
  20174205.488 7 106016145.43327        44.00027      2520.45127
  23213550.754 7 121988039.94127        42.00027      5753.26827
  20633084.171 7 108427580.39227        47.00027      -115.91127
  23248132.942 6 122169759.14026        37.00026      -918.09526
  21971080.089 7 115458809.31427        44.00027      5023.66727
  23245007.367 7 122153362.16727        42.00027      5189.37827
 13  4  5 11 43 15.9980011  0 10G02G04G05G07G08G09G10G13G26G28
  22744282.204 7 119521998.98227        44.00027      -618.04527
  24929185.213 6 131003730.03526        38.00026     -1392.48826
  20870042.177 7 109672830.32827        43.00027      3640.53327
  20547882.033 7 107979834.73927        46.00027       431.26027
  20167018.980 7 105978383.06227        44.00027      2514.64727
  23197130.239 7 121901756.75927        43.00027      5751.91427
  20633424.220 8 108429369.71528        48.00028      -122.84028
  23250760.211 6 122183553.62426        40.00026      -920.19926
  21956742.902 7 115383466.40027        44.00027      5022.61327
  23230195.465 7 122075526.52127        43.00027      5189.06927
 13  4  5 11 43 30.9980011  0 10G02G04G05G07G08G09G10G13G26G28
  22746054.673 7 119531318.45627        44.00027      -624.52527
  24933162.065 6 131024623.78526        39.00026     -1391.11326
  20859664.442 7 109618289.30127        43.00027      3632.51227
  20546661.998 7 107973419.26627        46.00027       424.25227
  20159855.680 7 105940736.81927        44.00027      2505.75827
  23180718.570 7 121815511.70227        43.00027      5749.10827
  20633785.001 8 108431265.09628        48.00028      -130.12828
  23253387.550 6 122197368.53826        38.00026      -920.74226
  21942413.881 7 115308167.23427        44.00027      5017.56227
  23215387.139 6 121997724.37726        41.00026      5185.75426
 13  4  5 11 43 45.9980011  0 10G02G04G05G07G08G09G10G13G26G28
  22747841.365 7 119540710.23927        44.00027      -627.28527
  24937133.927 6 131045492.42326        37.00026     -1391.53726
  20849307.735 7 109563865.95127        43.00027      3624.73527
  20545458.559 7 107967104.36027        46.00027       417.86327
  20152713.740 7 105903212.03827        44.00027      2499.71027
  23164314.788 7 121729310.24327        43.00027      5745.70627
  20634166.757 8 108433271.59928        48.00028      -136.69128
  23256017.891 6 122211209.24326        36.00026      -921.91926
  21928094.284 7 115232917.26927        44.00027      5015.84227
  23200588.743 6 121919961.45426        41.00026      5183.03526
 13  4  5 11 44  0.9980011  0 10G02G04G05G07G08G09G10G13G26G28
  22749642.068 7 119550170.10127        43.00027      -634.32027
  24941098.495 6 131066331.87626        37.00026     -1388.51426
  20838972.666 7 109509556.74627        44.00027      3615.94727
  20544275.205 7 107960886.13727        45.00027       410.46627
  20145594.780 7 105865804.83327        43.00027      2488.21727
  23147918.143 7 121643148.91427        43.00027      5742.31027
  20634568.196 7 108435385.28027        47.00027      -145.61727
  23258659.766 6 122225072.10926        38.00026      -924.07226
  21913782.032 7 115157712.86527        43.00027      5011.03527
  23185795.756 6 121842234.31326        40.00026      5180.21726
 13  4  5 11 44 15.9980011  0 10G02G04G05G07G08G09G10G13G26G28
  22751457.953 7 119559711.09127        44.00027      -638.46127
  24945060.864 6 131087155.14126        38.00026     -1388.30926
  20828664.226 7 109455375.34727        44.00027      3608.40327
  20543112.459 7 107954777.80227        45.00027       403.95327
  20138500.984 7 105828528.59727        43.00027      2481.23927
  23131533.469 7 121557041.30227        43.00027      5739.52227
  20634992.844 7 108437619.46227        47.00027      -152.30927
  23261304.258 6 122238970.07926        38.00026      -927.15026
  21899483.131 7 115082567.47727        43.00027      5008.50227
  23171015.315 6 121764556.51026        40.00026      5177.49326
 13  4  5 11 44 30.9980011  0 10G02G04G05G07G08G09G10G13G26G28
  22753284.431 7 119569315.88527        43.00027      -643.02527
  24949016.132 6 131107944.90826        36.00026     -1384.65626
  20818373.830 7 109401305.07027        44.00027      3601.17327
  20541967.985 7 107948761.83327        45.00027       398.30627
  20131430.712 7 105791366.27527        44.00027      2473.96427
  23115153.211 7 121470970.54727        43.00027      5737.14227
  20635438.451 8 108439956.92228        48.00028      -158.62428
  23263952.224 6 122252886.31626        38.00026      -925.64026
  21885190.075 7 115007464.37827        42.00027      5006.48327
  23156236.620 6 121686911.59426        40.00026      5175.11026
 13  4  5 11 44 45.9980011  0 10G02G04G05G07G08G09G10G13G26G28
  22755127.608 7 119578994.23327        43.00027      -648.15727
  24952968.327 5 131128711.12225        35.00025     -1384.40325
  20808108.526 7 109347356.16527        45.00027      3592.45227
  20540842.286 7 107942848.17727        44.00027       390.64927
  20124381.396 7 105754327.88227        42.00027      2463.90927
  23098784.940 7 121384947.06027        42.00027      5732.93627
  20635904.996 7 108442407.54227        47.00027      -167.68627
  23266607.308 6 122266830.59026        38.00026      -930.64226
  21870907.262 6 114932413.74126        41.00026      5001.94926
  23141471.431 6 121609310.06726        39.00026      5171.50526
 13  4  5 11 45  0.9980011  0 10G02G04G05G07G08G09G10G13G26G28
  22756985.636 7 119588753.49927        43.00027      -652.61927
  24956917.381 5 131149461.18525        35.00025     -1383.78425
  20797868.648 7 109293536.66527        45.00027      3584.30227
  20539738.644 7 107937044.49127        44.00027       383.64427
  20117359.285 7 105717421.23927        43.00027      2455.87827
  23082424.749 7 121298978.92227        42.00027      5729.85027
  20636393.826 7 108444979.18727        47.00027      -175.00527
  23269267.401 6 122280810.93926        38.00026      -932.29626
  21856638.410 6 114857423.62526        41.00026      4997.37626
  23126714.759 6 121531760.09326        39.00026      5169.06326
 13  4  5 11 45 15.9980011  0 10G02G04G05G07G08G09G10G13G26G28
  22758857.065 7 119598588.28127        44.00027      -657.65727
  24960862.213 6 131170189.73226        37.00026     -1380.95326
  20787650.583 7 109239841.71527        47.00027      3575.54927
  20538654.511 7 107931345.37727        46.00027       376.15527
  20110360.715 7 105680641.14627        45.00027      2447.07627
  23066075.987 7 121213061.09827        44.00027      5726.17327
  20636905.376 8 108447666.26128        48.00028      -182.97228
  23271931.978 6 122294822.21826        38.00026      -934.61126
  21842380.708 7 114782488.95727        43.00027      4992.75027
  23111967.037 6 121454256.80326        41.00026      5165.04626
 13  4  5 11 45 30.9980011  0 10G02G04G05G07G08G09G10G13G26G28
  22760740.273 7 119608492.35827        43.00027      -662.33127
  24964802.456 6 131190890.60526        37.00026     -1379.50626
  20777456.162 7 109186265.91827        47.00027      3567.61027
  20537587.707 7 107925745.04527        45.00027       369.75827
  20103384.901 7 105643981.83127        45.00027      2440.37527
  23049735.428 7 121127188.16727        43.00027      5722.97327
  20637438.007 7 108450462.97027        47.00027      -190.23427
  23274605.351 6 122308858.51626        39.00026      -935.48326
  21828128.503 7 114707604.20127        43.00027      4989.83127
  23097225.564 6 121376794.94826        41.00026      5163.00026
 13  4  5 11 45 45.9980011  0 10G02G04G05G07G08G09G10G13G26G28
  22762640.461 7 119618467.49527        43.00027      -666.72627
  24968735.160 5 131211565.61625        35.00025     -1376.48425
  20767285.353 7 109132811.27827        47.00027      3560.93727
  20536541.373 7 107920245.14327        44.00027       364.00227
  20096432.103 7 105607445.37127        44.00027      2433.34127
  23033402.948 7 121041362.41627        42.00027      5720.97227
  20637991.490 7 108453371.24027        46.00027      -196.50827
  23277281.219 6 122322921.54726        37.00026      -938.06426
  21813886.280 6 114632771.52126        41.00026      4988.25026
  23082497.248 6 121299376.86226        41.00026      5161.55226
 13  4  5 11 46  0.9980011  0 10G02G04G05G07G08G09G10G13G26G28
  22764553.403 7 119628514.40627        43.00027      -673.08527
  24972667.776 6 131232215.60226        37.00026     -1376.03126
  20757135.831 7 109079479.37827        47.00027      3550.57027
  20535513.691 7 107914846.60727        43.00027       355.36227
  20089503.874 7 105571032.79527        44.00027      2422.12027
  23017081.025 7 120955585.11727        43.00027      5716.18727
  20638566.244 7 108456391.98727        46.00027      -205.83727
  23279964.783 6 122337012.58726        37.00026      -940.32726
  21799657.109 6 114557992.20126        41.00026      4983.60726
  23067773.083 7 121222004.03427        42.00027      5156.13727
 13  4  5 11 46 15.9980011  0 10G02G04G05G07G08G09G10G13G26G28
  22766478.005 7 119638628.70127        42.00027      -675.36927
  24976589.575 5 131252836.43725        35.00025     -1371.77225
  20747009.519 7 109026266.45327        46.00027      3543.28227
  20534505.137 7 107909545.43827        42.00027       350.76327
  20082597.616 7 105534740.20927        44.00027      2416.19327
  23000764.582 6 120869852.53026        41.00026      5714.26826
  20639161.574 7 108459521.02927        44.00027      -212.22627
  23282648.521 6 122351127.70026        36.00026      -941.05926
  21785436.943 6 114483262.41926        40.00026      4980.50026
  23053058.012 6 121144672.81626        41.00026      5154.53726
 13  4  5 11 46 30.9980011  0 10G02G04G05G07G08G09G10G13G26G28
  22768415.168 7 119648812.84327        43.00027      -682.31727
  24980506.782 6 131273430.49126        36.00026     -1371.18126
  20736907.794 8 108973175.63428        48.00028      3534.78328
  20533514.939 7 107904344.00527        43.00027       343.24027
  20075714.427 7 105498570.35027        44.00027      2407.25127
  22984460.475 7 120784167.71727        43.00027      5710.20127
  20639776.290 7 108462761.02227        45.00027      -219.71827
  23285339.937 6 122365269.61136        37.00026      -943.92126
  21771227.090 7 114408585.14327        42.00027      4976.60227
  23038351.525 7 121067386.46527        42.00027      5150.04827
 13  4  5 11 46 45.9980011  0 10G02G04G05G07G08G09G10G13G26G28
  22770369.102 7 119659075.15027        43.00027      -687.04627
  24984426.346 6 131294006.09126        37.00026     -1369.23326
  20726829.156 7 108920215.87227        47.00027      3526.46327
  20532545.018 7 107899250.83927        42.00027       336.47027
  20068856.837 7 105462531.76327        45.00027      2398.35127
  22968166.264 7 120698539.47627        42.00027      5707.04427
  20640414.842 7 108466120.52627        44.00027      -227.79027
  23288034.005 5 122379446.77625        34.00025      -947.37325
  21757028.422 7 114333969.23627        42.00027      4972.40527
  23023654.637 7 120990153.97427        42.00027      5146.91827
 13  4  5 11 47  0.9980011  0 10G02G04G05G07G08G09G10G13G26G28
  22772335.687 7 119669413.52827        44.00027      -692.53027
  24988337.010 6 131314561.54126        37.00026     -1369.94126
  20716775.785 8 108867385.64528        48.00028      3516.97128
  20531596.910 7 107894264.11327        43.00027       328.16227
  20062023.503 7 105426622.88327        45.00027      2388.67427
  22951883.237 7 120612966.47927        44.00027      5702.26627
  20641076.638 7 108469597.65727        45.00027      -236.80827
  23290737.915 5 122393657.75725        33.00025      -950.69625
  21742840.066 7 114259413.18427        43.00027      4966.86027
  23008968.427 7 120912974.14527        43.00027      5142.50027
 13  4  5 11 47 15.9980011  0 10G02G04G05G07G08G09G10G13G26G28
  22774315.308 7 119679823.08127        42.00027      -695.82027
  24992243.975 5 131335091.79125        35.00025     -1366.08125
  20706746.497 7 108814680.50927        47.00027      3509.98127
  20530667.474 6 107889378.99026        41.00026       322.55426
  20055213.588 7 105390839.02727        44.00027      2382.70627
  22935608.831 7 120527444.42427        42.00027      5699.48127
  20641759.829 7 108473187.65527        44.00027      -243.40027
  23293450.464 5 122407897.71825        34.00025      -950.65925
  21728664.643 7 114184912.48627        42.00027      4965.29027
  22994290.123 7 120835842.58027        42.00027      5140.46327
 13  4  5 11 47 30.9980011  0 10G02G04G05G07G08G09G10G13G26G28
  22776307.982 7 119690294.90627        43.00027      -700.81327
  24996143.820 6 131355587.91626        38.00026     -1366.26926
  20696739.701 8 108762092.14728        48.00028      3501.47328
  20529756.099 7 107884586.53527        42.00027       315.60827
  20048426.758 7 105355171.41527        46.00027      2373.02427
  22919343.273 7 120441964.87227        44.00027      5696.92727
  20642463.699 7 108476881.76327        47.00027      -250.48527
  23296163.292 5 122422157.87925        35.00025      -951.33125
  21714496.897 7 114110458.70327        44.00027      4961.57827
  22979619.462 7 120758751.11627        44.00027      5137.25727
 13  4  5 11 47 45.9980011  0 10G02G04G05G07G08G09G10G13G26G28
  22778312.540 6 119700838.79326        41.00026      -703.49226
  25000041.572 6 131376059.99626        39.00026     -1362.03626
  20686755.801 7 108709631.32027        47.00027      3494.02627
  20528861.948 6 107879897.03226        40.00026       310.89426
  20041663.540 7 105319630.34927        45.00027      2365.71227
  22903086.771 7 120356538.42627        44.00027      5694.62627
  20643189.189 7 108480690.13727        46.00027      -256.43827
  23298882.069 5 122436448.72125        33.00025      -956.44725
  21700339.482 7 114036062.42327        44.00027      4959.91427
  22964959.394 7 120681710.51727        43.00027      5134.99527
 13  4  5 11 48  0.9980011  0 10G02G04G05G07G08G09G10G13G26G28
  22780331.074 6 119711441.53626        41.00026      -709.70426
  25003930.807 6 131396494.81826        37.00026     -1359.70426
  20676794.638 7 108657285.33927        46.00027      3486.15227
  20527984.042 6 107875297.41526        38.00026       302.43726
  20034921.435 7 105284203.06427        44.00027      2357.67827
  22886836.499 7 120271152.46827        43.00027      5691.00127
  20643934.188 7 108484599.78927        46.00027      -264.48027
  23301608.265 5 122450757.11315        35.00025      -955.10725
  21686192.502 7 113961710.83727        44.00027      4955.03027
  22950306.253 6 120604708.26826        41.00026      5131.40426
 13  4  5 11 48 15.9980011  0 10G02G04G05G07G08G09G10G13G26G28
  22782359.085 6 119722111.50026        41.00026      -712.25526
  25007809.904 5 131416900.95725        35.00025     -1357.12725
  20666856.579 7 108605063.05527        46.00027      3478.40027
  20527126.833 6 107870796.06926        38.00026       297.22426
  20028204.094 7 105248898.08927        45.00027      2350.68927
  22870600.012 7 120185815.82627        45.00027      5688.27527
  20644698.785 7 108488619.10327        46.00027      -271.28627
  23304334.407 5 122465091.72025        33.00025      -955.79525
  21672053.444 7 113887412.75027        44.00027      4951.61527
  22935660.947 7 120527753.23227        42.00027      5129.49827
 13  4  5 11 48 30.9980011  0 10G02G04G05G07G08G09G10G13G26G28
  22784400.322 6 119732840.52426        40.00026      -716.73526
  25011688.652 6 131437270.09626        36.00026     -1355.24926
  20656940.821 7 108552956.97727        44.00027      3470.08927
  20526288.434 6 107866384.94026        38.00026       290.51426
  20021508.512 7 105213707.80427        45.00027      2342.69127
  22854365.533 7 120100520.99927        42.00027      5685.82527
  20645482.978 7 108492740.26227        45.00027      -277.26727
  23307062.747 5                        30.00025      -959.64925
  21657923.688 7 113813160.72427        43.00027      4948.60227
  22921026.635 7 120450838.26927        42.00027      5126.29127
 13  4  5 11 48 45.9980011  0 10G02G04G05G07G08G09G10G13G26G28
  22786455.415 6 119743631.63426        41.00026      -721.50826
  25015561.659 6 131457605.48526        38.00026     -1354.17226
  20647047.347 7 108500970.69627        44.00027      3461.21127
  20525468.376 6 107862067.10226        39.00026       284.00126
  20014833.975 7 105178635.34027        45.00027      2334.62427
  22838144.298 7 120015271.50127        44.00027      5682.17627
  20646287.185 7 108496966.40627        46.00027      -285.35227
  23309804.613 5 122493849.99835        35.00025      -958.87325
  21643803.668 7 113738958.14227        44.00027      4945.17527
  22906396.022 7 120373966.90027        42.00027      5123.02727
 13  4  5 11 49  0.9980011  0 10G02G04G05G07G08G09G10G13G26G28
  22788522.845 7 119754493.62627        43.00027      -726.94427
  25019423.445 6 131477915.83226        38.00026     -1352.87626
  20637178.687 7 108449113.46627        45.00027      3453.03527
  20524665.839 6 107857851.61526        40.00026       278.43726
  20008184.322 7 105143689.90427        47.00027      2326.41327
  22821931.578 7 119930076.72327        44.00027      5677.50527
  20647112.682 7 108501306.45327        46.00027      -292.55827
  23312543.913 5 122508255.71315        31.00025      -960.75225
  21629694.485 7 113664814.32427        45.00027      4941.86727
  22891776.927 7 120297148.85327        42.00027      5119.72827
 13  4  5 11 49 15.9980011  0 10G02G04G05G07G08G09G10G13G26G28
  22790602.230 7 119765416.67427        42.00027      -728.73027
  25023282.665 6 131498191.75226        38.00026     -1351.99026
  20627334.248 7 108397376.14427        45.00027      3444.91927
  20523881.152 6 107853728.90226        40.00026       271.82826
  20001556.918 7 105108862.07927        46.00027      2318.14027
  22805728.631 7 119844927.57127        44.00027      5675.03427
  20647958.178 7 108505750.95127        46.00027      -299.73927
  23315248.190 5                        30.00025      -961.46925
  21615591.340 7 113590719.99927        43.00027      4937.74027
  22877168.668 7 120220374.90527        42.00027      5116.30627
 13  4  5 11 49 30.9980011  0 10G02G04G05G07G08G09G10G13G26G28
  22792694.421 7 119776406.15327        43.00027      -734.87727
  25027138.414 6 131518438.70426        38.00026     -1348.69926
  20617513.228 7 108345765.05227        45.00027      3436.60327
  20523115.312 6 107849704.64026        40.00026       264.34826
  19994953.875 7 105074157.77027        46.00027      2309.37627
  22789534.339 7 119759830.15027        42.00027      5672.48927
  20648825.014 7 108510305.49127        46.00027      -307.73927
  23318021.744 5                        31.00025      -964.57325
  21601506.273 7 113516681.34727        44.00027      4933.85927
  22862569.517 7 120143651.39427        42.00027      5112.73427
 13  4  5 11 49 45.9980011  0 10G02G04G05G07G08G09G10G13G26G28
  22794797.259 7 119787457.59727        43.00027      -738.05327
  25030985.247 6 131538652.20226        37.00026     -1344.28326
  20607715.573 7 108294276.08327        46.00027      3429.30027
  20522368.144 6 107845774.29726        41.00026       260.12126
  19988372.784 7 105039572.49227        47.00027      2302.28927
  22773348.843 7 119674780.38127        43.00027      5670.10627
  20649711.588 7 108514965.62127        46.00027      -313.50427
  23320794.565 4 122551601.97614        29.00024      -966.30024
  21587424.837 7 113442694.13927        43.00027      4932.27527
  22847976.772 7 120066974.36227        43.00027      5110.67727
 13  4  5 11 50  0.9980011  0 10G02G04G05G07G08G09G10G13G26G28
  22796913.427 7 119798575.68727        43.00027      -742.80627
  25034826.022 6 131558836.93626        39.00026     -1344.37226
  20597941.389 7 108242914.53927        45.00027      3420.44627
  20521637.815 6 107841942.70926        40.00026       252.08726
  19981814.168 7 105005111.23127        46.00027      2292.78127
  22757175.037 7 119589783.62627        43.00027      5664.66427
  20650619.258 7 108519736.28427        46.00027      -321.62927
  23323546.394 5 122566110.82615        33.00025      -967.42425
  21573355.806 7 113368763.59527        43.00027      4926.70827
  22833397.061 7 119990349.34627        43.00027      5105.31627
 13  4  5 11 50 15.9980011  0 10G02G04G05G07G08G09G10G13G26G28
  22799041.078 7 119809756.80427        43.00027      -747.04427
  25038660.813 6 131578989.41226        38.00026     -1342.41326
  20588190.204 7 108191677.44827        45.00027      3412.27027
  20520927.467 6 107838206.47826        41.00026       246.80226
  19975279.147 7 104970770.94027        46.00027      2285.92627
  22741010.480 7 119504836.87627        43.00027      5662.11527
  20651547.519 7 108524614.14127        46.00027      -328.71927
  23326317.401 5 122580640.89915        33.00025      -969.79325
  21559295.781 7 113294886.79227        42.00027      4924.11027
  22818823.424 7 119913773.40527        43.00027      5104.08527
 13  4  5 11 50 30.9980011  0 10G02G04G05G07G08G09G10G13G26G28
  22801179.514 7 119820992.13027        43.00027      -750.54027
  25042488.868 6 131599100.82826        39.00026     -1339.74126
  20578462.298 7 108140556.59527        45.00027      3403.72627
  20520231.829 6 107834556.75026        40.00026       240.66526
  19968765.797 7 104936543.04327        45.00027      2277.88827
  22724853.287 7 119419931.78027        42.00027      5658.90027
  20652495.709 7 108529590.47127        46.00027      -335.42027
  23329096.889 5                        30.00025      -970.89025
  21545249.156 7 113221055.24127        43.00027      4919.84427
  22804260.500 7 119837238.47927        43.00027      5100.61327
 13  4  5 11 50 45.9980011  0 10G02G04G05G07G08G09G10G13G26G28
  22803330.827 7 119832291.12727        44.00027      -755.87827
  25046309.123 6 131619180.92926        38.00026     -1338.89226
  20568757.147 7 108089562.10627        45.00027      3395.42227
  20519556.363 6 107831003.35426        41.00026       233.87126
  19962275.273 7 104902437.48227        45.00027      2268.89927
  22708706.216 7 119335078.54727        43.00027      5655.05227
  20653463.129 7 108534675.13627        46.00027      -342.89027
  23331863.742 5 122609770.78415        34.00025      -974.14025
  21531205.848 6 113147279.14326        41.00026      4916.20926
  22789705.481 7 119760754.89727        43.00027      5096.28327
 13  4  5 11 51  0.9980011  0 10G02G04G05G07G08G09G10G13G26G28
  22805493.431 7 119843655.61427        43.00027      -760.62627
  25050124.718 6 131639231.35726        39.00026     -1337.67126
  20559078.031 7 108038696.18827        46.00027      3385.98127
  20518900.232 7 107827548.08027        42.00027       225.88927
  19955809.266 7 104868456.17027        46.00027      2259.95727
  22692568.392 7 119250279.46127        42.00027      5650.55227
  20654451.593 7 108539869.85327        46.00027      -351.45527
  23334638.639 5 122624371.07325        32.00025      -976.91225
  21517182.136 7 113073560.68527        43.00027      4911.73227
  22775162.556 7 119684324.89627        44.00027      5092.70327
 13  4  5 11 51 15.9980011  0 10G02G04G05G07G08G09G10G13G26G28
  22807667.552 7 119855082.01627        43.00027      -763.56727
  25053934.714 6 131659248.85526        40.00026     -1331.05026
  20549422.823 7 107987956.05627        46.00027      3379.00427
  20518259.912 7 107824187.53427        42.00027       221.22227
  19949364.461 7 104834595.83327        45.00027      2253.36527
  22676441.441 7 119165531.60927        43.00027      5649.45127
  20655461.296 7 108545171.32427        47.00027      -356.32827
  23337421.322 5 122638996.17225        34.00025      -973.04725
  21503162.246 7 112999896.79327        43.00027      4909.37127
  22760626.000 7 119607945.82027        43.00027      5090.34027
 13  4  5 11 51 30.9980011  0 10G02G04G05G07G08G09G10G13G26G28
  22809850.556 7 119866555.75227        42.00027      -766.59427
  25057734.481 6 131679218.76026        38.00026     -1330.74126
  20539788.938 7 107937327.70527        46.00027      3370.62127
  20517635.593 6 107820907.47726        41.00026       214.28326
  19942941.295 7 104800842.34427        44.00027      2245.69527
  22660321.679 7 119080821.02227        42.00027      5645.83227
  20656487.401 7 108550565.31527        45.00027      -363.17027
  23340209.447 5 122653631.75925        34.00025      -975.84925
  21489154.501 7 112926273.58727        42.00027      4906.19827
  22746098.536 7 119531603.91527        42.00027      5087.94627
 13  4  5 11 51 45.9980011  0 10G02G04G05G07G08G09G10G13G26G28
  22812045.652 6 119878085.43726        41.00026      -769.97526
  25061528.055 6 131699150.12826        38.00026     -1327.35926
  20530177.809 7 107886820.29327        46.00027      3362.58727
  20517029.109 7 107817716.46927        42.00027       209.26727
  19936539.767 7 104767204.48227        44.00027      2238.31327
  22644209.770 7 118996156.78227        42.00027      5642.63227
  20657532.597 7 108556060.42327        45.00027      -370.57527
  23342997.608 5 122668286.78525        34.00025      -976.90125
  21475150.264 6 112852700.06726        41.00026      4903.00926
  22731579.308 7 119455308.50727        42.00027      5084.81927
 13  4  5 11 52  0.9980011  0 10G02G04G05G07G08G09G10G13G26G28
  22814249.108 6 119889675.67026        41.00026      -773.31826
  25065313.863 6 131719047.31126        38.00026     -1325.13826
  20520590.936 7 107836438.93427        46.00027      3355.35527
  20516440.353 7 107814619.21427        42.00027       203.38627
  19930162.024 7 104733687.18827        44.00027      2230.79927
  22628109.657 7 118911544.11827        43.00027      5639.44527
  20658598.645 7 108561661.31527        46.00027      -376.83027
  23345788.211 5 122682966.08115        34.00025      -977.18825
  21461162.797 7 112779181.39927        42.00027      4900.36327
  22717071.981 7 119379064.74627        43.00027      5082.27827
 13  4  5 11 52 15.9980011  0 10G02G04G05G07G08G09G10G13G26G28
  22816467.988 7 119901328.03827        42.00027      -779.42827
  25069092.744 6 131738911.93326        40.00026     -1323.61126
  20511028.946 8 107786185.97228        48.00028      3346.46928
  20515869.048 7 107811617.71227        43.00027       197.25127
  19923808.397 7 104700292.46227        45.00027      2222.66427
  22612018.234 7 118826985.36527        43.00027      5635.60627
  20659684.273 7 108567369.95727        46.00027      -384.21327
  23348585.009 5 122697671.72415        33.00025      -979.93125
  21447181.454 7 112705719.73827        43.00027      4895.28027
  22702572.157 7 119302875.13227        42.00027      5077.79727
 13  4  5 11 52 30.9980011  0 10G02G04G05G07G08G09G10G13G26G28
  22818694.041 7 119913037.27627        42.00027      -781.95227
  25072864.173 6 131758739.09326        38.00026     -1321.13326
  20501490.514 7 107736056.74627        47.00027      3337.91027
  20515314.740 7 107808706.68127        43.00027       191.01027
  19917475.709 7 104667015.37427        45.00027      2214.42927
  22595936.722 7 118742475.83027        43.00027      5631.26627
  20660789.445 7 108573181.40927        46.00027      -391.19227
  23351390.794 5 122712398.72925        32.00025      -982.75325
  21433211.332 6 112632310.34726        41.00026      4892.49926
  22688084.444 7 119226735.19927        42.00027      5074.66427
 13  4  5 11 52 45.9980011  0 10G02G04G05G07G08G09G10G13G26G28
  22820933.129 6 119924803.31626        41.00026      -788.13826
  25076632.443 6 131778528.67526        39.00026     -1320.16426
  20491975.448 8 107686051.75628        48.00028      3328.79728
  20514778.178 7 107805886.21427        43.00027       184.76427
  19911165.516 7 104633856.19927        45.00027      2207.17627
  22579865.576 7 118658016.02427        43.00027      5627.70727
  20661914.458 7 108579095.68627        46.00027      -398.06127
  23354198.010 5 122727147.26625        34.00025      -984.25125
  21419252.936 7 112558953.65527        42.00027      4887.84527
  22673605.316 7 119150645.46427        43.00027      5070.38527
 13  4  5 11 53  0.9980011  0 10G02G04G05G07G08G09G10G13G26G28
  22823183.316 6 119936628.88026        41.00026      -789.48126
  25080389.790 6 131798283.59726        38.00026     -1316.57126
  20482483.451 8 107636174.49628        48.00028      3321.42228
  20514258.910 7 107803159.32927        43.00027       178.70527
  19904878.932 7 104600818.11027        45.00027      2198.93027
  22563804.779 7 118573609.32027        44.00027      5625.81827
  20663059.975 7 108585115.74727        46.00027      -404.79327
  23357010.286 5 122741920.64615        33.00025      -986.21625
  21405302.881 6 112485653.11026        40.00026      4884.50926
  22659136.432 7 119074609.53627        42.00027      5066.97027
 13  4  5 11 53 15.9980011  0 10G02G04G05G07G08G09G10G13G26G28
  22825446.572 7 119948512.15627        43.00027      -794.97827
  25084143.630 6 131818002.15826        38.00026     -1312.73126
  20473016.269 8 107586423.49428        48.00028      3312.80828
  20513758.487 7 107800524.41327        43.00027       172.17227
  19898615.069 7 104567899.30627        46.00027      2190.81727
  22547752.148 7 118489254.29627        44.00027      5622.16927
  20664225.821 7 108591239.73027        46.00027      -412.64727
  23359826.646 5 122756717.00835        35.00025      -986.19625
  21391364.937 6 112412407.18126        41.00026      4881.01426
  22644676.779 7 118998626.23527        42.00027      5063.66927
 13  4  5 11 53 30.9980011  0 10G02G04G05G07G08G09G10G13G26G28
  22827719.567 7 119960450.80827        43.00027      -796.99127
  25087888.867 6 131837682.04526        39.00026     -1309.90126
  20463572.138 7 107536797.20327        47.00027      3304.72127
  20513274.277 7 107797979.14127        43.00027       166.77027
  19892373.559 7 104535097.97527        46.00027      2182.72127
  22531709.463 7 118404949.51927        43.00027      5618.70827
  20665409.938 7 108597465.72427        46.00027      -418.30627
  23362644.160 5 122771534.94025        33.00025      -983.43325
  21377435.073 6 112339214.28126        39.00026      4878.38826
  22630226.497 6 118922694.06826        41.00026      5060.15226
 13  4  5 11 53 45.9980011  0 10G02G04G05G07G08G09G10G13G26G28
  22830002.246 7 119972448.45527        43.00027      -802.34527
  25091627.629 6 131857327.17926        39.00026     -1309.42226
  20454153.222 7 107487299.77627        47.00027      3295.15127
  20512808.179 7 107795527.27527        44.00027       160.59727
  19886154.787 7 104502418.03327        46.00027      2174.65927
  22515677.528 7 118320699.08427        43.00027      5615.24527
  20666615.606 7 108603797.63327        46.00027      -425.91127
  23365470.621 5 122786377.84835        34.00025      -990.15725
  21363517.667 6 112266078.50426        39.00026      4873.08826
  22615786.405 6 118846817.36626        41.00026      5056.89426
 13  4  5 11 54  0.9980011  0 10G02G04G05G07G08G09G10G13G26G28
  22832296.895 7 119984505.85327        43.00027      -807.15227
  25095358.957 6 131876938.38626        37.00026     -1307.98226
  20444759.383 7 107437932.59127        47.00027      3286.41927
  20512360.055 7 107793169.80227        44.00027       153.47627
  19879958.892 7 104469860.70827        45.00027      2166.21927
  22499655.103 7 118236504.44327        43.00027      5610.46127
  20667841.149 7 108610236.28527        46.00027      -433.41827
  23368298.655 5 122801246.95325        31.00025      -992.18125
  21349613.350 6 112193001.23826        40.00026      4868.94226
  22601359.698 7 118770997.78627        42.00027      5051.94327
 13  4  5 11 54 15.9980011  0 10G02G04G05G07G08G09G10G13G26G28
  22834601.841 7 119996622.38827        43.00027      -809.92027
  25099082.555 5 131896515.01225        35.00025     -1305.31525
  20435390.148 8 107388695.65228        48.00028      3277.18028
  20511929.486 7 107790906.07627        44.00027       147.02527
  19873786.415 7 104437425.56627        45.00027      2157.87227
  22483644.806 7 118152365.51927        44.00027      5607.23427
  20669086.761 7 108616781.18927        46.00027      -440.49727
  23371129.202 5 122816141.91535        31.00025      -993.45525
  21335717.164 6 112119982.34426        39.00026      4865.53526
  22586942.152 7 118695235.00927        42.00027      5047.90427
 13  4  5 11 54 30.9980011  0 10G02G04G05G07G08G09G10G13G26G28
  22836920.328 7 120008802.23827        43.00027      -813.99227
  25102802.716 6 131916061.24826        37.00026     -1302.97526
  20426046.216 7 107339593.65827        47.00027      3268.94827
  20511516.541 7 107788740.51127        43.00027       141.02727
  19867638.317 7 104405116.91427        45.00027      2150.21727
  22467644.700 7 118068286.87527        44.00027      5603.99127
  20670354.185 7 108623436.64627        46.00027      -447.12927
  23373970.411 5 122831067.09135        33.00025      -995.69425
  21321833.124 6 112047026.28526        38.00026      4860.85526
  22572536.821 6 118619534.15826        41.00026      5044.90926
 13  4  5 11 54 45.9980011  0 10G02G04G05G07G08G09G10G13G26G28
  22839249.826 7 120021041.60027        42.00027      -817.88127
  25106517.746 6 131935573.45326        39.00026     -1299.88626
  20416727.465 7 107290623.37027        47.00027      3259.92727
  20511122.583 7 107786669.48627        42.00027       135.13127
  19861513.165 7 104372931.39127        44.00027      2141.23127
  22451656.390 7 117984265.46327        43.00027      5599.02927
  20671640.996 7 108630199.12227        46.00027      -455.10927
  23376817.517 5 122846019.10425        33.00025      -998.34425
  21307960.723 6 111974129.95926        38.00026      4857.56826
  22558145.137 7 118543892.26427        43.00027      5040.88827
 13  4  5 11 55  0.9980011  0 10G02G04G05G07G08G09G10G13G26G28
  22841590.806 7 120033335.67827        43.00027      -821.97827
  25110224.609 6 131955046.99426        40.00026     -1298.21426
  20407433.266 7 107241780.64727        47.00027      3251.18727
  20510745.899 7 107784688.33727        43.00027       127.08327
  19855411.833 7 104340864.52027        45.00027      2133.52327
  22435676.544 7 117900297.09127        44.00027      5595.28627
  20672947.648 7 108637064.01527        46.00027      -461.75527
  23379665.165 5 122860993.62915        33.00025     -1000.31125
  21294100.816 6 111901289.21926        40.00026      4852.88026
  22543761.950 7 118468305.32127        43.00027      5036.17227
 13  4  5 11 55 15.9980011  0 10G02G04G05G07G08G09G10G13G26G28
  22843941.679 6 120045695.22326        41.00026      -827.63226
  25113925.505 6 131974492.78326        38.00026     -1294.01526
  20398164.789 8 107193076.70328        48.00028      3242.96928
  20510388.238 7 107782807.99827        44.00027       122.48327
  19849334.442 7 104308927.28427        45.00027      2125.38727
  22419711.617 7 117816393.07527        44.00027      5591.70527
  20674275.153 7 108644042.20627        47.00027      -468.06727
  23382524.157 5 122876001.59725        34.00025     -1000.57525
  21280251.938 6 111828515.15826        40.00026      4849.31326
  22529391.747 7 118392784.67827        44.00027      5033.24527
 13  4  5 11 55 30.9980011  0 10G02G04G05G07G08G09G10G13G26G28
  22846303.112 6 120058108.22226        41.00026      -829.49226
  25117615.075 6 131993898.75826        36.00026     -1292.82426
  20388920.952 8 107144500.11428        48.00028      3234.28928
  20510047.660 7 107781016.47127        44.00027       115.82427
  19843278.708 7 104277107.99527        45.00027      2117.18127
  22403755.695 7 117732541.91727        45.00027      5588.72027
  20675623.110 7 108651121.70227        47.00027      -475.28627
  23385385.171 5 122891031.30625        35.00025     -1003.60325
  21266415.432 6 111755796.40226        41.00026      4845.01126
  22515028.471 7 118317318.99227        44.00027      5029.56627
 13  4  5 11 55 45.9980011  0 10G02G04G05G07G08G09G10G13G26G28
  22848675.294 6 120070582.22126        39.00026      -831.53126
  25121301.713 6 132013272.65226        37.00026     -1290.75226
  20379704.058 7 107096059.15827        47.00027      3224.70527
  20509724.845 7 107779321.58927        43.00027       109.02627
  19837246.618 7 104245414.45227        43.00027      2108.85927
  22387809.929 7 117648751.79827        44.00027      5583.73427
  20676990.803 7 108658310.39727        47.00027      -482.75027
  23388249.413 5 122906090.62815        34.00025     -1008.50725
  21252590.722 7 111683140.94827        42.00027      4842.59127
  22500681.546 7 118241916.49927        44.00027      5024.70927
 13  4  5 11 56  0.9980011  0 10G02G04G05G07G08G09G10G13G26G28
  22851059.271 6 120083113.04026        38.00026      -836.48126
  25124984.705 6 132032610.33326        39.00026     -1288.45526
  20370511.419 8 107047750.30028        48.00028      3216.09228
  20509419.482 7 107777719.31527        43.00027       103.60627
  19831238.941 7 104213842.94227        44.00027      2100.94827
  22371876.360 7 117565019.21527        45.00027      5579.95427
  20678378.948 7 108665604.29727        47.00027      -489.93727
  23391120.430 5 122921175.82925        34.00025     -1002.99425
  21238775.907 7 111610545.25527        42.00027      4837.49327
  22486342.578 7 118166574.02127        43.00027      5020.25427
 13  4  5 11 56 15.9980011  0 10G02G04G05G07G08G09G10G13G26G28
  22853453.910 6 120095704.53326        37.00026      -841.47126
  25128658.901 6 132051915.96126        39.00026     -1287.13326
  20361344.258 7 106999577.93027        47.00027      3206.23427
  20509131.691 7 107776213.64827        42.00027        97.18027
  19825254.787 7 104182397.68027        44.00027      2091.80227
  22355953.908 7 117481348.64027        44.00027      5575.33427
  20679787.841 7 108673007.46827        47.00027      -497.11427
  23393996.450 5 122936291.02425        35.00025     -1009.92925
  21224974.475 6 111538013.86326        41.00026      4832.79426
  22472019.229 7 118091296.06227        43.00027      5016.46827
 13  4  5 11 56 30.9980011  0 10G02G04G05G07G08G09G10G13G26G28
  22855863.120 6 120108359.87526        36.00026      -845.62826
  25132328.527 6 132071192.75226        38.00026     -1282.75426
  20352203.394 7 106951545.92527        47.00027      3198.18127
  20508862.781 6 107774808.09626        41.00026        92.02826
  19819295.901 7 104151082.04727        43.00027      2084.80227
  22340044.683 7 117397743.83027        44.00027      5572.94227
  20681217.430 7 108680523.30327        47.00027      -504.07127
  23396879.820 5 122951439.77535        34.00025     -1007.54725
  21211186.185 7 111465550.29527        42.00027      4829.97327
  22457705.198 7 118016086.54027        43.00027      5013.21427
 13  4  5 11 56 45.9980011  0 10G02G04G05G07G08G09G10G13G26G28
  22858278.753 6 120121066.44026        37.00026      -847.82626
  25135987.594 6 132090428.15926        36.00026     -1279.20826
  20343087.415 7 106903642.24527        47.00027      3189.84627
  20508613.956 7 107773490.08427        42.00027        85.78327
  19813358.898 7 104119883.71727        43.00027      2077.21427
  22324144.148 7 117314192.75427        44.00027      5569.31827
  20682667.052 7 108688139.28627        47.00027      -510.09927
  23399768.546 5 122966609.69615        32.00025     -1009.82825
  21197407.857 7 111393142.49527        44.00027      4825.41427
  22443404.289 7 117940933.55727        43.00027      5008.78727
 13  4  5 11 57  0.9980011  0 10G02G04G05G07G08G09G10G13G26G28
  22860704.419 6 120133818.31726        38.00026      -851.37726
  25139639.227 6 132109616.46326        36.00026     -1277.91226
  20333995.552 7 106855861.30827        47.00027      3181.57727
  20508378.881 7 107772253.59127        42.00027        79.36727
  19807443.341 7 104088797.08627        43.00027      2068.47927
  22308254.815 7 117230690.09227        44.00027      5565.18727
  20684133.618 7 108695849.64527        47.00027      -517.57227
  23402656.171 5 122981795.18335        32.00025     -1013.38625
  21183635.551 7 111320785.16827        42.00027      4822.47427
  22429113.606 7 117865831.89027        43.00027      5004.82727
 13  4  5 11 57 15.9980011  0 10G02G04G05G07G08G09G10G13G26G28
  22863142.545 6 120146623.95726        39.00026      -855.81826
  25143283.654 6 132128766.26826        37.00026     -1275.50326
  20324928.223 7 106808212.22727        47.00027      3171.98127
  20508161.711 7 107771107.45927        43.00027        73.32327
  19801550.207 7 104057831.02927        44.00027      2060.07127
  22292375.430 7 117147244.91127        44.00027      5561.34727
  20685620.443 7 108703663.08427        47.00027      -524.28627
  23405550.586 5 122997005.07815        34.00025     -1015.99125
  21169879.508 7 111248487.28327        43.00027      4818.54327
  22414833.114 7 117790790.76627        43.00027      5000.77927
 13  4  5 11 57 30.9980011  0 10G02G04G05G07G08G09G10G13G26G28
  22865591.367 6 120159491.83026        40.00026      -859.61226
  25146922.286 6 132147886.03126        37.00026     -1274.64026
  20315887.855 7 106760704.14027        47.00027      3162.57827
  20507962.113 7 107770060.15327        42.00027        67.43027
  19795682.708 7 104026994.19427        44.00027      2052.16627
  22276509.288 7 117063866.21627        44.00027      5555.85727
  20687128.157 7 108711588.07927        47.00027      -531.63527
  23408450.985 5 123012248.06215        33.00025     -1019.51525
  21156136.098 7 111176257.68527        44.00027      4812.52427
  22400567.315 7 117715819.29627        44.00027      4996.27127
 13  4  5 11 57 45.9980011  0 10G02G04G05G07G08G09G10G13G26G28
  22868054.935 6 120172419.11226        40.00026      -864.13526
  25150554.672 5 132166973.03525        34.00025     -1271.72025
  20306873.505 7 106713334.85927        46.00027      3152.82427
  20507780.366 6 107769109.26626        41.00026        59.06026
  19789838.138 7 103996284.24627        43.00027      2042.51527
  22260654.804 7 116980551.85427        43.00027      5551.23527
  20688656.095 7 108719622.20127        45.00027      -540.24327
  23411358.191 5 123027521.66815        32.00025     -1021.36025
  21142405.306 7 111104094.29927        43.00027      4807.99727
  22386312.980 7 117640915.59627        43.00027      4990.13727
 13  4  5 11 58  0.9980011  0 10G02G04G05G07G08G09G10G13G26G28
  22870525.309 6 120185395.03926        41.00026      -865.85626
  25154177.845 5 132186016.58325        34.00025     -1267.65625
  20297883.778 7 106666094.08427        46.00027      3144.81427
  20507615.687 6 107768243.94226        40.00026        54.71726
  19784017.022 7 103965690.61927        43.00027      2036.20627
  22244808.610 7 116897291.56327        43.00027      5549.14627
  20690203.508 7 108727754.86327        45.00027      -545.50627
  23414270.772 5 123042815.70435        35.00025     -1020.77625
  21128679.923 7 111031986.76827        43.00027      4805.37127
  22372069.990 7 117566069.63527        44.00027      4988.28627
 13  4  5 11 58 15.9980011  0 10G02G04G05G07G08G09G10G13G26G28
  22873003.814 7 120198417.91927        43.00027      -869.80627
  25157794.874 5 132205015.35315        31.00025     -1266.48125
  20288918.603 7 106618980.78527        46.00027      3136.28727
  20507465.630 6 107767462.91326        40.00026        49.07326
  19778217.177 7 103935211.93727        45.00027      2027.22927
  22228976.147 7 116814084.38927        44.00027      5543.82527
  20691769.226 7 108735984.66727        45.00027      -552.45727
  23417183.858 5 123058128.59615        34.00025     -1023.66925
  21114969.250 7 110959934.08027        42.00027      4800.97627
  22357837.381 7 117491280.26827        44.00027      4983.66227
 13  4  5 11 58 30.9980011  0 10G02G04G05G07G08G09G10G13G26G28
  22875491.952 7 120211491.02027        43.00027      -872.93927
  25161401.470 5 132223972.58435        34.00025     -1261.97025
  20279977.230 7 106571998.93427        46.00027      3127.83527
  20507334.298 6 107766769.56726        41.00026        43.49026
  19772439.390 7 103904851.71327        44.00027      2019.86427
  22213150.527 7 116730934.22827        43.00027      5541.88527
  20693353.512 7 108744315.06527        45.00027      -558.34127
  23420101.011 5 123073463.95625        35.00025     -1022.95325
  21101271.090 7 110887940.03927        44.00027      4798.82327
  22343617.668 7 117416551.63727        45.00027      4979.77327
 13  4  5 11 58 45.9980011  0 10G02G04G05G07G08G09G10G13G26G28
  22877987.420 7 120224612.57827        42.00027      -876.34427
  25164996.338 5                        31.00025     -1258.01925
  20271061.666 7 106525147.26827        45.00027      3119.05627
  20507218.985 6 107766162.02026        39.00026        38.90926
  19766685.195 7 103874608.50427        45.00027      2012.31027
  22197338.848 7 116647839.75127        42.00027      5538.60427
  20694959.505 7 108752744.24027        45.00027      -565.72727
  23423024.916 5 123088820.22725        35.00025     -1024.30525
  21087584.167 7 110816003.28627        45.00027      4793.88527
  22329409.211 7 117341882.64627        44.00027      4976.20527
 13  4  5 11 59  0.9980011  0 10G02G04G05G07G08G09G10G13G26G28
  22880494.089 7 120237781.47127        42.00027      -880.52727
  25168592.112 5 132261844.03315        31.00025     -1258.82125
  20262170.341 7 106478425.06827        45.00027      3109.91127
  20507118.713 6 107765639.28126        39.00026        30.77626
  19760952.813 7 103844481.41327        44.00027      2003.92027
  22181536.225 6 116564800.35326        41.00026      5533.02326
  20696582.006 7 108761271.24527        45.00027      -572.85227
  23425950.148 5 123104196.66935        34.00025     -1026.04325
  21073901.502 7 110744123.24727        43.00027      4788.89527
  22315211.572 7 117267272.80427        44.00027      4971.00727
 13  4  5 11 59 15.9980011  0 10G02G04G05G07G08G09G10G13G26G28
  22883008.019 6 120250993.05926        41.00026      -882.24426
  25172171.243 5 132280661.61915        31.00025     -1249.91525
  20253302.085 7 106431828.32727        45.00027      3101.61227
  20507034.758 6 107765196.87726        39.00026        26.75426
  19755241.144 7 103814466.13827        45.00027      1997.31327
  22165744.214 6 116481812.03526        41.00026      5530.67926
  20698223.459 7 108769891.50227        46.00027      -577.72527
  23428879.429 5 123119589.02525        34.00025     -1024.95825
  21060233.182 7 110672295.87527        42.00027      4786.76527
  22301024.509 7 117192718.25627        44.00027      4968.54627
 13  4  5 11 59 30.9980011  0 10G02G04G05G07G08G09G10G13G26G28
  22885530.290 7 120264248.95127        42.00027      -886.31927
  25175746.303 5 132299435.25015        31.00025     -1251.91725
  20244459.410 7 106385359.23227        45.00027      3093.34427
  20506967.451 6 107764836.73126        40.00026        20.76826
  19749549.543 7 103784564.64427        44.00027      1989.40927
  22149961.328 7 116398876.96127        43.00027      5526.98927
  20699882.483 7 108778606.90627        47.00027      -584.84227
  23431810.925 5 123134999.28435        34.00025     -1028.27525
  21046580.078 7 110600523.32827        45.00027      4782.92127
  22286848.474 7 117118221.33627        46.00027      4964.30027
 13  4  5 11 59 45.9980011  0 10G02G04G05G07G08G09G10G13G26G28
  22888060.623 6 120277553.99526        41.00026      -888.60226
  25179314.857 5 132318167.34215        31.00025     -1246.00425
  20235641.882 7 106339023.47527        45.00027      3084.91627
  20506917.436 6 107764563.96426        41.00026        15.57726
  19743882.530 7 103754782.25427        44.00027      1981.23927
  22134192.594 7 116316000.83827        43.00027      5523.58027
  20701560.023 8 108787422.46428        48.00028      -590.63028
  23434746.435 5 123150432.48515        34.00025     -1030.66025
  21032932.907 7 110528811.01627        45.00027      4779.13027
  22272685.911 7 117043787.80227        47.00027      4960.59127
 13  4  5 12  0  0.9980011  0 10G02G04G05G07G08G09G10G13G26G28
  22890601.810 6 120290908.53226        39.00026      -890.42926
  25182859.416 4                        29.00024     -1243.80224
  20226849.971 7 106292821.72127        44.00027      3076.70427
  20506882.499 6 107764378.79226        41.00026         9.61726
  19738237.852 7 103725119.42327        44.00027      1972.77527
  22118432.394 7 116233184.38327        43.00027      5519.55127
  20703257.194 7 108796338.68327        47.00027      -597.37527
  23437688.332 5 123165889.41115        34.00025     -1029.33825
  21019296.956 7 110457159.74227        44.00027      4774.96627
  22258532.247 7 116969418.47527        46.00027      4956.44727
 13  4  5 12  0 15.9980011  0 10G02G04G05G07G08G09G10G13G26G28
  22893151.076 6 120304311.67026        38.00026      -893.16226
  25186429.696 5 132355580.60115        34.00025     -1242.36025
  20218082.646 7 106246753.99227        45.00027      3068.30727
  20506863.686 6 107764280.68126        41.00026         4.99826
  19732615.896 7 103695575.54227        43.00027      1966.48227
  22102684.479 7 116150427.45127        43.00027      5517.07527
  20704972.112 7 108805354.94127        47.00027      -603.11827
  23440636.319 6 123181369.45536        36.00026     -1031.15526
  21005668.160 7 110385569.30927        42.00027      4771.74427
  22244392.439 7 116895113.46327        45.00027      4952.57327
 13  4  5 12  0 30.9980011  0 10G02G04G05G07G08G09G10G13G26G28
  22895711.580 6 120317765.07226        39.00026      -897.83526
  25189956.178 4                        29.00024     -1238.03324
  20209343.137 7 106200822.25027        46.00027      3057.66027
  20506861.903 7 107764271.34427        42.00027        -2.57627
  19727017.583 7 103666152.62027        45.00027      1957.06627
  22086949.127 7 116067732.23027        44.00027      5511.51127
  20706706.870 7 108814473.15927        47.00027      -611.02627
  23443586.190 5 123196874.51415        34.00025     -1033.15325
  20992062.537 7 110314041.89827        43.00027      4766.49527
  22230266.067 7 116820875.09827        46.00027      4947.22027
 13  4  5 12  0 45.9980011  0 10G02G04G05G07G08G09G10G13G26G28
  22898281.106 6 120331266.68426        39.00026      -901.92126
  25193499.479 5 132392733.16415        34.00025     -1237.17225
  20200628.216 7 106155024.94627        45.00027      3048.95727
  20506876.001 6 107764348.80226        41.00026        -7.51326
  19721441.799 7 103636848.75827        44.00027      1949.55127
  22071224.873 7 115985097.19527        44.00027      5506.99127
  20708461.521 8 108823691.27328        48.00028      -617.64728
  23446540.634 5 123212402.89525        34.00025     -1034.03325
  20978466.129 7 110242575.91127        45.00027      4762.43027
  22216151.492 7 116746701.94827        46.00027      4942.78227
 13  4  5 12  1  0.9980011  0 10G02G04G05G07G08G09G10G13G26G28
  22900858.869 6 120344805.46726        38.00026      -903.21126
  25197023.152 5 132411245.28715        31.00025     -1230.83725
  20191938.161 7 106109351.58827        45.00027      3041.08427
  20506904.356 6 107764502.32226        41.00026       -11.29826
  19715886.119 7 103607653.36727        43.00027      1943.18127
  22055507.653 7 115902511.82927        43.00027      5504.20027
  20710232.455 7 108832998.39727        46.00027      -623.28027
  23449500.522 5 123227943.85215        34.00025     -1035.68425
  20964876.439 7 110171160.76227        45.00027      4759.49427
  22202046.444 7 116672583.77727        45.00027      4939.28627
 13  4  5 12  1 15.9980011  0 10G02G04G05G07G08G09G10G13G26G28
  22903442.686 6 120358390.80726        38.00026      -908.34926
  25200536.491 5                        30.00025     -1232.55325
  20183273.723 7 106063812.26027        45.00027      3031.58327
  20506950.369 6 107764741.34226        40.00026       -19.87126
  19710352.302 7 103578576.08827        43.00027      1934.30227
  22039805.213 7 115819986.24527        44.00027      5499.62427
  20712022.792 7 108842404.11727        46.00027      -630.41027
  23452459.520 5 123243507.31625        33.00025     -1036.68425
  20951292.961 7 110099806.50827        44.00027      4755.00927
  22187955.217 7 116598530.75327        45.00027      4934.12827
 13  4  5 12  1 30.9980011  0 10G02G04G05G07G08G09G10G13G26G28
  22906039.608 6 120372023.43126        39.00026      -911.25126
  25204040.008 5 132448123.48115        31.00025     -1228.10525
  20174633.524 7 106018408.31327        46.00027      3022.17027
  20507012.193 6 107765066.76826        41.00026       -24.74126
  19704842.323 7 103549617.98927        43.00027      1926.39527
  22024112.527 7 115737521.79427        43.00027      5495.92427
  20713831.714 7 108851909.37927        46.00027      -637.22227
  23455423.525 5 123259094.21315        31.00025     -1041.76125
  20937724.577 7 110028514.46627        42.00027      4750.01227
  22173876.415 7 116524544.34927        45.00027      4929.68327
 13  4  5 12  1 45.9980011  0 10G02G04G05G07G08G09G10G13G26G28
  22908641.279 6 120385701.40726        39.00026      -911.55026
  25207537.172 5                        30.00025     -1225.28625
  20166018.191 7 105973138.19827        46.00027      3013.56527
  20507090.351 7 107765476.86427        42.00027       -29.51927
  19699353.739 7 103520777.32927        44.00027      1919.29027
  22008432.388 7 115655117.03327        44.00027      5492.05527
  20715659.796 7 108861512.37727        47.00027      -643.56427
  23458396.449 5 123274702.78035        34.00025     -1040.45025
  20924173.051 7 109957283.14927        44.00027      4746.83627
  22159809.391 7 116450623.25327        46.00027      4926.00127
 13  4  5 12  2  0.9980011  0  9G02G05G07G08G09G10G13G26G28
  22911252.004 6 120399420.51926        40.00026      -916.40326
  20157428.091 7 105927998.39127        45.00027      3005.87827
  20507184.039 6 107765967.49926        41.00026       -35.12826
  19693887.228 7 103492050.23127        43.00027      1912.08127
  21992762.021 7 115572768.33627        44.00027      5488.15227
  20717504.893 7 108871209.01927        46.00027      -649.33027
  23461368.919 5 123290329.33825        33.00025     -1040.09525
  20910632.658 7 109886108.93827        44.00027      4743.32327
  22145755.578 7 116376763.98927        46.00027      4921.72527
 13  4  5 12  2 15.9980011  0  9G02G05G07G08G09G10G13G26G28
  22913872.642 6 120413183.58326        41.00026      -919.46326
  20148863.887 7 105882992.21327        45.00027      2995.75027
  20507293.816 7 107766541.76827        42.00027       -41.63227
  19688442.635 7 103463439.70827        43.00027      1904.02227
  21977101.671 7 115490479.10327        43.00027      5484.03827
  20719367.997 7 108881002.25027        46.00027      -656.62227
  23464343.743 5 123305976.93815        32.00025     -1045.39025
  20897098.861 7 109814995.04427        45.00027      4738.18927
  22131712.339 7 116302969.96627        46.00027      4917.31327
 13  4  5 12  2 30.9980011  0  9G02G05G07G08G09G10G13G26G28
  22916501.464 6 120426991.68926        41.00026      -921.49826
  20140324.271 7 105838121.34927        44.00027      2987.41727
  20507418.984 7 107767200.80627        42.00027       -46.56427
  19683020.500 7 103434947.18127        43.00027      1895.16827
  21961454.739 7 115408251.02927        43.00027      5479.45627
  20721250.245 7 108890893.43827        46.00027      -662.67727
  23467327.906 5 123321646.99625        34.00025     -1043.53725
  20883572.114 7 109743943.24727        43.00027      4734.79627
  22117681.333 7 116229243.13027        45.00027      4913.03927
 13  4  5 12  2 45.9980011  0  9G02G05G07G08G09G10G13G26G28
  22919138.975 7 120440849.56327        42.00027      -926.17327
  20131812.888 7 105793391.24127        45.00027      2976.21327
  20507562.858 7 107767949.36727        43.00027       -54.79827
  19677620.998 7 103406577.86127        44.00027      1886.17127
  21945819.464 7 115326089.56927        43.00027      5473.92827
  20723152.351 7 108900887.63427        47.00027      -670.67427
  23470317.057 6 123337344.57926        36.00026     -1047.24326
  20870063.636 6 109672958.99426        41.00026      4729.38226
  22103666.764 7 116155589.12627        46.00027      4907.50227
 13  4  5 12  3  0.9980011  0  9G02G05G07G08G09G10G13G26G28
  22921785.195 7 120454758.19327        43.00027      -929.04727
  20123327.926 7 105748803.45027        46.00027      2967.29227
  20507722.072 7 107768788.78427        45.00027       -59.45127
  19672245.647 7 103378332.91027        43.00027      1878.42627
  21930197.173 7 115243996.19927        45.00027      5470.05127
  20725074.857 8 108910985.75628        48.00028      -676.96228
  23473309.070 5 123353071.02115        35.00025     -1049.40725
  20856570.411 7 109602043.59627        43.00027      4725.26927
  22089663.311 7 116082009.52427        46.00027      4902.65727
 13  4  5 12  3 15.9980011  0  9G02G05G07G08G09G10G13G26G28
  22924440.297 7 120468713.10427        42.00027      -931.06727
  20114869.121 7 105704353.87027        44.00027      2958.37227
  20507899.068 7 107769714.65627        43.00027       -64.69627
  19666893.035 7 103350208.11427        42.00027      1871.51127
  21914587.760 7 115161967.06827        43.00027      5466.22927
  20727016.051 7 108921183.46027        47.00027      -683.39627
  23476305.325 5 123368822.15225        35.00025     -1050.04025
  20843091.826 7 109531193.09827        43.00027      4721.02327
  22075672.859 7 116008500.58527        44.00027      4898.25127
 13  4  5 12  3 30.9980011  0  9G02G05G07G08G09G10G13G26G28
  22927104.612 6 120482707.94626        41.00026      -934.95626
  20106435.794 7 105660036.74627        44.00027      2948.67327
  20508088.854 7 107770720.69727        43.00027       -69.63927
  19661562.060 7 103322197.37527        42.00027      1863.65227
  21898988.223 7 115079996.28227        42.00027      5462.20327
  20728973.859 7 108931474.49427        47.00027      -689.60227
  23479306.691 5 123384591.82915        33.00025     -1055.17525
  20829620.623 7 109460401.64527        44.00027      4717.27327
  22061696.629 7 115935056.67827        43.00027      4893.63927
 13  4  5 12  3 45.9980011  0  9G02G05G07G08G09G10G13G26G28
  22929773.465 6 120496740.38226        41.00026      -937.73626
  20098026.496 7 105615850.33127        44.00027      2941.42227
  20508295.183 7 107771804.85927        43.00027       -75.98427
  19656254.800 7 103294298.77827        43.00027      1855.17027
  21883402.159 7 114998082.23827        44.00027      5459.03927
  20730949.849 8 108941856.86228        48.00028      -696.08228
  23482310.658 5 123400378.16415        32.00025     -1054.71025
  20816158.093 7 109389667.59027        44.00027      4712.98727
  22047733.400 7 115861676.12827        43.00027      4889.34327
 13  4  5 12  4  0.9980011  0  9G02G05G07G08G09G10G13G26G28
  22932449.856 6 120510808.13426        40.00026      -939.99426
  20089643.199 7 105571792.92927        44.00027      2932.62027
  20508516.398 7 107772965.02527        43.00027       -79.92727
  19650966.753 6 103266510.29326        41.00026      1847.99526
  21867823.527 7 114916223.22927        43.00027      5454.26427
  20732942.487 7 108952328.41227        47.00027      -702.01627
  23485316.127 5 123416179.09115        31.00025     -1054.96325
  20802707.062 7 109318989.21427        43.00027      4709.35727
  22033782.246 7 115788357.57127        42.00027      4885.33427
 13  4  5 12  4 15.9980011  0  9G02G05G07G08G09G10G13G26G28
  22935135.252 6 120524920.23926        41.00026      -942.77026
  20081286.530 7 105527874.40527        45.00027      2922.44027
  20508752.497 7 107774210.38627        44.00027       -86.78427
  19645701.548 7 103238841.29227        43.00027      1840.46427
  21852258.490 7 114834428.93827        44.00027      5449.92627
  20734953.657 8 108962898.54028        48.00028      -708.57428
  23488337.371 4                        29.00024     -1053.80324
  20789268.822 7 109248376.20127        43.00027      4704.76827
  22019842.137 7 115715110.64527        42.00027      4880.31227
 13  4  5 12  4 30.9980011  0  9G02G05G07G08G09G10G13G26G28
  22937831.641 6 120539084.08426        41.00026      -945.37526
  20072957.643 7 105484102.43327        46.00027      2914.51027
  20509007.583 7 107775548.54127        44.00027       -91.86527
  19640460.320 7 103211299.39227        43.00027      1831.90127
  21836707.570 7 114752707.34827        45.00027      5447.11227
  20736985.715 8 108973574.65128        48.00028      -714.34228
  23491346.398 5                        32.00025     -1056.87725
  20775848.050 7 109177836.37327        43.00027      4701.02127
  22005915.867 6 115641943.54726        40.00026      4876.38026
 13  4  5 12  4 45.9980011  0  9G02G05G07G08G09G10G13G26G28
  22940532.323 6 120553275.94626        41.00026      -947.48926
  20064651.737 7 105440453.77727        46.00027      2905.38627
  20509275.110 7 107776955.80427        43.00027       -96.36027
  19635239.596 7 103183861.12127        42.00027      1826.03227
  21821164.852 7 114671035.21727        44.00027      5442.85827
  20739032.222 7 108984332.99127        47.00027      -719.95127
  23494363.993 5 123463715.69635        32.00025     -1058.66925
  20762437.487 7 109107346.43527        45.00027      4697.25427
  21992003.313 6 115568833.36226        41.00026      4870.55326
 13  4  5 12  5  0.9980011  0  9G02G05G07G08G09G10G13G26G28
  22943240.352 6 120567511.13126        40.00026      -950.06826
  20056372.006 7 105396944.31527        46.00027      2895.52327
  20509559.285 7 107778447.55127        43.00027      -101.73527
  19630039.830 7 103156541.99327        43.00027      1817.65827
  21805638.048 7 114589428.40627        45.00027      5438.20227
  20741098.291 8 108995189.04028        48.00028      -726.95228
  23497383.247 4                        29.00024     -1060.11424
  20749035.892 7 109036922.26727        46.00027      4692.52327
  21978103.968 6 115495795.94926        40.00026      4866.76826
 13  4  5 12  5 15.9980011  0  9G02G05G07G08G09G10G13G26G28
  22945959.112 7 120581787.23327        42.00027      -953.60227
  20048118.172 7 105353572.05627        46.00027      2886.84727
  20509858.781 7 107780021.46627        44.00027      -107.76127
  19624864.842 7 103129339.76427        43.00027      1809.03427
  21790117.787 7 114507884.96927        45.00027      5434.15227
  20743182.228 8 109006140.63228        49.00028      -733.80528
  23500412.431 5 123495499.93115        33.00025     -1059.60325
  20735644.733 7 108966561.94827        46.00027      4687.68227
  21964221.289 7 115422829.43527        42.00027      4861.85927
 13  4  5 12  5 30.9980011  0  9G02G05G07G08G09G10G13G26G28
  22948680.176 6 120596092.39126        41.00026      -954.65626
  20039889.048 7 105310326.00527        47.00027      2878.87627
  20510171.574 7 107781666.12127        44.00027      -111.90627
  19619706.870 7 103102243.08327        43.00027      1803.37927
  21774611.942 7 114426393.86727        45.00027      5431.51927
  20745282.657 8 109017176.11828        48.00028      -738.04528
  23503447.985 5 123511422.03635        32.00025     -1055.78925
  20722264.271 7 108896254.34427        45.00027      4685.46627
  21950347.387 7 115349922.99627        42.00027      4858.59627
 13  4  5 12  5 45.9980011  0  9G02G05G07G08G09G10G13G26G28
  22951409.877 6 120610432.82126        41.00026      -959.54326
  20031684.580 7 105267212.73627        46.00027      2868.94927
  20510499.217 7 107783387.82227        43.00027      -118.55327
  19614573.571 7 103075258.30427        43.00027      1794.30727
  21759115.082 7 114344961.85527        44.00027      5425.50027
  20747400.150 7 109028301.80427        47.00027      -746.04527
  23506430.626 4                        26.00024     -1061.33324
  20708894.890 7 108826006.12627        43.00027      4679.89827
  21936487.217 6 115277083.51126        41.00026      4851.26426
 13  4  5 12  6  0.9980011  0  9G02G05G07G08G09G10G13G26G28
  22954145.285 6 120624809.71526        41.00026      -960.96626
  20023505.659 7 105224234.15327        46.00027      2860.43627
  20510841.100 7 107785187.79227        43.00027      -122.91527
  19609460.305 7 103048387.11627        43.00027      1786.98127
  21743628.780 7 114263590.83127        43.00027      5422.57827
  20749534.205 7 109039518.97427        47.00027      -751.51527
  23509494.045 4                        29.00024     -1065.56224
  20695542.959 7 108755819.11327        45.00027      4676.41727
  21922638.619 7 115204313.01427        42.00027      4848.23527
 13  4  5 12  6 15.9980011  0  9G02G05G07G08G09G10G13G26G28
  22956886.889 6 120639224.31026        40.00026      -962.11626
  20015352.251 7 105181392.06927        45.00027      2851.91827
  20511198.636 7 107787067.40927        42.00027      -127.78127
  19604368.852 7 103021631.09727        44.00027      1779.95827
  21728158.271 7 114182282.53827        43.00027      5418.94727
  20751686.792 7 109050829.18727        46.00027      -757.39727
  23512539.824 5                        30.00025     -1063.90625
  20682197.676 7 108685695.10427        44.00027      4672.21827
  21908805.725 7 115131613.33927        42.00027      4843.63627
 13  4  5 12  6 30.9980011  0  9G02G05G07G08G09G10G13G26G28
  22959638.944 6 120653686.23826        41.00026      -965.14026
  20007227.845 7 105138696.58027        46.00027      2841.97827
  20511573.586 7 107789036.55427        43.00027      -134.08227
  19599300.992 7 102995000.04727        44.00027      1772.72427
  21712700.273 7 114101047.18127        44.00027      5413.73927
  20753857.981 7 109062242.32427        47.00027      -763.60127
  23515599.562 5                        30.00025     -1065.92525
  20668869.286 7 108615644.21527        45.00027      4668.03627
  21894987.175 7 115058994.89727        43.00027      4839.65027
 13  4  5 12  6 45.9980011  0  9G02G05G07G08G09G10G13G26G28
  22962397.718 6 120668177.56526        41.00026      -966.01726
  19999127.015 7 105096130.25827        46.00027      2833.93627
  20511961.834 7 107791077.46827        43.00027      -138.07827
  19594253.706 7 102968476.24727        44.00027      1765.31227
  21697253.025 7 114019867.51027        44.00027      5410.48327
  20756046.498 7 109073740.47927        47.00027      -768.67727
  23518653.663 4                        28.00024     -1068.46424
  20655546.602 7 108545649.06527        45.00027      4665.32627
  21881181.346 7 114986440.31327        44.00027      4835.52127
 13  4  5 12  7  0.9980011  0  9G02G05G07G08G09G10G13G26G28
  22965164.188 6 120682708.28326        40.00026      -967.35826
  19991054.593 7 105053703.60327        45.00027      2824.77227
  20512366.992 7 107793200.16527        42.00027      -142.67627
  19589229.314 7 102942069.91927        43.00027      1757.90527
  21681817.712 7 113938753.95527        43.00027      5406.55627
  20758252.866 7 109085333.74727        46.00027      -775.04927
  23521689.670 5                        30.00025     -1068.72825
  20642237.598 7 108475720.12127        42.00027      4660.81827
  21867385.935 7 114913960.26527        43.00027      4830.18927
 13  4  5 12  7 15.9980011  0  9G02G05G07G08G09G10G13G26G28
  22967934.496 6 120697267.94726        41.00026      -971.93026
  19983006.042 7 105011406.79227        45.00027      2814.56427
  20512785.864 7 107795394.30227        42.00027      -149.84327
  19584223.507 7 102915770.84627        43.00027      1750.06627
  21666392.782 7 113857696.54927        44.00027      5402.04327
  20760474.974 7 109097011.87827        47.00027      -781.22327
  23524745.865 4                        29.00024     -1070.31724
  20628942.380 7 108405847.53427        42.00027      4655.53827
  21853606.281 7 114841545.18827        42.00027      4824.69027
 13  4  5 12  7 30.9980011  0  9G02G05G07G08G09G10G13G26G28
  22970712.221 7 120711857.39027        42.00027      -973.65227
  19974982.377 7 104969241.20827        46.00027      2806.00227
  20513216.708 7 107797660.95127        43.00027      -154.59527
  19579240.472 7 102889580.16227        44.00027      1742.17827
  21650980.015 7 113776696.78727        45.00027      5397.51727
  20762712.980 7 109108775.79227        47.00027      -787.46427
  23527800.369 4                        24.00024     -1069.67524
  20615656.394 7 108336032.70227        42.00027      4652.63327
  21839838.896 7 114769196.78527        43.00027      4821.21927
 13  4  5 12  7 45.9980011  0  9G02G05G07G08G09G10G13G26G28
  22973493.209 6 120726474.49126        41.00026      -975.79526
  19966983.386 7 104927205.32527        46.00027      2798.28927
  20513661.653 7 107799998.15227        42.00027      -156.76827
  19574277.087 7 102863496.10527        44.00027      1735.66727
  21635575.154 7 113695753.22327        44.00027      5394.92427
  20764967.703 7 109120623.55527        47.00027      -793.02927
  23530913.626 4                        29.00024     -1073.90524
  20602382.483 7 108266273.93027        42.00027      4648.71027
  21826084.214 7 114696913.46427        43.00027      4817.34427
 13  4  5 12  8  0.9980011  0  9G02G05G07G08G09G10G13G26G28
  22976280.985 6 120741121.11126        41.00026      -978.60926
  19959010.255 7 104885301.63427        46.00027      2788.13927
  20514119.893 7 107802407.92727        42.00027      -163.18127
  19569333.925 7 102837520.82827        44.00027      1727.21527
  21620183.641 7 113614868.32427        44.00027      5388.87527
  20767237.922 7 109132557.20027        46.00027      -798.76827
  23533934.048 5                        30.00025     -1076.60825
  20589118.588 6 108196573.84526        41.00026      4644.24226
  21812343.370 7 114624697.88027        43.00027      4812.33827
 13  4  5 12  8 15.9980011  0  9G02G05G07G08G09G10G13G26G28
  22979074.328 7 120755793.90727        43.00027      -979.54227
  19951061.207 7 104843527.23627        47.00027      2780.22227
  20514590.192 7 107804886.91527        42.00027      -168.66227
  19564411.304 7 102811651.16427        44.00027      1721.27027
  21604802.826 7 113534039.24627        45.00027      5386.86327
  20769524.893 7 109144573.43927        47.00027      -804.37527
  23537009.440 4                        27.00024     -1074.28324
  20575865.531 7 108126929.43827        43.00027      4641.22927
  21798612.978 7 114552547.22327        44.00027      4807.50127
 13  4  5 12  8 30.9980011  0  9G02G05G07G08G09G10G13G26G28
  22981873.150 7 120770502.72927        42.00027      -982.20027
  19943137.653 7 104801892.27327        47.00027      2770.72727
  20515077.889 7 107807445.33427        42.00027      -173.18327
  19559510.355 7 102785897.27027        44.00027      1712.94027
  21589433.510 7 113453276.41927        45.00027      5381.34227
  20771828.110 7 109156682.40027        46.00027      -810.26927
  23540061.292 4                        24.00024     -1073.16324
  20562624.844 7 108057351.19427        43.00027      4635.91827
  21784899.164 7 114480472.22527        45.00027      4802.22427
 13  4  5 12  8 45.9980011  0  9G02G05G07G08G09G10G13G26G28
  22984678.149 7 120785246.36927        42.00027      -984.21427
  19935241.321 7 104760396.20527        47.00027      2761.78927
  20515579.389 7 107810082.06227        42.00027      -177.60927
  19554631.481 7 102760258.33827        45.00027      1705.92327
  21574078.399 7 113372579.20827        45.00027      5377.37427
  20774149.824 7 109168882.99427        46.00027      -816.55527
  23543163.818 5                        30.00025     -1074.92425
  20549396.583 7 107987838.45527        43.00027      4631.72227
  21771197.688 7 114408472.35727        45.00027      4797.44327
 13  4  5 12  9  0.9980011  0  9G02G05G07G08G09G10G13G26G28
  22987489.326 7 120800018.12427        43.00027      -986.12727
  19927370.153 7 104719032.91227        47.00027      2752.48027
  20516095.041 7 107812790.63527        42.00027      -182.89327
  19549772.883 7 102734727.80527        45.00027      1697.98227
  21558730.460 7 113291941.52127        45.00027      5373.33727
  20776487.540 7 109181168.71027        46.00027      -822.09227
  23546264.109 4                        27.00024     -1080.09424
  20536179.001 7 107918385.06427        43.00027      4627.64027
  21757509.683 7 114336541.63027        45.00027      4792.82027
 13  4  5 12  9 15.9980011  0  9G02G05G07G08G09G10G13G26G28
  22990304.412 6 120814812.73926        41.00026      -987.84526
  19919524.497 8 104677797.82728        48.00028      2744.19128
  20516623.537 7 107815565.84427        42.00027      -187.62327
  19544933.935 7 102709300.78127        44.00027      1691.69927
  21543397.859 7 113211358.73627        44.00027      5369.69627
  20778840.665 7 109193534.38627        46.00027      -827.10727
  23549309.539 4                        25.00024     -1077.23524
  20522974.246 7 107848986.44927        44.00027      4623.69127
  21743833.963 7 114264675.73227        44.00027      4788.32027
 13  4  5 12  9 30.9980011  0  9G02G05G07G08G09G10G13G26G28
  22993121.679 6 120829632.40126        40.00026      -990.06826
  19911702.084 7 104636693.51827        47.00027      2734.60127
  20517165.102 7 107818410.04627        42.00027      -193.20227
  19540114.601 7 102683979.70727        44.00027      1683.37127
  21528074.088 7 113130833.52027        44.00027      5364.08927
  20781209.338 7 109205982.33127        46.00027      -833.77027
  23552342.369 4                        25.00024     -1079.78924
  20509780.780 7 107779645.20427        44.00027      4620.10727
  21730170.248 7 114192877.40027        44.00027      4783.00527
 13  4  5 12  9 45.9980011  0  9G02G05G07G08G09G10G13G26G28
  22995946.398 6 120844480.63526        41.00026      -990.49026
  19903906.022 8 104595724.00028        48.00028      2727.05828
  20517719.215 7 107821326.73927        42.00027      -197.50627
  19535317.621 7 102658768.16727        45.00027      1677.47827
  21512762.900 7 113050369.88827        45.00027      5362.36427
  20783594.205 7 109218516.15127        46.00027      -837.99327
  23555426.973 4                        28.00024     -1082.41624
  20496595.080 7 107710365.29627        44.00027      4616.96527
  21716521.001 7 114121150.62227        44.00027      4779.59527
 13  4  5 12 10  0.9980011  0  9G02G05G07G08G09G10G13G26G28
  22998777.468 6 120859360.41126        40.00026      -992.46226
  19896135.873 7 104554892.88127        47.00027      2717.61727
  20518288.020 6 107824319.39326        41.00026      -201.52526
  19530541.337 7 102633669.52227        44.00027      1669.85027
  21497463.420 7 112969971.69127        44.00027      5358.42027
  20785996.313 7 109231139.08227        46.00027      -843.77427
  23558551.435 5                        31.00025     -1081.03425
  20483424.318 7 107641150.42527        44.00027      4613.07327
  21702885.521 7 114049499.40427        43.00027      4774.38027
 13  4  5 12 10 15.9980011  0  9G02G05G07G08G09G10G13G26G28
  23001613.460 6 120874267.38726        38.00026      -993.16326
  19888391.602 7 104514196.37127        47.00027      2709.28927
  20518870.472 6 107827383.74426        40.00026      -206.48626
  19525786.342 7 102608679.79627        43.00027      1663.14627
  21482174.654 7 112889635.19327        43.00027      5353.46627
  20788415.312 7 109243846.95827        45.00027      -849.25827
  23561617.422 4                        27.00024     -1079.09724
  20470266.189 7 107571996.88027        44.00027      4608.55727
  21689264.961 7 113977920.09227        43.00027      4769.32527
 13  4  5 12 10 30.9980011  0  9G02G05G07G08G09G10G13G26G28
  23004458.490 6 120889203.69026        39.00026      -996.77426
  19880674.344 7 104473637.20927        47.00027      2698.14427
  20519468.419 6 107830521.87026        41.00026      -212.01026
  19521053.037 7 102583801.33427        44.00027      1654.52527
  21466899.186 7 112809362.88627        44.00027      5349.27627
  20790850.173 7 109256641.91627        46.00027      -856.45327
  23564716.736 4                        28.00024     -1083.12324
  20457117.744 7 107502907.07327        44.00027      4602.23127
  21675657.348 7 113906415.39827        43.00027      4763.26327
 13  4  5 12 10 45.9980011  0  9G02G05G07G08G09G10G13G26G28
  23007309.209 6 120904175.27426        41.00026     -1000.01826
  19872983.716 8 104433221.56828        48.00028      2689.49228
  20520081.478 7 107833739.80727        42.00027      -217.38027
  19516341.579 7 102559040.15727        45.00027      1646.46927
  21451636.124 7 112729161.21827        43.00027      5344.07027
  20793303.061 7 109269529.95627        47.00027      -862.71627
  23567831.913 5                        30.00025     -1085.86225
  20443984.011 7 107433887.56427        44.00027      4598.74227
  21662066.506 7 113834992.00827        45.00027      4758.58527
 13  4  5 12 11  0.9980011  0  9G02G05G07G08G09G10G13G26G28
  23010162.510 6 120919176.65926        38.00026     -1001.92026
  19865318.407 7 104392944.56927        47.00027      2680.42427
  20520708.602 6 107837032.48326        41.00026      -222.78926
  19511650.173 7 102534391.15427        43.00027      1639.14727
  21436388.262 7 112649025.46927        43.00027      5339.88027
  20795772.997 7 109282505.89927        46.00027      -867.77727
  23570913.638 5                        30.00025     -1087.26325
  20430863.609 7 107364933.45627        44.00027      4593.69627
  21648489.066 7 113763645.21227        44.00027      4753.97827
 13  4  5 12 11 15.9980011  0  9G02G05G07G08G09G10G13G26G28
  23013024.188 6 120934217.08726        39.00026     -1004.08926
  19857682.485 7 104352816.04427        47.00027      2670.72227
  20521351.152 6 107840409.10226        41.00026      -226.88126
  19506982.953 7 102509863.96527        44.00027      1632.38527
  21421151.620 7 112568965.30727        42.00027      5335.00427
  20798261.274 7 109295579.01127        46.00027      -874.72127
  23573990.495 4                        26.00024     -1089.05124
  20417755.492 7 107296054.48427        43.00027      4589.67827
  21634929.512 7 113692384.99827        44.00027      4747.98127
 13  4  5 12 11 30.9980011  0  9G02G05G07G08G09G10G13G26G28
  23015892.497 6 120949280.93726        41.00026     -1006.22526
  19850072.267 7 104312820.92227        47.00027      2662.40327
  20522006.057 6 107843854.33926        41.00026      -231.98226
  19502336.428 7 102485443.21427        44.00027      1624.65727
  21405931.451 7 112488965.84227        44.00027      5330.88527
  20800764.558 7 109308734.03327        46.00027      -880.07027
  23577111.553 4                        29.00024     -1090.68724
  20404660.813 7 107227235.72927        43.00027      4586.07827
  21621382.923 7 113621196.45427        44.00027      4743.49427
 13  4  5 12 11 45.9980011  0  9G02G05G07G08G09G10G13G26G28
  23018766.774 6 120964381.75526        41.00026     -1008.13926
  19842489.202 7 104272973.45927        47.00027      2651.93627
  20522677.155 7 107847381.87127        43.00027      -238.01827
  19497712.204 7 102461142.76227        45.00027      1616.27827
  21390720.932 7 112409041.13827        44.00027      5326.66727
  20803286.984 7 109321984.60427        47.00027      -886.23327
  23580223.327 4                        29.00024     -1092.74224
  20391578.958 7 107158491.25627        44.00027      4581.02027
  21607852.476 7 113550093.87527        45.00027      4737.61327
 13  4  5 12 12  0.9980011  0  9G02G05G07G08G09G10G13G26G28
  23021645.466 6 120979508.64326        41.00026     -1008.85726
  19834932.259 7 104233263.22727        47.00027      2642.95427
  20523362.214 7 107850980.93127        42.00027      -241.77727
  19493108.816 7 102436951.92727        45.00027      1608.51427
  21375526.712 7 112329180.82227        46.00027      5321.70727
  20805824.296 7 109335320.02727        47.00027      -892.49027
  23583330.478 4                        27.00024     -1092.05124
  20378508.499 7 107089810.67527        43.00027      4576.09927
  21594337.752 7 113479067.20727        45.00027      4732.54727
 13  4  5 12 12 15.9980011  0  9G02G05G07G08G09G10G13G26G28
  23024531.173 6 120994676.15126        41.00026     -1012.43726
  19827404.511 7 104193705.10427        47.00027      2632.65627
  20524063.554 7 107854665.98827        43.00027      -247.98727
  19488530.103 7 102412885.38027        46.00027      1600.40727
  21360343.432 7 112249400.05327        45.00027      5316.72827
  20808379.861 7 109348754.77827        46.00027      -898.21127
  23586462.094 4                        28.00024     -1092.01424
  20365454.705 7 107021209.03527        44.00027      4571.69027
  21580839.866 7 113408131.35127        46.00027      4726.06527
 13  4  5 12 12 30.9980011  0  9G02G05G07G08G09G10G13G26G28
  23027424.226 7 121009876.31327        42.00027     -1015.24327
  19819905.083 7 104154291.68827        47.00027      2621.57327
  20524781.174 7 107858429.40327        43.00027      -254.06627
  19483972.225 7 102388935.43427        46.00027      1592.08627
  21345177.655 7 112169691.43327        46.00027      5310.41027
  20810954.568 7 109362281.06227        46.00027      -905.72127
  23589596.013 4                        29.00024     -1094.32624
  20352412.654 7 106952678.92227        43.00027      4565.32727
  21567357.616 7 113337279.09027        46.00027      4719.68327
 13  4  5 12 12 45.9980011  0  9G02G05G07G08G09G10G13G26G28
  23030322.898 6 121025113.17226        41.00026     -1017.19526
  19812432.600 7 104115027.56127        46.00027      2612.84627
  20525512.947 7 107862275.47627        42.00027      -258.79727
  19479437.085 7 102365106.61827        45.00027      1584.50427
  21330022.384 7 112090059.66627        46.00027      5306.55527
  20813544.632 7 109375903.29727        45.00027      -911.25227
  23592719.321 4                        27.00024     -1099.97724
  20339387.967 7 106884224.99127        44.00027      4561.28727
  21553890.740 7 113266515.33427        45.00027      4714.03227
 13  4  5 12 13  0.9980011  0  9G02G05G07G08G09G10G13G26G28
  23033227.434 6 121040382.36026        41.00026     -1019.02126
  19804987.967 7 104075908.89027        47.00027      2603.12927
  20526260.512 7 107866199.98527        42.00027      -264.33227
  19474924.264 7 102341394.63727        45.00027      1577.39327
  21314883.742 7 112010500.90327        46.00027      5300.78127
  20816154.781 7 109389617.09927        45.00027      -917.31727
  23595836.051 4                        27.00024     -1100.79524
  20326373.401 7 106815843.39627        44.00027      4556.65427
  21540441.262 7 113195836.39627        46.00027      4709.01427
 13  4  5 12 13 15.9980011  0  9G02G05G07G08G09G10G13G26G28
  23036139.298 6 121055679.01226        41.00026     -1022.08026
  19797571.027 7 104036931.52627        46.00027      2592.72327
  20527021.724 7 107870198.08627        42.00027      -269.10727
  19470433.744 7 102317794.91127        45.00027      1569.44627
  21299756.932 7 111931010.96727        45.00027      5296.06027
  20818780.251 7 109403417.70927        44.00027      -923.67627
  23599016.302 4                        26.00024     -1099.74324
  20313375.342 7 106747529.85227        43.00027      4551.35627
  21527007.279 7 113125238.19527        44.00027      4703.25727
 13  4  5 12 13 30.9980011  0  9G02G05G07G08G09G10G13G26G28
  23039056.799 6 121071012.27426        41.00026     -1023.88326
  19790183.125 7 103998104.73527        47.00027      2583.37627
  20527797.436 7 107874279.05527        43.00027      -275.30627
  19465966.066 7 102294316.80027        45.00027      1561.14727
  21284644.675 7 111851599.44427        45.00027      5291.01327
  20821425.003 7 109417314.35227        44.00027      -930.17527
  23602168.559 4                        28.00024     -1104.37424
  20300390.093 7 106679293.92727        45.00027      4546.41727
  21513589.386 7 113054730.52027        45.00027      4696.65027
 13  4  5 12 13 45.9980011  0  9G02G05G07G08G09G10G13G26G28
  23041980.321 6 121086373.96526        41.00026     -1025.54726
  19782821.136 7 103959420.63427        46.00027      2573.62127
  20528587.842 7 107878434.54827        43.00027      -280.25527
  19461519.347 7 102270952.08627        44.00027      1553.42727
  21269547.233 7 111772258.44027        45.00027      5286.70927
  20824086.125 7 109431298.75527        44.00027      -935.22727
  23605325.739 5                        30.00025     -1106.77925
  20287419.222 7 106611127.72227        44.00027      4541.52227
  21500186.081 7 112984305.55327        43.00027      4691.38227
 13  4  5 12 14  0.9980011  0  9G02G05G07G08G09G10G13G26G28
  23044908.066 6 121101761.51226        41.00026     -1027.09026
  19775487.470 7 103920877.64227        46.00027      2565.32527
  20529393.360 7 107882662.65327        43.00027      -283.69727
  19457095.609 7 102247698.92327        45.00027      1546.51127
  21254460.838 7 111692986.44027        44.00027      5282.30227
  20826764.975 7 109445368.95227        45.00027      -940.99827
  23608474.039 5                        30.00025     -1104.51725
  20274461.160 7 106543029.81727        46.00027      4537.37127
  21486800.767 7 112913961.98527        44.00027      4686.72227
 13  4  5 12 14 15.9980011  0  9G02G05G07G08G09G10G13G26G28
  23047841.603 7 121117169.68327        42.00027     -1029.89027
  19768179.070 7 103882471.26027        47.00027      2554.85627
  20530210.953 7 107886958.33627        44.00027      -289.16827
  19452690.840 7 102224552.33727        46.00027      1538.49027
  21239388.489 7 111613778.74527        45.00027      5277.03727
  20829457.594 7 109459519.79227        46.00027      -947.50127
  23611641.270 4                        29.00024     -1105.88024
  20261514.510 7 106474995.33027        47.00027      4532.52927
  21473427.965 7 112843695.16027        44.00027      4680.29927
 13  4  5 12 14 30.9980011  0  9G02G05G07G08G09G10G13G26G28
  23050777.830 6 121132600.71926        40.00026     -1028.69526
  19760896.550 7 103844203.88727        46.00027      2546.45027
  20531041.756 7 107891323.69427        43.00027      -294.47127
  19448307.028 7 102201514.61927        45.00027      1532.35627
  21224326.560 7 111534638.07127        43.00027      5274.07727
  20832167.210 7 109473753.59527        46.00027      -951.34327
  23614824.206 5                        31.00025     -1107.85225
  20248580.704 7 106407027.02127        45.00027      4529.09727
  21460071.200 7 112773507.95927        43.00027      4676.43627
 13  4  5 12 14 45.9940033  0  9G02G05G07G08G09G10G13G26G28
  23053717.562 6 121148046.41626        41.00026     -1031.28426
  19753642.247 7 103806082.12727        47.00027      2537.10227
  20531884.076 7 107895753.74027        45.00027      -298.26227
  19443944.960 7 102178588.14627        46.00027      1524.41427
  21209283.196 7 111455581.93727        44.00027      5268.70927
  20834890.959 7 109488062.54027        47.00027      -957.81727
  23617937.535 5 124113098.48435        34.00025     -1107.28125
  20235662.044 7 106339139.42327        46.00027      4523.64527
  21446732.583 7 112703415.69327        43.00027      4670.66127
 13  4  5 12 15  0.9940033  0  9G02G05G07G08G09G10G13G26G28
  23056664.136 6 121163535.92926        40.00026     -1032.80926
  19746416.299 7 103768107.04327        47.00027      2526.28827
  20532743.375 7 107900271.86927        43.00027      -303.84127
  19439604.948 7 102155781.83727        46.00027      1516.27927
  21194252.746 7 111376589.62127        44.00027      5263.59227
  20837633.904 7 109502475.14027        47.00027      -964.16327
  23621104.121 6 124129735.65026        36.00026     -1108.98626
  20222756.053 7 106271317.74927        46.00027      4518.97527
  21433410.614 7 112633402.56927        43.00027      4664.97527
 13  4  5 12 15 15.9940033  0  9G02G05G07G08G09G10G13G26G28
  23059616.468 6 121179053.37626        40.00026     -1032.95426
  19739217.733 7 103730277.70627        46.00027      2519.51227
  20533618.433 7 107904865.44727        43.00027      -306.86027
  19435286.540 7 102133090.43427        46.00027      1510.48327
  21179233.691 7 111297671.15127        44.00027      5260.62227
  20840392.852 7 109516976.05227        47.00027      -967.65927
  23624271.806 5 124146394.76125        33.00025     -1108.60025
  20209864.703 7 106203568.99427        46.00027      4516.13027
  21420103.600 7 112563476.31827        42.00027      4660.77327
 13  4  5 12 15 30.9940033  0  9G02G05G07G08G09G10G13G26G28
  23062575.448 6 121194596.44326        41.00026     -1036.70226
  19732046.614 7 103692592.39227        46.00027      2507.13327
  20534505.198 7 107909532.27027        44.00027      -312.64927
  19430989.752 7 102110511.88227        45.00027      1501.30927
  21164231.632 7 111218824.90327        44.00027      5254.10827
  20843168.219 7 109531563.34727        46.00027      -975.14127
  23627446.540 5 124163073.95735        35.00025     -1114.12325
  20196985.707 7 106135891.47527        46.00027      4509.93227
  21406813.371 7 112493635.52027        43.00027      4653.34327
 13  4  5 12 15 45.9940033  0  9G02G05G07G08G09G10G13G26G28
  23065538.703 6 121210162.32026        41.00026     -1038.80026
  19724901.618 7 103655048.41427        46.00027      2497.87427
  20535406.884 7 107914269.37627        43.00027      -318.77827
  19426714.533 7 102088043.22327        46.00027      1494.30527
  21149240.672 7 111140048.26927        44.00027      5249.59227
  20845960.042 7 109546234.06627        46.00027      -981.19827
  23630622.637 5 124179770.41015        33.00025     -1113.66325
  20184120.323 7 106068282.65727        46.00027      4505.23627
  21393538.849 7 112423877.58527        43.00027      4647.59627
 13  4  5 12 16  0.9940033  0  9G02G05G07G08G09G10G13G26G28
  23068503.093 6 121225749.48726        38.00026     -1039.95526
  19717783.776 7 103617644.75127        44.00027      2488.97727
  20536321.832 6 107919075.43026        40.00026      -321.99826
  19422460.412 7 102065683.30027        43.00027      1487.52527
  21134262.816 7 111061340.33727        42.00027      5245.41627
  20848766.925 7 109560986.75127        43.00027      -985.74027
  23633804.719 5 124196482.93715        31.00025     -1114.12425
  20171267.241 7 106000741.56427        43.00027      4500.46127
  21380277.973 6 112354201.77026        39.00026      4642.03926
 13  4  5 12 16 15.9940033  0  9G02G05G07G08G09G10G13G26G28
  23071473.312 6 121241360.73726        39.00026     -1042.08226
  19710692.963 7 103580384.84227        46.00027      2479.00427
  20537249.728 7 107923953.46827        43.00027      -327.24827
  19418225.643 7 102043435.32527        46.00027      1480.41727
  21119299.532 7 110982704.65327        45.00027      5239.89827
  20851589.234 7 109575824.51427        45.00027      -991.37927
  23636987.708 5 124213214.77015        33.00025     -1114.39125
  20158428.381 7 105933271.59727        46.00027      4495.86027
  21367035.855 7 112284611.58827        42.00027      4636.61127
 13  4  5 12 16 30.9940033  0  9G02G05G07G08G09G10G13G26G28
  23074450.912 6 121256994.93526        40.00026     -1042.35726
  19703629.670 7 103543267.98727        46.00027      2470.21727
  20538191.619 7 107928902.46127        42.00027      -332.41027
  19414012.895 7 102021298.24027        46.00027      1472.36127
  21104348.498 7 110904140.44127        45.00027      5234.85727
  20854430.407 7 109590746.15927        45.00027      -997.69427
  23640174.780 5 124229965.08015        33.00025     -1115.76425
  20145601.650 7 105865872.12627        45.00027      4491.35727
  21353808.868 6 112215106.66126        41.00026      4631.65826
 13  4  5 12 16 45.9940033  0  9G02G05G07G08G09G10G13G26G28
  23077430.013 6 121272652.70926        40.00026     -1043.83526
  19696594.419 7 103506295.43027        46.00027      2459.58327
  20539145.237 7 107933923.22827        43.00027      -336.83527
  19409821.734 7 101999272.90927        46.00027      1464.48827
  21089411.301 7 110825649.00127        45.00027      5230.02927
  20857285.975 7 109605752.61127        46.00027     -1003.35427
  23643365.186 5 124246734.76715        32.00025     -1116.22125
  20132788.738 7 105798544.39227        45.00027      4486.56327
  21340597.777 6 112145688.32626        41.00026      4625.08026
 13  4  5 12 17  0.9940033  0  9G02G05G07G08G09G10G13G26G28
  23080411.295 6 121288325.62026        40.00026     -1045.22726
  19689585.379 7 103469459.23927        46.00027      2451.47527
  20540113.914 7 107939007.56227        42.00027      -340.89227
  19405650.048 7 101977351.30827        46.00027      1458.25427
  21074487.682 7 110747222.53827        45.00027      5226.70527
  20860155.365 7 109620835.49927        45.00027     -1007.59527
  23646560.267 5 124263515.81315        33.00025     -1119.76625
  20119989.403 7 105731280.52227        45.00027      4481.99627
  21327403.159 6 112076349.02026        41.00026      4620.22026
 13  4  5 12 17 15.9940033  0  9G02G05G07G08G09G10G13G26G28
  23083397.410 6 121304014.48326        40.00026     -1047.25326
  19682600.786 7 103432760.79327        46.00027      2441.72427
  20541091.927 6 107944156.37226        41.00026      -347.01626
  19401498.621 7 101955534.56027        46.00027      1450.58927
  21059575.579 7 110668862.52927        44.00027      5221.52327
  20863040.722 7 109635995.89527        46.00027     -1013.44427
  23649756.064 5 124280309.27515        34.00025     -1122.35025
  20107200.556 7 105664081.98727        45.00027      4477.87927
  21314223.251 7 112007090.06027        42.00027      4614.04427
 13  4  5 12 17 30.9940033  0  9G02G05G07G08G09G10G13G26G28
  23086389.528 6 121319728.45426        41.00026     -1049.57926
  19675645.021 7 103396209.69127        46.00027      2431.27727
  20542086.518 6 107949379.07826        40.00026      -350.69026
  19397368.744 7 101933831.84227        45.00027      1442.47527
  21044678.814 7 110590578.49127        45.00027      5215.61427
  20865942.987 7 109651243.01127        46.00027     -1019.87127
  23652955.579 5 124297124.71625        35.00025     -1123.04625
  20094428.477 7 105596958.34627        45.00027      4471.93827
  21301061.719 6 111937921.27826        41.00026      4606.81726
 13  4  5 12 17 45.9940033  0  9G02G05G07G08G09G10G13G26G28
  23089385.957 6 121335478.97926        41.00026     -1049.73626
  19668719.549 7 103359817.86527        46.00027      2422.22727
  20543096.064 7 107954687.13227        42.00027      -355.80027
  19393262.967 7 101912254.99127        45.00027      1435.56427
  21029797.162 7 110512382.51727        43.00027      5210.77627
  20868862.738 7 109666588.44127        47.00027     -1025.47727
  23656161.236 5 124313973.92325        32.00025     -1122.81325
  20081671.948 7 105529921.64927        46.00027      4467.46927
  21287920.778 7 111868854.99727        42.00027      4602.10727
 13  4  5 12 18  0.9940033  0  9G02G05G07G08G09G10G13G26G28
  23092386.521 6 121351251.79126        39.00026     -1052.93226
  19661822.678 7 103323571.52827        45.00027      2411.12027
  20544121.646 7 107960066.38727        42.00027      -361.38427
  19389177.449 7 101890789.88927        44.00027      1426.91427
  21014932.524 7 110434260.90727        43.00027      5205.27827
  20871799.380 7 109682017.94027        46.00027     -1032.34127
  23659369.772 5                        30.00025     -1124.57225
  20068929.744 7 105462958.18627        46.00027      4461.51927
  21274795.611 7 111799877.43027        42.00027      4594.86327
 13  4  5 12 18 15.9940033  0  9G02G05G07G08G09G10G13G26G28
  23095390.296 6 121367050.10726        38.00026     -1054.73926
  19654953.309 7 103287474.19927        45.00027      2402.22627
  20545159.129 6 107965520.11626        41.00026      -365.27126
  19385114.355 7 101869440.03527        45.00027      1420.07627
  21000081.305 7 110356217.26927        44.00027      5201.52727
  20874752.967 7 109697534.73727        47.00027     -1037.24527
  23662602.092 5 124347812.72315        35.00025     -1127.32425
  20056201.100 7 105396071.61027        47.00027      4457.41627
  21261687.093 7 111730992.48027        43.00027      4590.20427
 13  4  5 12 18 30.9940033  0  9G02G05G07G08G09G10G13G26G28
  23098400.476 6 121382865.16826        39.00026     -1056.01926
  19648110.743 7 103251517.62127        45.00027      2391.33827
  20546210.729 7 107971039.78627        43.00027      -371.65827
  19381072.568 7 101848197.03827        45.00027      1411.91027
  20985243.278 7 110278243.56527        44.00027      5195.12027
  20877720.322 7 109713130.29927        47.00027     -1043.13127
  23665806.686 6 124364720.22026        36.00026     -1126.44026
  20043486.485 7 105329253.84527        47.00027      4451.45527
  21248595.676 7 111662192.16827        43.00027      4582.89527
 13  4  5 12 18 45.9940033  0  9G02G05G07G08G09G10G13G26G28
  23101414.076 6 121398700.58926        39.00026     -1055.20626
  19641296.535 7 103215706.00327        46.00027      2383.24527
  20547272.923 7 107976629.34227        43.00027      -374.19027
  19377051.389 7 101827064.73327        45.00027      1404.82327
  20970419.787 7 110200344.06527        44.00027      5190.89027
  20880704.273 7 109728808.38827        47.00027     -1047.64527
  23669024.226 5 124381645.95025        34.00025     -1128.68125
  20030786.913 8 105262508.95228        48.00028      4447.22228
  21235519.196 7 111593480.88327        43.00027      4577.85427
 13  4  5 12 19  0.9940033  0  9G02G05G07G08G09G10G13G26G28
  23104428.112 6 121414545.76526        38.00026     -1056.85326
  19634507.052 7 103180029.28027        45.00027      2373.02327
  20548349.094 7 107982278.28427        44.00027      -378.79527
  19373049.807 7 101806032.69927        46.00027      1397.88127
  20955608.617 7 110122508.73327        44.00027      5186.70127
  20883701.329 7 109744558.64827        46.00027     -1052.61927
  23672243.442 4                        28.00024     -1129.06524
  20018097.706 8 105195826.96428        48.00028      4442.60128
  21222461.859 7 111524848.76027        45.00027      4572.08527
 13  4  5 12 19 15.9940033  0  9G02G05G07G08G09G10G13G26G28
  23107447.208 6 121430416.56126        37.00026     -1058.81226
  19627746.834 7 103144503.73127        46.00027      2363.54827
  20549437.497 7 107988002.51027        43.00027      -383.92427
  19369070.230 7 101785116.97427        46.00027      1389.99727
  20940811.720 7 110044753.85227        44.00027      5180.28627
  20886714.577 7 109760396.96127        45.00027     -1058.83727
  23675442.012 4                        29.00024     -1134.53624
  20005424.623 8 105129224.30328        48.00028      4437.28528
  21209419.826 7 111456312.22927        45.00027      4565.92927
 13  4  5 12 19 30.9940033  0  9G02G05G07G08G09G10G13G26G28
  23110472.901 6 121446307.66026        38.00026     -1059.29726
  19621014.833 7 103109124.44727        46.00027      2353.57727
  20550540.890 7 107993796.89127        44.00027      -389.08627
  19365111.104 7 101764312.39327        46.00027      1382.99527
  20926030.563 7 109967074.64027        45.00027      5175.94227
  20889743.200 7 109776318.09827        45.00027     -1064.59227
  23678712.254 5 124432472.31315        34.00025     -1131.79525
  19992764.279 8 105062696.02328        49.00028      4432.47928
  21196393.846 7 111387866.62127        45.00027      4559.68327
 13  4  5 12 19 45.9940033  0  9G02G05G07G08G09G10G13G26G28
  23113502.311 6 121462220.04526        38.00026     -1060.36126
  19614310.090 7 103073892.93227        45.00027      2344.23327
  20551657.650 7 107999662.38027        44.00027      -392.98027
  19361174.036 7 101743620.25027        46.00027      1376.38227
  20911262.669 7 109889472.56727        44.00027      5171.28027
  20892788.104 7 109792323.07327        43.00027     -1069.59627
  23681939.147 5 124449471.93315        30.00025     -1134.96925
  19980119.169 8 104996243.69228        48.00028      4427.68728
  21183387.656 7 111319513.57127        45.00027      4554.39027
 13  4  5 12 20  0.9940033  0  9G02G05G07G08G09G10G13G26G28
  23116534.704 6 121478152.32026        38.00026     -1063.81026
  19607633.737 7 103038808.32627        46.00027      2332.51627
  20552787.688 7 108005597.88127        44.00027      -399.75927
  19357257.540 7 101723039.36027        46.00027      1366.23427
  20896510.968 7 109811946.99027        45.00027      5163.87927
  20895849.219 7 109808410.73027        44.00027     -1076.67927
  23685154.331 4                        26.00024     -1137.32324
  19967488.559 8 104929866.53528        49.00028      4421.02328
  21170398.234 7 111251252.51127        46.00027      4545.67727
 13  4  5 12 20 15.9940033  0  9G02G05G07G08G09G10G13G26G28
  23119571.006 6 121494114.47826        38.00026     -1065.70226
  19600987.015 7 103003881.17927        45.00027      2323.32127
  20553932.735 7 108011613.46427        44.00027      -403.70027
  19353363.905 7 101702579.88727        45.00027      1359.42027
  20881773.367 7 109734508.35327        43.00027      5159.51527
  20898928.325 7 109824591.14327        43.00027     -1081.58527
  23688412.689 4                        28.00024     -1136.60424
  19954874.057 8 104863574.97928        48.00028      4416.49428
  21157427.887 7 111183093.96327        45.00027      4540.73527
 13  4  5 12 20 30.9940033  0  9G02G05G07G08G09G10G13G26G28
  23122612.754 6 121510092.74326        38.00026     -1065.66226
  19594368.894 7 102969097.93427        46.00027      2314.24927
  20555089.526 7 108017695.55627        44.00027      -407.65227
  19349490.094 7 101682228.42427        45.00027      1353.16927
  20867052.519 7 109657143.44627        45.00027      5155.68627
  20902022.055 7 109840850.64627        43.00027     -1086.48127
  23691679.315 4                        25.00024     -1141.43524
  19942271.874 8 104797355.87528        48.00028      4412.42228
  21144473.942 7 111115024.89427        45.00027      4535.24427
 13  4  5 12 20 45.9940033  0  9G02G05G07G08G09G10G13G26G28
  23125656.944 6 121526080.47226        39.00026     -1065.75026
  19587776.129 7 102934452.51027        47.00027      2305.20927
  20556258.585 7 108023837.74427        44.00027      -411.59927
  19345636.351 7 101661978.55727        45.00027      1346.49727
  20852341.163 7 109579846.30927        44.00027      5150.73427
  20905130.076 7 109857182.78927        44.00027     -1091.40827
  23694928.198 4                        27.00024     -1138.48124
  19929684.176 8 104731203.20928        48.00028      4407.92128
  21131536.471 7 111047039.42127        44.00027      4529.96927
 13  4  5 12 21  0.9940033  0  9G02G05G07G08G09G10G13G26G28
  23128701.535 6 121542080.02726        39.00026     -1067.46126
  19581210.009 7 102899947.90227        45.00027      2295.28127
  20557439.683 7 108030042.59627        43.00027      -416.15427
  19341803.076 7 101641833.00427        45.00027      1338.89227
  20837646.333 7 109502619.87827        43.00027      5145.82827
  20908252.442 7 109873590.06627        44.00027     -1096.23427
  23698171.669 4                        28.00024     -1140.53624
  19917107.732 7 104665119.93727        47.00027      4403.41327
  21118614.827 7 110979140.68327        43.00027      4524.85527
 13  4  5 12 21 15.9940033  0  9G02G05G07G08G09G10G13G26G28
  23131746.442 6 121558086.69926        38.00026     -1066.69826
  19574669.682 7 102865579.61227        46.00027      2286.65527
  20558631.148 7 108036305.24827        43.00027      -419.97827
  19337988.596 7 101621787.04827        45.00027      1333.42927
  20822963.404 7 109425459.75727        44.00027      5141.86427
  20911389.187 7 109890067.70927        45.00027     -1100.82927
  23701419.679 4                        28.00024     -1138.22824
  19904546.034 7 104599101.65927        47.00027      4399.11427
  21105708.941 7 110911324.60527        43.00027      4518.55427
 13  4  5 12 21 30.9940033  0  9G02G05G07G08G09G10G13G26G28
  23134794.139 6 121574105.44526        39.00026     -1067.97426
  19568157.536 7 102831353.29627        47.00027      2277.70827
  20559835.229 7 108042631.01627        45.00027      -422.95327
  19334193.241 7 101601845.98427        45.00027      1326.67727
  20808294.436 7 109348371.67027        44.00027      5137.34127
  20914538.600 7 109906620.98127        45.00027     -1105.47027
  23704684.597 4                        28.00024     -1139.84824
  19891995.435 7 104533153.99427        47.00027      4394.78427
  21092820.696 7 110843596.53527        44.00027      4512.67927
 13  4  5 12 21 45.9940033  0  9G02G05G07G08G09G10G13G26G28
  23137844.263 6 121590128.86826        39.00026     -1067.88626
  19561669.856 7 102797262.04727        47.00027      2268.78027
  20561049.344 7 108049012.74927        45.00027      -427.22527
  19330416.575 7 101582002.68927        45.00027      1320.29627
  20793637.141 7 109271348.90227        45.00027      5133.28627
  20917703.091 7 109923242.60827        46.00027     -1109.10927
  23707992.581 4                        28.00024     -1141.61024
  19879457.574 7 104467270.27127        46.00027      4390.54827
  21079948.733 7 110775950.08327        44.00027      4506.89027
 13  4  5 12 22  0.9940033  0  8G02G05G07G08G09G10G26G28
  23140895.782 6 121606160.69226        40.00026     -1067.74526
  19555209.520 7 102763310.16627        46.00027      2259.16927
  20562274.819 7 108055454.34227        44.00027      -430.79827
  19326658.982 7 101562261.12327        45.00027      1313.46027
  20778994.574 7 109194395.62827        45.00027      5128.87427
  20920878.942 7 109939936.45027        46.00027     -1114.37227
  19866933.080 7 104401454.63127        46.00027      4386.59727
  21067091.166 7 110708389.67827        43.00027      4501.78127
 13  4  5 12 22 15.9940033  0  8G02G05G07G08G09G10G26G28
  23143945.714 6 121622196.75126        39.00026     -1068.38526
  19548774.714 7 102729493.52227        46.00027      2250.69527
  20563510.782 7 108061951.51027        43.00027      -434.17727
  19322920.898 7 101542617.17227        44.00027      1306.69627
  20764364.869 7 109117508.07027        46.00027      5124.23027
  20924069.188 7 109956698.31627        45.00027     -1119.35027
  19854420.347 7 104335703.31927        45.00027      4381.96727
  21054250.195 7 110640911.67427        43.00027      4497.13027
 13  4  5 12 22 30.9940033  0  9G02G05G07G08G09G10G13G26G28
  23147000.985 6 121638238.93026        40.00026     -1069.17826
  19542365.368 7 102695814.59427        46.00027      2240.27227
  20564758.034 7 108068506.31727        43.00027      -439.42427
  19319201.382 7 101523072.99027        44.00027      1299.70727
  20749745.580 7 109040688.66227        45.00027      5119.01827
  20927271.232 7 109973530.15527        44.00027     -1124.58427
  23717710.292 4                        29.00024     -1144.91024
  19841920.353 7 104270018.73627        45.00027      4376.37127
  21041427.825 7 110573518.56627        44.00027      4490.68927
 13  4  5 12 22 45.9940033  0  9G02G05G07G08G09G10G13G26G28
  23150055.994 6 121654291.57626        40.00026     -1070.37626
  19535982.999 7 102662278.12627        46.00027      2229.93527
  20566016.874 7 108075123.28227        43.00027      -443.97727
  19315502.840 7 101503633.22527        45.00027      1292.02227
  20735142.608 7 108963942.30727        47.00027      5113.32627
  20930488.805 7 109990436.41327        45.00027     -1129.96827
  23720980.585 4                        29.00024     -1144.52224
  19829433.201 7 104204405.81827        45.00027      4370.83527
  21028620.095 7 110506215.38827        44.00027      4483.77227
 13  4  5 12 23  0.9940033  0  9G02G05G07G08G09G10G13G26G28
  23153112.103 6 121670352.99026        39.00026     -1070.01126
  19529627.400 7 102628882.98127        46.00027      2222.83927
  20567286.795 7 108081800.74627        42.00027      -446.60227
  19311823.442 7 101484296.25327        45.00027      1285.96927
  20720549.426 7 108887267.88027        45.00027      5110.33227
  20933719.136 7 110007415.58627        44.00027     -1133.31727
  23724234.580 4                        26.00024     -1143.39124
  19816961.652 7 104138863.44627        46.00027      4367.23527
  21015830.497 7 110439001.15427        44.00027      4478.75027
 13  4  5 12 23 15.9940033  0  9G02G05G07G08G09G10G13G26G28
  23156170.637 6 121686420.80026        40.00026     -1071.77526
  19523298.621 7 102595627.32627        46.00027      2212.65227
  20568568.913 7 108088536.73127        42.00027      -450.57927
  19308163.117 7 101465060.17327        45.00027      1279.20427
  20705973.972 7 108810663.69227        46.00027      5104.58127
  20936963.688 7 110024465.50427        44.00027     -1138.63127
  23727523.859 4                        29.00024     -1143.83724
  19804501.583 7 104073389.85227        45.00027      4362.10627
  21003056.883 7 110371874.27927        45.00027      4472.68827
 13  4  5 12 23 30.9940033  0  9G02G05G07G08G09G10G13G26G28
  23159230.916 6 121702501.50026        41.00026     -1072.21226
  19516998.984 7 102562518.01927        47.00027      2202.42927
  20569862.740 7 108095337.70527        43.00027      -454.85327
  19304523.033 7 101445931.53027        45.00027      1271.78627
  20691409.373 7 108734136.60527        46.00027      5099.25927
  20940223.247 7 110041592.50727        45.00027     -1144.72127
  23730804.447 5 124706218.67015        34.00025     -1145.66325
  19792057.796 7 104007991.90027        47.00027      4357.22427
  20990301.173 7 110304841.71927        45.00027      4466.02227
 13  4  5 12 23 45.9940033  0  9G02G05G07G08G09G10G13G26G28
  23162292.051 6 121718583.08126        40.00026     -1071.23126
  19510725.156 7 102529543.48727        47.00027      2194.32327
  20571167.300 7 108102191.75227        42.00027      -458.30527
  19300901.308 7 101426898.62827        45.00027      1266.26427
  20676859.310 7 108657675.22827        45.00027      5096.00827
  20943495.720 7 110058784.87827        45.00027     -1148.06627
  23734081.300 6 124723425.92426        36.00026     -1147.41426
  19779625.457 7 103942658.23127        47.00027      4353.71227
  20977561.883 7 110237892.29227        45.00027      4460.64827
 13  4  5 12 24  0.9940033  0  9G02G05G07G08G09G10G13G26G28
  23165354.041 6 121734674.00426        40.00026     -1071.23326
  19504477.346 7 102496712.67427        46.00027      2184.80827
  20572483.411 7 108109107.45027        42.00027      -461.84727
  19297299.563 7 101407970.04027        45.00027      1259.17927
  20662324.393 7 108581288.54527        46.00027      5090.75227
  20946781.315 7 110076051.17727        45.00027     -1152.65127
  23737357.370 5 124740646.54915        31.00025     -1145.82725
  19767207.950 8 103877397.85728        48.00028      4349.03728
  20964838.596 7 110171035.03727        44.00027      4455.31727
 13  4  5 12 24 15.9940033  0  9G02G05G07G08G09G10G13G26G28
  23168415.018 6 121750757.49726        40.00026     -1072.81526
  19498253.635 7 102464009.24427        46.00027      2175.20127
  20573808.475 7 108116068.26727        42.00027      -466.34127
  19293714.518 7 101389129.27227        45.00027      1252.42427
  20647796.719 7 108504960.33427        45.00027      5085.38527
  20950077.973 7 110093374.75327        45.00027     -1157.68927
  23740633.630 5 124757865.49315        31.00025     -1146.97225
  19754799.605 8 103812194.49028        48.00028      4344.14628
  20952130.577 7 110104253.95827        45.00027      4448.73927
 13  4  5 12 24 30.9940033  0  9G02G05G07G08G09G10G13G26G28
  23171476.188 6 121766845.82026        40.00026     -1072.68726
  19492057.042 7 102431445.94927        47.00027      2166.21727
  20575143.363 7 108123086.75227        42.00027      -469.58827
  19290148.197 7 101370389.00027        45.00027      1246.05927
  20633287.716 7 108428703.44027        45.00027      5081.05127
  20953388.801 7 110110768.06627        46.00027     -1161.83827
  23743911.479 5 124775094.97915        31.00025     -1147.22725
  19742405.865 8 103747061.03628        48.00028      4340.18228
  20939438.788 7 110037562.26527        44.00027      4443.79327
 13  4  5 12 24 45.9940033  0  9G02G05G07G08G09G10G13G26G28
  23174539.276 6 121782942.99026        40.00026     -1073.69426
  19485888.404 7 102399027.32627        46.00027      2156.84127
  20576491.198 7 108130167.01927        42.00027      -474.20527
  19286602.503 7 101351753.42727        46.00027      1239.73127
  20618790.771 7 108352522.50827        45.00027      5076.10827
  20956712.926 7 110128235.18627        46.00027     -1166.70627
  23747191.648 5 124792339.46015        31.00025     -1149.29525
  19730025.405 8 103682002.12128        48.00028      4335.27228
  20926764.587 7 109970964.18227        44.00027      4437.14627
 13  4  5 12 25  0.9940033  0  9G02G05G07G08G09G10G13G26G28
  23177602.261 6 121799042.64426        39.00026     -1073.03526
  19479745.924 7 102366747.19727        47.00027      2147.80627
  20577849.243 7 108137302.64027        42.00027      -477.77027
  19283074.834 7 101333216.09627        45.00027      1232.78327
  20604305.606 7 108276411.51627        45.00027      5071.79227
  20960048.918 7 110145769.70227        46.00027     -1171.08527
  23750473.963 5 124809593.09425        30.00025     -1153.26225
  19717658.591 8 103617011.69328        48.00028      4330.89928
  20914108.291 7 109904454.00227        44.00027      4430.93527
 13  4  5 12 25 15.9940033  0  9G02G05G07G08G09G10G13G26G28
  23180665.612 6 121815138.91026        39.00026     -1071.77026
  19473629.183 7 102334600.67927        47.00027      2138.93427
  20579216.205 6 108144488.16826        41.00026      -479.78326
  19279564.546 7 101314771.56027        45.00027      1226.85327
  20589837.751 7 108200365.38027        45.00027      5067.48927
  20963397.613 7 110163365.98927        45.00027     -1175.10927
  23753758.723 4                        29.00024     -1151.08624
  19705303.644 8 103552084.59028        48.00028      4327.11228
  20901467.526 7 109838026.73527        44.00027      4426.17527
 13  4  5 12 25 30.9940033  0  9G02G05G07G08G09G10G13G26G28
  23183729.398 6 121831243.35726        37.00026     -1075.04926
  19467539.978 7 102302599.17727        47.00027      2127.88327
  20580595.084 7 108151735.27427        42.00027      -485.74927
  19276074.481 7 101296431.60127        44.00027      1218.55627
  20575378.428 7 108124396.10427        44.00027      5061.71427
  20966760.320 7 110181035.65427        45.00027     -1180.74227
  23757052.277 4                        27.00024     -1151.97624
  19692963.056 8 103487232.89228        48.00028      4320.35328
  20888844.978 7 109771694.65927        43.00027      4418.50027
 13  4  5 12 25 45.9940033  0  9G02G05G07G08G09G10G13G26G28
  23186794.983 6 121847353.63126        39.00026     -1073.67226
  19461477.246 7 102270740.86027        47.00027      2120.45227
  20581985.290 7 108159041.61827        42.00027      -487.54627
  19272603.038 7 101278194.07827        45.00027      1213.35727
  20560940.047 7 108048501.90727        46.00027      5057.48327
  20970134.912 7 110198776.39927        44.00027     -1184.16427
  23760355.167 4                        29.00024     -1151.97324
  19680635.471 8 103422454.78028        48.00028      4316.75328
  20876241.225 7 109705455.81827        44.00027      4413.96927
 13  4  5 12 26  0.9940033  0  9G02G05G07G08G09G10G13G26G28
  23189859.747 6 121863471.27626        38.00026     -1074.71326
  19455442.258 8 102239027.60728        48.00028      2109.67428
  20583386.191 7 108166408.88027        42.00027      -493.19827
  19269152.237 7 101260060.72927        44.00027      1205.83927
  20546511.210 7 107972684.82827        46.00027      5052.69127
  20973525.836 7 110216589.91127        45.00027     -1190.15027
  23763637.238 5                        30.00025     -1153.15025
  19668323.677 7 103357752.22227        47.00027      4311.29027
  20863653.926 7 109639312.53227        44.00027      4406.34127
 13  4  5 12 26 15.9940033  0  9G02G05G07G08G09G10G13G26G28
  23192930.479 6 121879593.44826        39.00026     -1074.45926
  19449434.407 7 102207457.34327        47.00027      2100.55927
  20584801.681 6 108173834.36526        41.00026      -497.27126
  19265720.370 7 101242028.92327        44.00027      1198.56427
  20532096.700 7 107896942.57527        44.00027      5047.49527
  20976929.779 7 110234473.56227        45.00027     -1193.46527
  23766896.712 4                        27.00024     -1152.36324
  19656024.727 7 103293123.08627        46.00027      4306.46227
  20851084.410 7 109573262.71327        43.00027      4400.46527
 13  4  5 12 26 30.9940033  0  9G02G05G07G08G09G10G13G26G28
  23195996.553 6 121895712.91626        39.00026     -1073.32426
  19443453.201 8 102176023.01528        48.00028      2091.63628
  20586222.163 6 108181310.98626        41.00026      -499.02426
  19262308.204 7 101224091.55827        45.00027      1192.92027
  20517697.250 7 107821268.44627        45.00027      5043.29927
  20980343.371 7 110252420.03027        45.00027     -1197.81427
  23770193.302 4                        26.00024     -1154.15124
  19643738.865 7 103228560.47527        46.00027      4302.76427
  20838531.908 7 109507299.82827        43.00027      4394.70127
 13  4  5 12 26 45.9940033  0  9G02G05G07G08G09G10G13G26G28
  23199063.445 6 121911833.58526        38.00026     -1074.82526
  19437497.805 8 102144729.06328        48.00028      2080.79528
  20587655.470 6 108188842.81126        41.00026      -504.44826
  19258913.715 7 101206252.79527        45.00027      1185.66327
  20503308.496 7 107745666.83427        44.00027      5037.16727
  20983770.853 7 110270433.44327        45.00027     -1203.67327
  23773521.616 4                        29.00024     -1156.83724
  19631464.972 7 103164068.95627        45.00027      4296.35427
  20825996.611 7 109441428.41627        43.00027      4388.01127
 13  4  5 12 27  0.9940033  0  9G02G05G07G08G09G10G13G26G28
  23202135.713 6 121927963.49726        39.00026     -1074.54526
  19431571.585 8 102113583.97228        48.00028      2072.48128
  20589101.376 6 108196438.04426        40.00026      -507.56526
  19255540.010 7 101188520.85627        45.00027      1179.90027
  20488937.804 7 107670146.44427        43.00027      5033.39827
  20987213.169 7 110288521.99527        45.00027     -1207.63427
  23776844.713 5                        32.00025     -1157.54825
  19619207.292 7 103099657.07827        44.00027      4292.58927
  20813481.575 7 109375657.12527        43.00027      4382.74427
 13  4  5 12 27 15.9940033  0  9G02G05G07G08G09G10G13G26G28
  23205207.039 6 121944098.64826        40.00026     -1075.04526
  19425671.366 8 102082584.25328        48.00028      2061.96728
  20590556.705 6 108204092.90126        39.00026      -511.78826
  19252185.447 7 101170892.13427        46.00027      1172.62927
  20474580.792 7 107594703.80627        44.00027      5026.65327
  20990668.066 7 110306681.67827        45.00027     -1212.68627
  23780148.719 4                        29.00024     -1158.74824
  19606962.664 7 103035321.45827        44.00027      4286.70627
  20800983.569 7 109309982.76027        43.00027      4374.71627
 13  4  5 12 27 30.9940033  0  9G02G05G07G08G09G10G13G26G28
  23208278.852 6 121960237.87426        39.00026     -1076.48426
  19419799.347 7 102051729.11427        47.00027      2052.26127
  20592025.244 6 108211806.20726        39.00026      -515.28026
  19248849.871 7 101153365.52727        45.00027      1165.50127
  20460238.159 7 107519338.15927        43.00027      5021.38527
  20994139.035 7 110324911.31327        46.00027     -1217.77227
  23783447.107 4                        28.00024     -1159.42624
  19594735.313 7 102971061.42527        44.00027      4282.72627
  20788504.061 7 109244404.57827        43.00027      4369.00227
 13  4  5 12 27 45.9940033  0  9G02G05G07G08G09G10G13G26G28
  23211349.708 6 121976372.12126        38.00026     -1073.85326
  19413953.939 7 102021009.97227        47.00027      2043.42227
  20593503.049 6 108219569.04526        38.00026      -520.17826
  19245532.809 7 101135932.08427        45.00027      1159.44727
  20445912.384 7 107444041.04227        45.00027      5017.40027
  20997619.374 7 110343202.07527        46.00027     -1221.20727
  23786703.318 4                        29.00024     -1156.67124
  19582520.193 7 102906868.35227        44.00027      4277.50727
  20776042.823 7 109178914.18927        43.00027      4362.72027
 13  4  5 12 28  0.9940033  0  9G02G05G07G08G09G10G13G26G28
  23214419.200 6 121992506.58926        38.00026     -1075.79826
  19408135.544 7 101990432.47927        47.00027      2033.37227
  20594989.004 6 108227386.82426        38.00026      -521.92226
  19242233.999 7 101118597.43527        45.00027      1152.63027
  20431596.852 7 107368818.18427        45.00027      5012.64927
  21001111.929 7 110361559.38927        45.00027     -1226.13527
  23790041.858 5 125017513.08915        33.00025     -1160.12425
  19570318.946 7 102842748.14527        45.00027      4271.86727
  20763598.040 7 109113517.60827        44.00027      4356.00527
 13  4  5 12 28 15.9940033  0  9G02G05G07G08G09G10G13G26G28
  23217490.159 6 122008640.81926        39.00026     -1076.32826
  19402343.377 8 101959996.45428        48.00028      2023.45628
  20596488.237 6 108235259.30726        39.00026      -528.29626
  19238954.891 7 101101361.47527        45.00027      1145.12227
  20417298.141 7 107293669.80027        46.00027      5006.49427
  21004619.578 7 110379982.86527        45.00027     -1231.25027
  23793350.698 5 125034911.10525        32.00025     -1161.19525
  19558132.847 7 102778700.91827        47.00027      4266.34027
  20751171.092 7 109048215.05127        45.00027      4349.08127
 13  4  5 12 28 30.9940033  0  9G02G05G07G08G09G10G13G26G28
  23220559.740 6 122024773.78326        38.00026     -1075.31826
  19396578.833 8 101929701.28428        48.00028      2014.18828
  20597996.336 6 108243185.48126        39.00026      -530.86526
  19235693.199 7 101084223.00227        45.00027      1139.10427
  20403012.833 7 107218595.19627        47.00027      5002.68927
  21008136.476 7 110398471.40127        45.00027     -1235.34227
  23796663.604 5 125052317.35815        31.00025     -1162.41525
  19545958.805 7 102714725.97327        47.00027      4262.33727
  20738762.537 7 108983006.14827        45.00027      4343.66727
 13  4  5 12 28 45.9940033  0  9G02G05G07G08G09G10G13G26G28
  23223628.762 6 122040900.96826        38.00026     -1076.88826
  19390839.523 8 101899542.98328        48.00028      2005.75228
  20599513.370 6 108251160.94926        39.00026      -534.25626
  19232449.637 7 101067177.77127        45.00027      1132.81227
  20388738.047 7 107143590.54327        46.00027      4997.71627
  21011666.880 7 110417020.56227        44.00027     -1238.76527
  23799948.417 4                        26.00024     -1156.96624
  19533797.974 8 102650819.47128        48.00028      4257.78528
  20726370.402 7 108917886.86127        45.00027      4337.79727
 13  4  5 12 29  0.9940033  0  9G02G05G07G08G09G10G13G26G28
  23226698.238 6 122057028.29126        38.00026     -1075.10526
  19385127.836 7 101869527.85627        47.00027      1995.67927
  20601041.902 6 108259191.97026        40.00026      -539.10226
  19229224.102 7 101050232.17127        44.00027      1126.23027
  20374480.868 7 107068662.30927        46.00027      4991.73027
  21015209.499 7 110435636.56327        44.00027     -1243.62927
  23803286.782 4                        28.00024     -1162.36624
  19521652.585 8 102586987.92728        49.00028      4252.04928
  20713996.729 7 108852863.77927        45.00027      4331.18027
 13  4  5 12 29 15.9940033  0  9G02G05G07G08G09G10G13G26G28
  23229768.534 6 122073157.86726        38.00026     -1075.09626
  19379444.122 7 101839658.29427        47.00027      1986.11227
  20602580.575 6 108267280.51626        39.00026      -541.12126
  19226019.175 7 101033388.17927        45.00027      1119.90527
  20360238.784 7 106993812.92827        47.00027      4987.19127
  21018764.997 7 110454321.38627        43.00027     -1247.57027
  23806608.867 5                        32.00025     -1162.00625
  19509520.459 8 102523233.74328        49.00028      4247.38328
  20701643.561 7 108787939.60127        46.00027      4325.00227
 13  4  5 12 29 30.9940033  0  9G02G05G07G08G09G10G13G26G28
  23232836.230 6 122089283.85126        37.00026     -1075.01926
  19373786.061 7 101809928.98327        47.00027      1977.66427
  20604129.769 6 108275421.33626        39.00026      -544.47926
  19222831.820 7 101016640.35827        44.00027      1112.99227
  20346008.269 7 106919037.31027        46.00027      4982.98827
  21022333.146 7 110473069.51227        44.00027     -1251.94327
  23809926.676 5 125122008.31615        32.00025     -1163.46225
  19497401.822 8 102459551.87428        49.00028      4242.94428
  20689307.301 7 108723109.25327        45.00027      4318.36527
 13  4  5 12 29 45.9940033  0  9G02G05G07G08G09G10G13G26G28
  23235906.230 6 122105410.67826        38.00026     -1075.52126
  19368157.018 7 101780344.72027        47.00027      1967.63527
  20605689.537 6 108283618.82726        40.00026      -548.54726
  19219664.027 7 100999993.29827        43.00027      1106.69327
  20331795.291 7 106844340.30827        46.00027      4977.58627
  21025915.273 7 110491885.33727        44.00027     -1256.70127
  23813249.040 5 125139466.53415        31.00025     -1165.24425
  19485298.716 8 102395947.15628        48.00028      4237.87228
  20676988.824 7 108658377.87527        45.00027      4311.88127
 13  4  5 12 30  0.9940033  0  9G02G05G07G08G09G10G13G26G28
  23238972.530 6 122121537.42826        38.00026     -1074.39326
  19362554.814 7 101750904.93727        47.00027      1958.39127
  20607259.881 6 108291871.87626        40.00026      -551.86826
  19216516.006 7 100983446.32027        44.00027      1100.94727
  20317594.006 7 106769721.57027        46.00027      4972.43327
  21029507.276 7 110510767.95627        45.00027     -1260.85327
  23816573.464 5 125156936.98715        32.00025     -1164.88725
  19473209.988 8 102332419.19228        49.00028      4233.18528
  20664689.943 7 108593745.09327        46.00027      4306.35627
 13  4  5 12 30 15.9940033  0  9G02G05G07G08G09G10G13G26G28
  23242039.074 6 122137652.92526        37.00026     -1073.28026
  19356978.088 7 101721598.87127        47.00027      1949.99127
  20608838.253 6 108300169.67626        39.00026      -554.07026
  19213383.742 7 100966988.40827        43.00027      1095.09327
  20303407.064 7 106695170.40927        44.00027      4968.20127
  21033111.757 7 110529706.31027        45.00027     -1263.96127
  23819894.257 4                        26.00024     -1165.43524
  19461132.569 7 102268957.35727        47.00027      4229.66027
  20652406.174 7 108529200.32927        44.00027      4300.17127
 13  4  5 12 30 30.9940033  0  9G02G05G07G08G09G10G13G26G28
  23245106.176 6 122153765.05026        37.00026     -1075.40326
  19351427.920 7 101692435.02627        47.00027      1939.46727
  20610429.170 6 108308520.05326        40.00026      -558.09826
  19210268.997 7 100950627.68627        43.00027      1087.34727
  20289233.786 7 106620695.34227        44.00027      4962.22127
  21036727.633 7 110548708.48427        46.00027     -1268.42427
  23823223.881 5                        31.00025     -1164.26125
  19449070.854 8 102205570.01228        48.00028      4223.26928
  20640142.054 7 108464752.26027        45.00027      4293.79027
 13  4  5 12 30 45.9940033  0  9G02G05G07G08G09G10G13G26G28
  23248170.959 6 122169877.06526        38.00026     -1073.96726
  19345906.039 7 101663416.86427        47.00027      1930.35927
  20612027.573 6 108316926.62226        39.00026      -562.18126
  19207175.159 7 100934367.50527        43.00027      1081.40627
  20275075.707 7 106546300.15227        44.00027      4957.63727
  21040356.055 7 110567777.72927        46.00027     -1272.64427
  23826552.143 5                        31.00025     -1166.94325
  19437023.100 7 102142261.03527        47.00027      4218.57127
  20627897.024 7 108400404.60527        46.00027      4286.78727
 13  4  5 12 31  0.9940033  0  9G02G05G07G08G09G10G13G26G28
  23251236.648 6 122185987.55426        38.00026     -1073.57526
  19340411.555 7 101634543.51727        47.00027      1920.06127
  20613637.197 6 108325388.12626        40.00026      -566.14926
  19204099.747 7 100918206.75527        43.00027      1074.94427
  20260934.537 7 106471983.94227        44.00027      4951.92027
  21043997.547 7 110586912.86627        46.00027     -1277.27227
  23829875.066 5                        30.00025     -1167.67825
  19424989.916 7 102079029.55727        46.00027      4212.92127
  20615670.125 7 108336156.81127        45.00027      4279.98927
 13  4  5 12 31 15.9940033  0  9G02G05G07G08G09G10G13G26G28
  23254304.658 6 122202103.56326        38.00026     -1074.59326
  19334945.951 7 101605822.31927        47.00027      1910.43727
  20615261.009 6 108333911.70526        40.00026      -568.88526
  19201045.450 7 100902152.64927        42.00027      1067.48127
  20246808.724 7 106397754.23727        44.00027      4947.47827
  21047652.162 7 110606120.85127        45.00027     -1282.09727
  23833202.158 4                        27.00024     -1169.62124
  19412973.048 7 102015883.09527        46.00027      4207.43427
  20603465.772 7 108272016.46527        45.00027      4273.19827
 13  4  5 12 31 30.9940033  0  9G02G05G07G08G09G10G13G26G28
  23257369.440 6 122218216.07926        38.00026     -1073.59426
  19329508.181 7 101577244.69827        47.00027      1901.24727
  20616893.196 6 108342488.46226        40.00026      -572.42726
  19198008.534 7 100886196.44427        42.00027      1060.38727
  20232697.515 7 106323602.43727        44.00027      4941.47227
  21051319.201 7 110625392.83427        45.00027     -1286.38827
  23836565.723 3                        22.00023     -1169.43823
  19400970.438 7 101952813.15127        44.00027      4202.41127
  20591278.973 7 108207975.05527        45.00027      4266.60527
 13  4  5 12 31 45.9940033  0  9G02G05G07G08G09G10G13G26G28
  23260433.471 6 122234328.22726        37.00026     -1073.91126
  19324098.033 8 101548814.19528        48.00028      1890.12928
  20618536.865 6 108351121.89526        41.00026      -578.35526
  19194990.533 7 100870341.39627        42.00027      1052.84027
  20218605.031 7 106249532.39827        45.00027      4935.13227
  21054999.974 7 110644732.02527        45.00027     -1291.91127
  23839927.384 4                        25.00024     -1171.34024
  19388983.008 7 101889823.48727        44.00027      4196.83027
  20579111.440 7 108144036.64327        45.00027      4259.35727
 13  4  5 12 32  0.9940033  0  9G02G05G07G08G09G10G13G26G28
  23263498.270 6 122250434.40326        38.00026     -1073.88126
  19318715.388 8 101520525.44728        48.00028      1880.91428
  20620190.098 7 108359806.36927        42.00027      -580.43227
  19191991.572 7 100854582.13927        42.00027      1047.58727
  20204522.477 7 106175538.86627        45.00027      4930.42427
  21058690.013 7 110664132.95927        44.00027     -1295.11327
  23843217.414 4                        26.00024     -1169.63924
  19377010.412 7 101826908.93627        45.00027      4192.19127
  20566964.009 7 108080196.13127        46.00027      4252.97127
 13  4  5 12 32 15.9940033  0  9G02G05G07G08G09G10G13G26G28
  23266563.838 6 122266541.74126        38.00026     -1071.75326
  19313360.122 8 101492385.87228        48.00028      1872.34728
  20621852.945 6 108368548.94026        41.00026      -583.36826
  19189012.538 7 100838925.90027        42.00027      1041.46127
  20190459.484 7 106101629.56927        46.00027      4925.98727
  21062394.326 7 110683602.68827        42.00027     -1299.40327
  23846576.110 4                        26.00024     -1170.25124
  19365053.696 7 101764077.18227        45.00027      4187.13827
  20554835.146 7 108016461.11127        45.00027      4247.43727
 13  4  5 12 32 30.9940033  0  9G02G05G07G08G09G10G13G26G28
  23269627.449 6 122282642.16126        38.00026     -1075.05126
  19308031.973 8 101464388.33728        48.00028      1860.70328
  20623527.431 7 108377341.83727        43.00027      -588.73627
  19186051.844 7 100823364.89227        43.00027      1033.25427
  20176408.671 7 106027796.87727        45.00027      4919.02727
  21066110.488 7 110703133.33527        42.00027     -1304.70027
  23849943.688 4                        25.00024     -1168.28724
  19353113.068 7 101701320.68327        46.00027      4180.51327
  20542725.616 7 107952824.32827        45.00027      4238.27327
 13  4  5 12 32 45.9940033  0  8G02G05G07G08G09G10G26G28
  23272694.151 6 122298756.55626        37.00026     -1073.18326
  19302734.956 7 101436553.89027        47.00027      1851.37827
  20625213.749 7 108386206.04527        42.00027      -592.22327
  19183112.788 7 100807920.04527        42.00027      1026.49227
  20162376.547 7 105954062.29627        44.00027      4912.65027
  21069839.807 6 110722745.78826        39.00026     -1308.61726
  19341189.018 7 101638660.91327        46.00027      4175.07027
  20530638.476 7 107889307.15527        44.00027      4231.24127
 13  4  5 12 33  0.9940033  0  9G02G03G05G07G08G09G10G26G28
  23275761.341 6 122314868.72526        37.00026     -1073.15726
  23564052.898 4                        25.00024      1538.43024
  19297466.504 7 101408866.44127        47.00027      1840.29927
  20626910.275 6 108395125.61426        41.00026      -596.59626
  19180194.498 7 100792575.44527        43.00027      1019.26227
  20148361.769 7 105880410.01627        45.00027      4906.95227
  21073584.831 6 110742424.04926        39.00026     -1314.55526
  19329282.435 8 101576082.11728        48.00028      4168.94128
  20518571.822 7 107825894.13027        44.00027      4223.66727
 13  4  5 12 33 15.9940033  0  9G02G03G05G07G08G09G10G26G28
  23278829.455 6 122330980.27726        38.00026     -1076.19526
  23559699.257 4                        25.00024      1530.80624
  19292226.078 8 101381327.95628        48.00028      1831.64728
  20628619.383 7 108404102.21027        42.00027      -600.61027
  19177293.589 7 100777332.92827        44.00027      1013.16027
  20134361.457 7 105806842.23627        45.00027      4901.54527
  21077344.496 7 110762169.83927        42.00027     -1318.62127
  19317390.407 8 101513586.53028        49.00028      4164.32828
  20506524.259 7 107762587.52827        45.00027      4217.29327
 13  4  5 12 33 30.9940033  0  9G02G03G05G07G08G09G10G26G28
  23281894.516 6 122347091.62626        37.00026     -1074.43626
  23555349.229 4                        25.00024      1521.26024
  19287014.078 7 101353939.45527        47.00027      1821.32727
  20630337.915 6 108413136.37026        41.00026      -602.47226
  19174412.451 7 100762193.06027        44.00027      1007.18327
  20120377.601 7 105733360.01227        45.00027      4896.77727
  21081113.411 6 110781983.52026        41.00026     -1321.28226
  19305514.031 8 101451175.04128        49.00028      4158.72628
  20494497.410 7 107699388.22427        46.00027      4211.04227
 13  4  5 12 33 45.9940033  0  9G02G03G05G07G08G09G10G26G28
  23284956.646 6 122363184.63126        36.00026     -1072.64426
  23551014.348 3                        23.00023      1515.33923
  19281826.683 7 101326683.18927        45.00027      1812.14927
  20632065.519 6 108422210.21826        40.00026      -606.39926
  19171546.390 7 100747137.96727        42.00027      1000.53927
  20106409.747 7 105659945.76227        45.00027      4891.90227
  21084894.487 6 110801847.09026        40.00026     -1326.50126
  19293650.673 8 101388830.17728        48.00028      4153.75228
  20482488.063 7 107636278.88427        44.00027      4204.34927
 13  4  5 12 34  0.9940033  0  9G02G03G05G07G08G09G10G26G28
  23288017.624 6 122379265.38626        37.00026     -1072.31026
  23546712.654 4                        25.00024      1500.33924
  19276667.418 7 101299565.61327        46.00027      1803.70627
  20633799.930 6 108431329.95226        41.00026      -610.06026
  19168699.158 7 100732173.92827        43.00027       994.70727
  20092452.642 7 105586605.97527        45.00027      4886.61427
  21088685.196 7 110821766.71427        42.00027     -1330.37027
  19281799.443 8 101326558.35428        48.00028      4148.87228
  20470497.527 7 107573266.18327        45.00027      4197.21627
 13  4  5 12 34 15.9940033  0  9G02G03G05G07G08G09G10G26G28
  23291077.747 6 122395346.50426        38.00026     -1071.80626
  23542441.710 4                        24.00024      1491.21424
  19271535.392 7 101272599.59127        46.00027      1792.34427
  20635546.660 6 108440508.27826        40.00026      -614.56726
  19165871.278 7 100717313.58527        44.00027       987.05927
  20078514.610 7 105513353.67327        46.00027      4880.05427
  21092489.970 7 110841755.04527        43.00027     -1334.63027
  19269967.285 8 101264372.75428        48.00028      4142.30728
  20458526.797 7 107510363.22727        45.00027      4189.56227
 13  4  5 12 34 30.9940033  0  9G02G03G05G07G08G09G10G26G28
  23294138.566 6 122411427.30326        37.00026     -1073.94926
  23538203.831 4                        24.00024      1474.85524
  19266431.810 7 101245784.95727        45.00027      1782.44627
  20637305.118 6 108449744.72926        39.00026      -617.79126
  19163062.680 7 100702556.58127        42.00027       980.93227
  20064592.859 7 105440188.88927        46.00027      4875.33127
  21096306.192 6 110861811.53726        41.00026     -1339.09126
  19258149.786 7 101202273.28427        47.00027      4137.15527
  20446577.583 7 107447570.14827        44.00027      4183.92427
 13  4  5 12 34 45.9940033  0  9G02G03G05G07G08G09G10G26G28
  23297199.231 6 122427501.57426        38.00026     -1071.13326
  23533966.742 3                        21.00023      1471.10523
  19261357.126 7 101219115.83427        47.00027      1773.07227
  20639072.178 6 108459033.05326        41.00026      -620.23626
  19160273.121 7 100687896.94827        44.00027       974.86927
  20050686.046 8 105367105.85528        48.00028      4869.26828
  21100132.621 7 110881930.09227        42.00027     -1343.54527
  19246347.626 8 101140254.19328        48.00028      4131.96728
  20434648.489 7 107384881.17727        46.00027      4175.24527
 13  4  5 12 35  0.9940033  0  9G02G03G05G07G08G09G10G26G28
  23300257.417 6 122443574.71626        40.00026     -1070.34926
  23529781.044 3                        23.00023      1465.85523
  19256310.886 7 101192597.92227        46.00027      1763.41627
  20640852.186 7 108468378.81927        42.00027      -624.59727
  19157504.118 7 100673339.99827        44.00027       967.75427
  20036794.379 8 105294110.38828        48.00028      4864.16628
  21103974.215 6 110902116.17026        41.00026     -1348.01526
  19234562.218 7 101078321.33627        47.00027      4126.66027
  20422740.196 7 107322302.39227        45.00027      4168.35927
 13  4  5 12 35 15.9940033  0 10G02G03G05G07G08G09G10G13G26G28
  23303314.869 6 122459636.21926        40.00026     -1070.44326
  23525640.155 4                        27.00024      1455.13124
  19251290.700 7 101166221.04227        45.00027      1754.32827
  20642639.069 6 108477771.68826        41.00026      -628.19926
  19154750.715 7 100658875.61227        43.00027       961.12327
  20022919.220 7 105221192.55827        47.00027      4858.66227
  21107826.088 6 110922359.40926        40.00026     -1351.15426
  23886948.039 4                        29.00024     -1181.07724
  19222791.678 7 101016464.88627        46.00027      4121.55827
  20410851.360 7 107259824.07527        44.00027      4162.02527
 13  4  5 12 35 30.9940033  0 10G02G03G05G07G08G09G10G13G26G28
  23306370.019 6 122475691.04026        39.00026     -1070.31126
  23521508.829 4                        29.00024      1441.61824
  19246300.247 7 101139990.81427        46.00027      1743.51527
  20644437.330 6 108487216.74826        41.00026      -631.43426
  19152016.577 7 100644508.78027        44.00027       954.39327
  20009058.911 8 105148357.79428        48.00028      4852.88428
  21111690.350 6 110942664.57826        40.00026     -1355.43626
  23890316.104 5 125544457.74715        32.00025     -1185.22825
  19211033.911 7 100954690.18227        44.00027      4115.36227
  20398981.946 7 107197451.54127        45.00027      4153.87827
 13  4  5 12 35 45.9940033  0 10G02G03G05G07G08G09G10G13G26G28
  23309424.872 6 122491744.22026        40.00026     -1069.42726
  23517394.780 5                        30.00025      1433.99625
  19241337.349 7 101113912.44627        47.00027      1734.16227
  20646245.521 6 108496719.20726        41.00026      -635.13726
  19149301.374 7 100630244.94427        44.00027       948.26227
  19995215.966 8 105075611.71028        48.00028      4847.33128
  21115566.216 6 110963036.91826        41.00026     -1358.86726
  23893693.403 5 125562223.04315        32.00025     -1182.21125
  19199295.252 7 100893002.87427        45.00027      4110.28727
  20387133.228 7 107135190.36627        45.00027      4147.90627
 13  4  5 12 36  0.9940033  0 10G02G03G05G07G08G09G10G13G26G28
  23312478.363 6 122507788.66926        41.00026     -1068.76326
  23513307.866 4                        29.00024      1426.06324
  19236402.686 7 101087979.21527        46.00027      1725.41327
  20648062.558 6 108506272.21026        41.00026      -637.97926
  19146605.243 7 100616077.17527        44.00027       941.88927
  19981387.155 8 105002947.73528        48.00028      4842.29728
  21119453.896 6 110983469.53026        40.00026     -1362.93426
  23897058.310 4                        29.00024     -1184.66624
  19187570.815 7 100831396.47427        45.00027      4105.40827
  20375305.398 7 107073034.36827        45.00027      4141.28027
 13  4  5 12 36 15.9940033  0 10G02G03G05G07G08G09G10G13G26G28
  23315530.528 6 122523828.21526        39.00026     -1069.24426
  23509273.056 5                        30.00025      1412.12525
  19231495.872 7 101062195.24027        46.00027      1713.63727
  20649891.409 6 108515879.63726        40.00026      -642.09326
  19143928.499 7 100602009.55527        44.00027       934.05127
  19967577.155 7 104930370.18727        47.00027      4835.91327
  21123354.925 6 111003966.17826        41.00026     -1368.15026
  23900443.617 4                        29.00024     -1185.42824
  19175862.502 7 100769875.26727        44.00027      4099.24027
  20363498.770 7 107010987.98327        45.00027      4132.57227
 13  4  5 12 36 30.9940033  0 10G02G03G05G07G08G09G10G13G26G28
  23318581.595 6 122539862.66026        40.00026     -1068.38226
  23505253.204 5                        30.00025      1406.05525
  19226617.712 7 101036560.59327        46.00027      1702.64627
  20651729.229 6 108525541.39426        39.00026      -648.01626
  19141271.421 7 100588041.82427        44.00027       927.45127
  19953781.621 7 104857879.23727        46.00027      4829.27727
  21127270.089 7 111024526.74127        42.00027     -1373.68727
  23903846.793 4                        27.00024     -1187.06024
  19164171.098 7 100708439.56227        44.00027      4091.57027
  20351711.529 7 106949051.49127        45.00027      4125.00227
 13  4  5 12 36 45.9940033  0 10G02G03G05G07G08G09G10G13G26G28
  23321632.608 6 122555891.38326        40.00026     -1068.67626
  23501258.252 4                        28.00024      1396.15124
  19221768.276 7 101011075.23027        46.00027      1694.06327
  20653577.748 6 108535257.01726        39.00026      -648.72026
  19138633.591 7 100574173.74127        45.00027       921.10827
  19940002.560 7 104785474.90227        45.00027      4824.13527
  21131196.195 7 111045150.77127        44.00027     -1377.21527
  23907228.820 4                        28.00024     -1187.12824
  19152497.354 7 100647089.34827        44.00027      4086.33827
  20339946.502 7 106887225.01827        44.00027      4117.70727
 13  4  5 12 37  0.9940033  0 10G02G03G05G07G08G09G10G13G26G28
  23324682.086 6 122571916.83826        39.00026     -1067.50326
  23497280.786 4                        27.00024      1387.61524
  19216947.231 7 100985741.95427        45.00027      1684.63227
  20655435.043 6 108545029.15726        37.00026      -652.29326
  19136013.753 7 100560407.94427        44.00027       915.00327
  19926242.521 7 104713160.08327        44.00027      4818.91027
  21135134.551 7 111065840.74327        44.00027     -1380.34327
  23910608.072 4                        27.00024     -1186.86724
  19140839.315 7 100585827.46127        45.00027      4082.17127
  20328203.009 7 106825511.36927        44.00027      4111.37627
 13  4  5 12 37 15.9940033  0 10G02G03G05G07G08G09G10G13G26G28
  23327729.942 6 122587931.08426        40.00026     -1067.16826
  23493336.422 4                        26.00024      1375.84324
  19212153.530 7 100960553.03227        45.00027      1674.03627
  20657306.281 6 108554849.85426        38.00026      -654.99226
  19133412.080 7 100546736.47927        44.00027       908.70027
  19912494.260 7 104640927.24227        43.00027      4813.51627
  21139084.353 7 111086588.65727        45.00027     -1385.05627
  23914017.844 4                        29.00024     -1188.97824
  19129198.325 7 100524646.49927        46.00027      4076.58227
  20316478.885 7 106763903.36627        43.00027      4103.87627
 13  4  5 12 37 30.9940033  0 10G02G03G05G07G08G09G10G13G26G28
  23330774.900 6 122603933.48726        41.00026     -1067.52126
  23489433.695 4                        26.00024      1368.78724
  19207387.331 7 100935508.11627        45.00027      1665.11927
  20659183.853 6 108564718.78226        37.00026      -659.68726
  19130829.428 7 100533159.02527        45.00027       902.49527
  19898762.821 7 104568776.42027        42.00027      4807.79827
  21143043.108 7 111107394.11327        46.00027     -1389.00527
  23917428.540 5                        31.00025     -1191.31525
  19117571.959 7 100463546.40027        46.00027      4071.14027
  20304775.301 7 106702400.96527        44.00027      4096.82727
 13  4  5 12 37 45.9940033  0 10G02G03G05G07G08G09G10G13G26G28
  23333816.282 6 122619920.47826        40.00026     -1065.02026
  23485558.381 4                        27.00024      1357.12124
  19202648.512 7 100910604.12827        46.00027      1656.32327
  20661072.141 6 108574632.41126        38.00026      -660.48926
  19128262.377 7 100519671.98227        45.00027       897.56827
  19885047.960 7 104496704.59527        43.00027      4803.65327
  21147013.747 7 111128253.51827        47.00027     -1391.31727
  23920819.450 5                        30.00025     -1187.86425
  19105960.547 8 100402524.11328        48.00028      4066.99128
  20293093.180 7 106641001.21327        45.00027      4089.98627
 13  4  5 12 38  0.9940033  0 10G02G03G05G07G08G09G10G13G26G28
  23336854.976 6 122635890.78826        39.00026     -1064.23926
  23481701.496 4                        24.00024      1347.73724
  19197936.233 7 100885840.23027        45.00027      1645.49327
  20662967.581 6 108584589.67826        38.00026      -666.79926
  19125713.334 7 100506274.41227        45.00027       889.64127
  19871347.181 7 104424710.93527        43.00027      4795.92427
  21150991.872 7 111149165.72227        45.00027     -1395.94727
  23924221.875 4                        29.00024     -1190.49924
  19094362.955 7 100341578.91127        47.00027      4059.35727
  20281427.811 7 106579703.42227        45.00027      4082.54027
 13  4  5 12 38 15.9940033  0 10G02G03G05G07G08G09G10G13G26G28
  23339891.855 6 122651848.98126        39.00026     -1063.24726
  23477843.717 3                        23.00023      1329.51023
  19193252.644 7 100861221.26527        46.00027      1637.08027
  20664870.981 6 108594595.16026        39.00026      -667.22426
  19123181.776 7 100492970.95927        45.00027       883.78527
  19857665.336 7 104352800.36327        44.00027      4791.02327
  21154983.992 7 111170135.24027        45.00027     -1399.60027
  23927646.306 4                        28.00024     -1189.70624
  19082781.419 8 100280715.77928        48.00028      4055.41328
  20269784.239 7 106518512.74927        46.00027      4076.84327
 13  4  5 12 38 30.9940033  0  9G02G03G05G07G08G09G10G26G28
  23342925.767 6 122667789.48026        40.00026     -1062.47426
  23474029.708 4                        25.00024      1324.27524
  19188593.642 7 100836742.06427        45.00027      1627.03427
  20666780.923 6 108604643.65226        39.00026      -672.07626
  19120666.569 7 100479756.35127        45.00027       877.87727
  19843997.835 7 104280968.03927        46.00027      4786.29027
  21158983.563 7 111191156.77527        45.00027     -1403.16827
  19071215.028 8 100219929.84228        48.00028      4049.37128
  20258158.046 7 106457424.26727        44.00027      4069.05527
 13  4  5 12 38 45.9940033  0  9G02G03G05G07G08G09G10G26G28
  23345955.649 6 122683716.69926        40.00026     -1061.88226
  23470253.235 4                        25.00024      1319.33724
  19183962.228 7 100812407.25627        45.00027      1616.95727
  20668703.343 6 108614739.36226        39.00026      -674.12726
  19118170.016 7 100466635.08827        44.00027       871.10827
  19830345.707 7 104209218.73227        47.00027      4779.63827
  21162992.487 7 111212234.60027        43.00027     -1407.23327
  19059662.930 8 100159225.86428        48.00028      4043.92128
  20246554.171 7 106396442.91927        44.00027      4061.32127
 13  4  5 12 39  0.9940033  0  9G02G03G05G07G08G09G10G26G28
  23348984.606 6 122699629.05526        39.00026     -1060.70226
  23466516.545 4                        24.00024      1306.59124
  19179358.962 7 100788215.63427        44.00027      1607.63527
  20670632.777 6 108624880.86426        39.00026      -678.76426
  19115690.565 7 100453605.81727        44.00027       864.73527
  19816708.395 7 104137551.35727        47.00027      4774.57627
  21167012.614 7 111233367.31727        43.00027     -1411.59527
  19048126.606 7 100098602.84427        47.00027      4037.96227
  20234969.597 7 106335567.59627        44.00027      4054.14827
 13  4  5 12 39 15.9940033  0  9G02G03G05G07G08G09G10G26G28
  23352010.875 6 122715530.74826        40.00026     -1059.42326
  23462792.282 4                        25.00024      1300.41024
  19174782.516 7 100764171.71527        45.00027      1597.84927
  20672571.390 6 108635072.75726        40.00026      -682.79126
  19113229.087 7 100440672.89927        45.00027       858.84527
  19803088.358 8 104065970.69028        49.00028      4768.50428
  21171044.555 7 111254559.28727        43.00027     -1415.28427
  19036607.017 7 100038065.46427        47.00027      4032.46027
  20223405.388 7 106274803.28527        44.00027      4046.47427
 13  4  5 12 39 30.9940033  0  9G02G03G05G07G08G09G10G26G28
  23355035.539 6 122731418.43226        41.00026     -1059.10526
  23459097.857 4                        26.00024      1287.48624
  19170234.340 7 100740272.48027        45.00027      1588.75127
  20674522.009 6 108645311.77426        41.00026      -683.79526
  19110785.897 7 100427833.32127        44.00027       853.24327
  19789482.892 8 103994473.91128        49.00028      4764.13228
  21175088.363 7 111275807.12527        43.00027     -1418.34427
  19025102.959 7  99977610.99627        47.00027      4028.15227
  20211863.480 7 106214147.38627        44.00027      4040.47727
 13  4  5 12 39 45.9940033  0  9G02G03G05G07G08G09G10G26G28
  23358057.097 6 122747296.03126        40.00026     -1057.83226
  23455416.801 4                        28.00024      1280.67724
  19165715.219 7 100716522.18727        44.00027      1578.61927
  20676479.241 7 108655601.88727        42.00027      -688.56527
  19108360.943 7 100415090.97227        43.00027       846.33727
  19775893.864 8 103923065.37828        49.00028      4757.64328
  21179141.261 7 111297114.80027        42.00027     -1423.64627
  19013615.252 7  99917243.83727        46.00027      4021.61227
  20200342.337 7 106153604.14427        44.00027      4032.42027
 13  4  5 12 40  0.9940033  0  9G02G03G05G07G08G09G10G26G28
  23361078.463 6 122763169.06326        40.00026     -1056.30026
  23451758.568 4                        28.00024      1270.68124
  19161226.600 7 100692926.74127        44.00027      1568.46927
  20678448.934 7 108665948.84227        42.00027      -690.97227
  19105954.992 7 100402451.65827        43.00027       840.79927
  19762323.299 8 103851751.12028        49.00028      4752.37128
  21183209.133 7 111318487.87127        42.00027     -1425.65327
  19002145.187 7  99856970.05127        45.00027      4016.47827
  20188843.932 7 106093179.87427        43.00027      4025.61227
 13  4  5 12 40 15.9940033  0  9G02G03G05G07G08G09G10G26G28
  23364097.228 6 122779033.46926        39.00026     -1057.91026
  23448157.346 5                        30.00025      1262.51725
  19156765.326 7 100669482.33127        45.00027      1558.99127
  20680428.799 7 108676348.60627        43.00027      -695.15127
  19103568.253 7 100389911.41927        43.00027       833.17027
  19748768.945 8 103780527.44928        48.00028      4745.92628
  21187289.306 7 111339922.27827        43.00027     -1431.36927
  18990692.484 7  99796785.86027        45.00027      4009.06027
  20177368.631 7 106032870.93927        44.00027      4017.23927
 13  4  5 12 40 30.9940033  0  9G02G03G05G07G08G09G10G26G28
  23367113.848 6 122794883.56426        39.00026     -1056.02026
  23444576.696 5                        30.00025      1250.62525
  19152331.972 7 100646183.60227        46.00027      1548.16127
  20682416.395 7 108686795.57727        44.00027      -698.41527
  19101198.266 7 100377464.68027        43.00027       826.11027
  19735232.634 8 103709389.20828        49.00028      4739.74228
  21191378.397 7 111361412.43127        42.00027     -1434.65027
  18979255.435 7  99736686.28327        45.00027      4004.54527
  20165913.415 7 105972672.18827        45.00027      4010.03227
 13  4  5 12 40 45.9940033  0  9G02G03G05G07G08G09G10G26G28
  23370128.898 6 122810717.11226        39.00026     -1053.15926
  23441011.178 5                        31.00025      1244.98325
  19147927.533 7 100623028.72627        46.00027      1538.83627
  20684412.978 7 108697287.72327        44.00027      -700.48527
  19098848.767 7 100365109.39727        43.00027       820.48227
  19721711.104 8 103638334.76728        48.00028      4734.46828
  21195478.987 7 111382956.32427        43.00027     -1437.73527
  18967834.422 7  99676669.62027        45.00027      3998.12827
  20154478.023 7 105912582.14727        44.00027      4002.82027
 13  4  5 12 41  0.9940033  0  9G02G03G05G07G08G09G10G26G28
  23373138.484 7 122826533.74927        42.00027     -1054.54427
  23437473.474 5                        31.00025      1232.98925
  19143548.484 7 100600017.78527        47.00027      1528.40627
  20686418.862 7 108707824.99927        45.00027      -704.07327
  19096515.984 7 100352845.49927        44.00027       813.95427
  19708206.570 8 103567364.32928        49.00028      4728.34028
  21199588.581 7 111404553.66027        44.00027     -1442.54827
  18956429.394 7  99616736.12227        44.00027      3992.06827
  20143063.972 7 105852601.18927        45.00027      3994.11727
 13  4  5 12 41 15.9940033  0  9G02G03G05G07G08G09G10G26G28
  23376144.145 6 122842335.72826        39.00026     -1053.55426
  23433962.627 5                        31.00025      1225.05825
  19139197.531 7 100577153.27927        46.00027      1519.32827
  20688432.337 7 108718409.68127        44.00027      -707.42027
  19094200.286 7 100340675.35427        43.00027       808.02427
  19694716.922 7 103496480.62627        47.00027      4722.62627
  21203711.892 7 111426206.69627        44.00027     -1445.75427
  18945040.682 7  99556888.49527        44.00027      3986.79527
  20131671.647 7 105792731.90327        44.00027      3987.51127
 13  4  5 12 41 30.9940033  0  9G02G03G05G07G08G09G10G26G28
  23379147.171 6 122858118.91226        39.00026     -1051.55326
  23430484.795 5                        31.00025      1215.28825
  19134873.381 7 100554431.33227        47.00027      1510.19027
  20690455.165 7 108729037.75827        44.00027      -709.65327
  19091900.991 7 100328594.94227        43.00027       801.96027
  19681244.444 7 103425679.89227        47.00027      4717.36427
  21207841.258 7 111447911.35227        44.00027     -1448.27127
  18933667.814 7  99497123.00427        44.00027      3981.44227
  20120299.774 7 105732970.72527        45.00027      3980.21127
 13  4  5 12 41 45.9940033  0  9G02G03G05G07G08G09G10G26G28
  23382150.318 6 122873890.43526        39.00026     -1052.01326
  23427045.318 5                        31.00025      1204.81725
  19130578.774 7 100531859.46127        47.00027      1499.53927
  20692485.933 7 108739716.29827        43.00027      -714.21227
  19089620.052 7 100316611.44427        43.00027       794.61327
  19667786.694 7 103354969.66127        46.00027      4710.70827
  21211983.345 7 111469674.65727        44.00027     -1453.06027
  18922311.838 7  99437447.35127        44.00027      3974.94727
  20108948.735 7 105673325.38427        45.00027      3972.27527
 13  4  5 12 42  0.9940033  0  9G02G03G05G07G08G09G10G26G28
  23385147.586 6 122889645.04726        38.00026     -1051.09426
  23423614.567 5 123091925.15815        33.00025      1196.15025
  19126311.738 8 100509432.40228        48.00028      1489.62828
  20694526.682 7 108750440.27127        44.00027      -716.88527
  19087357.333 7 100304719.88827        43.00027       789.56127
  19654346.325 7 103284345.20127        45.00027      4704.88727
  21216135.571 7 111491491.42027        45.00027     -1456.57727
  18910971.236 7  99377856.70327        45.00027      3969.34427
  20097620.331 7 105613791.16527        45.00027      3965.13427
 13  4  5 12 42 15.9940033  0  9G02G03G05G07G08G09G10G26G28
  23388140.788 6 122905375.38326        38.00026     -1048.20226
  23420210.950 5 123074055.16725        33.00025      1186.71325
  19122069.552 7 100487143.12427        47.00027      1480.51927
  20696573.993 7 108761202.34627        43.00027      -719.82427
  19085110.092 7 100292912.95727        43.00027       783.14127
  19640920.178 7 103213799.40727        44.00027      4699.88627
  21220295.178 7 111513354.26227        45.00027     -1459.41827
  18899647.265 7  99318344.10427        45.00027      3964.30027
  20086311.697 7 105554361.15427        46.00027      3958.10027
 13  4  5 12 42 30.9940033  0  9G02G03G05G07G08G09G10G26G28
  23391132.035 6 122921091.25426        38.00026     -1045.63126
  23416837.627 5 123056329.21035        32.00025      1175.72225
  19117857.362 7 100465001.79827        47.00027      1471.57827
  20698631.565 7 108772012.41627        43.00027      -722.21627
  19082882.238 7 100281200.62927        43.00027       777.71327
  19627513.313 7 103143342.68527        44.00027      4694.59027
  21224466.442 7 111535273.10227        44.00027     -1462.11027
  18888338.562 7  99258919.86627        44.00027      3959.82227
  20075024.596 7 105495045.72927        45.00027      3950.43127
 13  4  5 12 42 45.9940033  0  9G02G03G05G07G08G09G10G26G28
  23394115.762 6 122936784.96026        37.00026     -1043.60726
  23413489.469 5 123038740.06115        31.00025      1168.75025
  19113670.860 8 100443001.36628        48.00028      1462.04328
  20700695.610 7 108782863.31527        42.00027      -726.14827
  19080670.473 7 100269575.54227        43.00027       771.66327
  19614121.054 7 103072968.08227        44.00027      4688.23127
  21228646.570 7 111557240.54327        44.00027     -1466.56527
  18877047.064 7  99199577.17927        45.00027      3953.10827
  20063758.716 7 105435838.05427        45.00027      3943.48427
 13  4  5 12 43  0.9940033  0  9G02G03G05G07G08G09G10G26G28
  23397102.837 6 122952468.42526        36.00026     -1044.64826
  23410171.306 5 123021299.82615        31.00025      1159.52025
  19109513.132 7 100421154.24927        47.00027      1452.32927
  20702771.138 7 108793766.96227        42.00027      -727.60727
  19078477.222 7 100258049.81727        43.00027       766.06827
  19600748.182 7 103002688.03727        45.00027      4682.60727
  21232836.907 7 111579268.47227        43.00027     -1469.33927
  18865771.622 7  99140328.43427        45.00027      3947.45127
  20052514.700 7 105376750.66127        45.00027      3935.85427
 13  4  5 12 43 15.9940033  0  9G02G03G05G07G08G09G10G26G28
  23400084.609 6 122968139.16026        37.00026     -1043.16826
  23406882.005 5 123004006.40835        32.00025      1147.16125
  19105383.988 7 100399457.74527        47.00027      1441.35127
  20704856.542 7 108804720.98327        43.00027      -731.60727
  19076303.027 7 100246621.04527        44.00027       758.70727
  19587393.720 7 102932500.40627        46.00027      4676.40127
  21237040.890 7 111601354.41627        44.00027     -1473.91527
  18854514.763 7  99081171.48627        45.00027      3941.26727
  20041292.078 7 105317781.53427        44.00027      3927.64127
 13  4  5 12 43 30.9940033  0  9G02G03G05G07G08G09G10G26G28
  23403063.623 6 122983791.71826        38.00026     -1041.59526
  23403615.758 5 122986854.67715        30.00025      1138.42425
  19101283.008 7 100377906.86627        47.00027      1432.15227
  20706948.124 7 108815720.15727        42.00027      -736.13427
  19074145.079 7 100235284.02727        44.00027       753.01227
  19574054.422 7 102862400.32127        46.00027      4670.47727
  21241253.267 7 111623492.97627        43.00027     -1477.21427
  18843272.667 7  99022101.52727        45.00027      3934.91727
  20030092.281 7 105258925.74927        45.00027      3920.94227
 13  4  5 12 43 45.9940033  0  9G02G03G05G07G08G09G10G26G28
  23406039.130 6 122999426.74226        39.00026     -1041.34026
  23400369.123 4                        29.00024      1126.88724
  19097210.176 8 100356502.47328        48.00028      1422.30628
  20709051.660 7 108826765.12327        43.00027      -737.84727
  19072005.662 7 100224039.44627        45.00027       746.86427
  19560732.540 8 102792388.74028        48.00028      4664.86228
  21245475.084 7 111645684.83627        44.00027     -1480.94827
  18832050.343 7  98963119.59927        46.00027      3929.18627
  20018913.529 7 105200184.51627        45.00027      3912.54927
 13  4  5 12 44  0.9940033  0  9G02G03G05G07G08G09G10G26G28
  23409009.418 6 123015041.01626        38.00026     -1041.89426
  23397167.825 5                        31.00025      1119.35925
  19093163.624 7 100335241.69527        47.00027      1411.28127
  20711161.058 7 108837852.85027        42.00027      -742.11927
  19069882.299 7 100212884.19527        44.00027       739.13227
  19547426.484 8 102722463.04028        48.00028      4657.37728
  21249708.016 7 111667926.74527        43.00027     -1486.28927
  18820841.367 7  98904222.99627        44.00027      3921.88827
  20007757.061 7 105141555.25327        44.00027      3903.85627
 13  4  5 12 44 15.9940033  0  9G02G03G05G07G08G09G10G26G28
  23411977.806 6 123030641.71226        38.00026     -1039.67226
  23393979.440 5                        30.00025      1111.15525
  19089147.051 8 100314131.95328        48.00028      1402.98728
  20713280.212 6 108848990.36826        41.00026      -742.87126
  19067778.377 7 100201825.38627        45.00027       734.29127
  19534137.845 8 102652630.73628        48.00028      4653.02428
  21253952.414 7 111690225.83727        43.00027     -1487.55127
  18809651.867 7  98845419.21027        45.00027      3917.40127
  19996621.952 7 105083045.40827        44.00027      3897.30227
 13  4  5 12 44 30.9940033  0  9G02G03G05G07G08G09G10G26G28
  23414944.710 6 123046223.51426        38.00026     -1039.03026
  23390823.913 5                        30.00025      1098.74625
  19085156.968 8 100293168.37628        48.00028      1392.44128
  20715407.758 7 108860172.68127        42.00027      -747.35327
  19065691.695 7 100190858.22027        46.00027       728.23627
  19520866.516 8 102582887.08428        49.00028      4646.82128
  21258204.612 7 111712577.07227        44.00027     -1491.46927
  18798477.949 7  98786703.64127        46.00027      3911.20627
  19985508.568 7 105024650.47927        44.00027      3889.06627
 13  4  5 12 44 45.9940033  0  9G02G03G05G07G08G09G10G26G28
  23417906.710 6 123061792.11726        36.00026     -1038.93126
  23387701.489 5                        31.00025      1088.63325
  19081197.387 8 100272356.88228        48.00028      1381.55928
  20717544.955 6 108871405.58326        40.00026      -750.77126
  19063623.370 7 100179988.52027        45.00027       720.64927
  19507611.223 8 102513238.23828        48.00028      4639.83428
  21262469.234 7 111734986.08427        43.00027     -1496.40927
  18787322.650 7  98728082.43127        45.00027      3903.81227
  19974418.795 7 104966376.69127        44.00027      3880.43127
 13  4  5 12 45  0.9940033  0  9G02G03G05G07G08G09G10G26G28
  23420863.825 5 123077340.73125        35.00025     -1035.24625
  23384605.085 5                        30.00025      1081.30725
  19077264.681 8 100251690.93728        48.00028      1373.23928
  20719690.388 6 108882682.47526        39.00026      -753.45726
  19061572.479 7 100169209.41727        45.00027       715.19227
  19494373.887 7 102443677.74227        47.00027      4634.79727
  21266742.914 7 111757446.09427        43.00027     -1498.83827
  18776183.861 7  98669549.29127        44.00027      3899.72827
  19963352.737 7 104908217.73727        44.00027      3874.02527
 13  4  5 12 45 15.9940033  0  9G02G03G05G07G08G09G10G26G28
  23423817.693 5 123092866.26425        34.00025     -1034.66125
  23381528.591 5                        31.00025      1073.02725
  19073360.487 8 100231167.69328        48.00028      1362.98828
  20721844.651 6 108894000.32826        38.00026      -757.13526
  19059537.345 7 100158518.09727        44.00027       709.73527
  19481153.931 7 102374203.05527        46.00027      4628.21227
  21271027.289 7 111779954.11027        43.00027     -1502.92327
  18765062.137 7  98611101.60227        44.00027      3893.33527
  19952307.182 7 104850171.13327        44.00027      3865.96027
 13  4  5 12 45 30.9940033  0  9G02G03G05G07G08G09G10G26G28
  23426769.066 5 123108373.33325        35.00025     -1033.59525
  23378479.580 5                        31.00025      1062.39225
  19069482.225 8 100210792.08628        49.00028      1352.47028
  20724006.679 6 108905363.97826        38.00026      -761.21126
  19057520.481 7 100147919.37827        45.00027       702.87027
  19467947.674 7 102304819.26327        45.00027      4621.61327
  21275321.472 7 111802514.89627        44.00027     -1507.18827
  18753956.571 7  98552744.53827        44.00027      3887.15327
  19941284.749 7 104792242.12327        44.00027      3857.81827
 13  4  5 12 45 45.9940033  0  9G02G03G05G07G08G09G10G26G28
  23429717.927 6 123123874.29326        36.00026     -1031.86526
  23375457.914 5                        31.00025      1051.48425
  19065634.553 7 100190576.76927        47.00027      1342.82027
  20726179.038 6 108916785.77526        37.00026      -764.02626
  19055524.052 7 100137425.65027        44.00027       696.12727
  19454765.236 7 102235539.25027        44.00027      4616.06627
  21279626.772 7 111825140.73727        43.00027     -1509.60427
  18742871.999 7  98494490.95027        44.00027      3881.03927
  19930285.158 7 104734443.60227        44.00027      3849.43227
 13  4  5 12 46  0.9940033  0  9G02G03G05G07G08G09G10G26G28
  23432665.688 6 123139360.15526        37.00026     -1031.11926
  23372476.435 5 122823192.07535        33.00025      1040.00925
  19061816.389 8 100170512.95528        48.00028      1332.85128
  20728364.450 6 108928256.81726        38.00026      -767.26026
  19053545.072 7 100127027.98427        44.00027       689.31427
  19441600.248 7 102166354.31227        44.00027      4608.44927
  21283944.495 7 111847822.55427        45.00027     -1514.39027
  18731804.230 7  98436332.24427        45.00027      3874.16327
  19919309.544 7 104676766.93327        44.00027      3841.07327
 13  4  5 12 46 15.9940033  0  9G02G03G05G07G08G09G10G26G28
  23435610.849 6 123154830.16326        38.00026     -1029.78726
  23369515.533 5 122807629.43615        32.00025      1035.84325
  19058026.303 8 100150600.09428        48.00028      1322.87828
  20730556.947 6 108939776.41626        38.00026      -768.02426
  19051585.079 7 100116725.80627        45.00027       684.26027
  19428451.647 7 102097264.06427        45.00027      4603.66727
  21288271.694 7 111870559.67027        46.00027     -1516.71327
  18720755.344 7  98378268.06827        45.00027      3868.02927
  19908356.964 7 104619211.86827        44.00027      3833.72427
 13  4  5 12 46 30.9940033  0  9G02G03G05G07G08G09G10G26G28
  23438550.477 6 123170278.80426        36.00026     -1030.37126
  23366578.988 5 122792208.04415        32.00025      1024.65825
  19054266.719 8 100130833.10628        49.00028      1312.43128
  20732757.593 6 108951339.28926        39.00026      -772.10826
  19049641.995 7 100106513.79527        45.00027       676.82127
  19415320.425 7 102028263.72527        45.00027      4597.03327
  21292609.572 7 111893346.71027        46.00027     -1521.14227
  18709722.860 7  98320293.56427        44.00027      3861.28227
  19897426.598 7 104561773.53727        44.00027      3825.44827
 13  4  5 12 46 45.9940033  0  9G02G03G05G07G08G09G10G26G28
  23441485.814 5 123185706.48625        33.00025     -1028.32925
  23363672.284 5 122776928.54825        32.00025      1014.07225
  19050532.090 8 100111213.00228        48.00028      1303.64628
  20734965.446 6 108962946.06426        39.00026      -774.52226
  19047716.972 7 100096392.71827        45.00027       672.39127
  19402208.155 7 101959354.20827        45.00027      4590.66327
  21296953.297 7 111916184.19027        45.00027     -1523.66327
  18698708.298 7  98262409.74027        44.00027      3856.77727
  19886517.731 7 104504453.14727        44.00027      3817.30227
 13  4  5 12 47  0.9940033  0  9G02G03G05G07G08G09G10G26G28
  23444419.982 5 123201118.45225        33.00025     -1024.97525
  23360793.692 5 122761796.05125        34.00025      1003.79825
  19046828.888 8 100091744.95728        49.00028      1292.45028
  20737186.194 6 108974601.86426        40.00026      -778.98826
  19045808.439 7 100086367.69627        45.00027       664.80327
  19389113.980 7 101890541.07227        46.00027      4583.99727
  21301310.143 7 111939077.15027        46.00027     -1528.23027
  18687713.140 7  98204622.10927        46.00027      3849.28227
  19875632.579 7 104447256.20727        43.00027      3808.92127
 13  4  5 12 47 15.9940033  0  9G02G03G05G07G08G09G10G26G28
  23447350.258 5 123216511.57925        32.00025     -1024.27225
  23357931.155 4                        27.00024       994.41824
  19043151.600 8 100072425.71628        48.00028      1284.80028
  20739411.044 6 108986303.78626        40.00026      -779.13726
  19043918.126 7 100076435.80527        45.00027       660.99827
  19376038.129 7 101821821.57427        47.00027      4579.86127
  21305675.559 7 111962022.47427        46.00027     -1529.35327
  18676733.688 7  98146928.09427        45.00027      3845.27527
  19864771.648 7 104390179.97827        44.00027      3803.08227
 13  4  5 12 47 30.9940033  0  9G02G03G05G07G08G09G10G26G28
  23450272.926 5 123231861.98925        33.00025     -1023.23525
  23355101.931 3                        23.00023       986.83323
  19039498.725 7 100053231.87527        47.00027      1275.21727
  20741641.652 6 108998028.09426        40.00026      -782.16626
  19042041.824 7 100066573.19427        45.00027       655.46127
  19362974.632 8 101753172.41328        48.00028      4574.06428
  21310048.425 7 111984996.38127        46.00027     -1532.87827
  18665769.155 7  98089304.26127        46.00027      3839.08627
  19853929.476 7 104333201.33627        45.00027      3795.80027
 13  4  5 12 47 45.9940033  0  9G02G03G05G07G08G09G10G26G28
  23453188.614 5 123247191.67015        31.00025     -1020.56325
  23352300.955 3                        19.00023       969.95823
  19035874.590 7 100034185.90227        47.00027      1264.66427
  20743881.683 6 109009797.02726        39.00026      -785.24026
  19040182.640 7 100056802.11027        44.00027       649.20527
  19349928.847 8 101684616.10228        48.00028      4567.82228
  21314429.772 7 112008021.13127        45.00027     -1536.88627
  18654821.113 7  98031773.25127        45.00027      3832.75827
  19843110.809 7 104276342.82227        43.00027      3787.51527
 13  4  5 12 48  0.9940033  0  8G02G05G07G08G09G10G26G28
  23456094.809 4                        29.00024     -1018.41324
  19032276.491 7 100015290.65627        46.00027      1254.26227
  20746131.346 6 109021613.41426        41.00026      -788.77026
  19038340.540 7 100047125.57927        44.00027       641.44927
  19336901.681 8 101616155.80828        48.00028      4560.11328
  21318821.170 7 112031099.34027        45.00027     -1540.77527
  18643891.620 7  97974338.28127        46.00027      3825.64627
  19832314.460 7 104219607.61327        44.00027      3777.56627
 13  4  5 12 48 15.9940033  0  8G02G05G07G08G09G10G26G28
  23459005.715 5                        30.00025     -1018.18925
  19028709.698 7  99996542.94827        45.00027      1244.86527
  20748386.978 6 109033473.79726        40.00026      -791.68626
  19036516.519 7 100037540.19027        43.00027       636.87627
  19323892.594 8 101547788.43028        48.00028      4554.73728
  21323221.888 7 112054227.61527        44.00027     -1542.70527
  18632980.416 7  97916996.34227        45.00027      3820.07827
  19821541.304 7 104162992.71527        44.00027      3770.82027
 13  4  5 12 48 30.9940033  0  9G02G05G07G08G09G10G15G26G28
  23461910.200 4                        29.00024     -1014.34624
  19025168.853 7  99977936.44227        45.00027      1235.78027
  20750650.793 6 109045371.57126        40.00026      -795.46126
  19034708.936 7 100028039.33327        44.00027       630.13927
  19310898.845 8 101479507.67328        48.00028      4548.75628
  21327632.202 7 112077399.20227        45.00027     -1546.18427
  21983677.960 7 115525007.15737        42.00027      5117.96027
  18622084.864 7  97859741.20527        45.00027      3814.18927
  19810790.309 7 104106492.20427        45.00027      3762.39027
 13  4  5 12 48 45.9940033  0  9G02G05G07G08G09G10G15G26G28
  23464812.311 5                        30.00025     -1014.72025
  19021655.283 7  99959471.04627        46.00027      1226.57027
  20752923.195 7 109057306.62627        42.00027      -796.57527
  19032917.965 7 100018622.75527        45.00027       623.96727
  19297921.604 8 101411313.77728        48.00028      4543.01828
  21332050.195 7 112100613.80527        46.00027     -1548.92127
  21969072.232 7 115448243.37327        43.00027      5116.79727
  18611205.890 7  97802573.05127        46.00027      3808.41527
  19800060.935 7 104050106.17527        45.00027      3754.68227
 13  4  5 12 49  0.9940033  0  9G02G05G07G08G09G10G15G26G28
  23467706.674 5 123323630.36215        34.00025     -1013.83625
  19018168.412 7  99941151.40227        45.00027      1216.13827
  20755202.297 7 109069283.60027        42.00027      -799.67827
  19031142.753 7 100009294.97927        44.00027       618.79827
  19284961.430 7 101343211.61927        47.00027      4536.74427
  21336476.162 7 112123875.86327        44.00027     -1552.64127
  21954468.598 7 115371499.53027        43.00027      5115.65727
  18600344.663 7  97745496.69527        46.00027      3802.25527
  19789352.972 7 103993839.57427        44.00027      3746.76927
 13  4  5 12 49 15.9940033  0  9G02G05G07G08G09G10G15G26G28
  23470598.507 5 123338813.90525        34.00025     -1012.73425
  19014709.338 7  99922975.30827        45.00027      1205.34827
  20757487.820 7 109081300.25727        42.00027      -802.88427
  19029385.409 7 100000053.73927        45.00027       612.33027
  19272019.561 7 101275199.24327        47.00027      4529.88027
  21340911.430 7 112147183.13527        45.00027     -1556.47527
  21939867.390 7 115294773.82027        43.00027      5113.45927
  18589500.030 7  97688510.30327        47.00027      3795.21327
  19778669.475 7 103937690.53327        46.00027      3738.04627
 13  4  5 12 49 30.9940033  0  9G02G05G07G08G09G10G15G26G28
  23473483.117 4                        28.00024     -1009.61324
  19011280.158 7  99904950.45927        45.00027      1197.67627
  20759783.395 6 109093363.71926        41.00026      -805.25226
  19027644.992 7  99990906.67827        45.00027       607.37627
  19259095.579 7 101207284.47627        46.00027      4524.79327
  21345357.204 7 112170542.95627        45.00027     -1558.59627
  21925273.301 7 115218074.18727        44.00027      5112.85827
  18578675.117 7  97631621.77927        46.00027      3789.89727
  19768007.476 7 103881666.95327        45.00027      3730.62527
 13  4  5 12 49 45.9940033  0  9G02G05G07G08G09G10G15G26G28
  23476357.587 4                        24.00024     -1007.93924
  19007877.606 7  99887068.14127        45.00027      1187.15027
  20762086.701 7 109105465.23327        42.00027      -807.73627
  19025920.542 7  99981844.94727        45.00027       602.54627
  19246188.854 7 101139458.73027        47.00027      4519.15927
  21349809.835 7 112193946.34427        45.00027     -1561.97527
  21910680.015 7 115141391.88427        43.00027      5112.31327
  18567866.538 7  97574822.61327        46.00027      3784.01927
  19757366.610 7 103825760.38227        44.00027      3723.27427
 13  4  5 12 50  0.9940033  0  9G02G05G07G08G09G10G15G26G28
  23479232.738 5                        30.00025     -1005.19225
  19004501.283 7  99869325.80727        45.00027      1180.06227
  20764396.289 6 109117602.19926        41.00026      -809.30026
  19024211.727 7  99972865.80427        45.00027       597.15127
  19233296.754 7 101071719.68727        46.00027      4513.98527
  21354272.012 7 112217390.59927        45.00027     -1563.11727
  21896090.865 7 115064724.62427        44.00027      5111.17127
  18557074.292 7  97518110.47927        46.00027      3779.40727
  19746750.296 7 103769968.58527        45.00027      3716.57027
 13  4  5 12 50 15.9940033  0  9G02G05G07G08G09G10G15G26G28
  23482107.016 3                        23.00023     -1005.50923
  19001150.453 7  99851718.93227        46.00027      1169.61827
  20766711.233 6 109129769.94126        41.00026      -813.87426
  19022516.646 7  99963964.74827        45.00027       590.78327
  19220422.696 7 101004063.03927        47.00027      4507.28127
  21358740.209 7 112240871.04427        45.00027     -1566.34627
  21881504.960 7 114988068.11627        44.00027      5109.11027
  18546298.797 7  97461481.11527        46.00027      3772.08627
  19736155.847 7 103714287.16127        46.00027      3708.20127
 13  4  5 12 50 30.9940033  0  9G02G05G07G08G09G10G15G26G28
  23484968.959 2                        12.00022      -996.62722
  18997826.985 7  99834257.61127        43.00027      1158.60927
  20769032.984 6 109141978.69326        39.00026      -815.42826
  19020838.822 7  99955151.73927        43.00027       584.51327
  19207564.169 7 100936499.12627        44.00027      4500.63327
  21363216.869 7 112264397.63327        44.00027     -1569.95427
  21866920.103 6 114911432.79426        41.00026      5107.95726
  18535539.845 7  97404944.95427        44.00027      3765.94027
  19725584.135 7 103658726.66227        44.00027      3699.74627
 13  4  5 12 50 45.9940033  0  8G05G07G08G09G10G15G26G28
  18994530.339 7  99816936.98627        44.00027      1149.72427
  20771364.559 6 109154223.15126        40.00026      -817.48226
  19019177.368 7  99946421.65427        44.00027       579.58227
  19194724.838 7 100869023.12127        46.00027      4495.20027
  21367701.487 7 112287965.01227        45.00027     -1572.67227
  21852338.875 7 114834813.90427        42.00027      5107.96827
  18524798.065 7  97348497.18127        46.00027      3759.73527
  19715032.945 7 103603282.32527        46.00027      3692.53127
 13  4  5 12 51  0.9940033  0  9G02G05G07G08G09G10G15G26G28
  23490672.491 4                        25.00024     -1003.30424
  18991261.822 7  99799761.72327        44.00027      1140.71727
  20773699.869 6 109166508.07926        37.00026      -819.84626
  19017532.560 7  99937779.12027        43.00027       573.88827
  19181902.119 7 100801640.00527        46.00027      4490.08627
  21372193.817 7 112311577.78527        44.00027     -1575.48727
  21837763.789 7 114758216.27627        43.00027      5105.48827
  18514073.229 7  97292142.82527        44.00027      3754.63027
  19704506.290 7 103547959.23527        46.00027      3684.18527
 13  4  5 12 51 15.9940033  0  8G05G07G08G09G10G15G26G28
  18988019.987 7  99782725.02427        44.00027      1130.51227
  20776044.950 6 109178826.50426        39.00026      -822.42626
  19015903.510 7  99929217.36727        43.00027       567.73227
  19169096.554 7 100734343.30527        47.00027      4483.79227
  21376693.843 7 112335228.96427        43.00027     -1578.30527
  21823190.903 7 114681633.57027        42.00027      5105.54127
  18503365.999 7  97235875.44227        45.00027      3747.96427
  19693999.738 7 103492750.90627        46.00027      3676.69227
 13  4  5 12 51 30.9940033  0  8G05G07G08G09G10G15G26G28
  18984805.933 7  99765826.00927        44.00027      1121.83927
  20778396.157 6 109191177.61626        38.00026      -824.42926
  19014287.810 7  99920735.45227        42.00027       562.69727
  19156306.327 7 100667132.33827        46.00027      4477.56027
  21381202.857 7 112358917.46827        43.00027     -1580.68827
  21808620.355 6 114605065.03726        41.00026      5104.17926
  18492673.534 7  97179694.31027        43.00027      3742.68227
  19683514.702 7 103437656.81127        45.00027      3669.57127
 13  4  5 12 51 45.9940033  0  8G05G07G08G09G10G15G26G28
  18981617.826 7  99749070.10227        46.00027      1111.01927
  20780753.820 6 109203566.38326        38.00026      -827.09526
  19012690.991 7  99912338.47827        43.00027       555.94427
  19143533.341 7 100600012.54127        47.00027      4470.71027
  21385717.384 7 112382648.43027        43.00027     -1583.94427
  21794053.977 7 114528516.09827        43.00027      5102.53927
  18481999.442 7  97123605.02527        43.00027      3735.64927
  19673052.840 7 103382682.45327        46.00027      3660.05127
 13  4  5 12 52  0.9940033  0  8G05G07G08G09G10G15G26G28
  18978458.356 7  99732464.98827        45.00027      1102.10827
  20783119.126 6 109216000.52926        39.00026      -830.62926
  19011110.435 7  99904034.02927        43.00027       550.02827
  19130780.946 7 100532991.91227        47.00027      4465.15127
  21390242.207 7 112406429.28327        42.00027     -1586.74027
  21779491.822 6 114451994.92726        41.00026      5100.44426
  18471343.447 7  97067615.55827        43.00027      3729.54127
  19662615.355 7 103327835.87427        45.00027      3651.97427
 13  4  5 12 52 15.9940033  0  8G05G07G08G09G10G15G26G28
  18975327.661 7  99716007.14227        46.00027      1092.08127
  20785495.129 6 109228476.47826        40.00026      -832.30026
  19009546.911 7  99895818.61227        44.00027       545.32227
  19118045.339 7 100466067.18527        47.00027      4458.68827
  21394775.790 7 112430256.50527        42.00027     -1589.72427
  21764935.042 7 114375498.07627        42.00027      5099.78927
  18460707.467 7  97011722.78027        43.00027      3722.78927
  19652202.284 7 103273113.94527        45.00027      3644.01827
 13  4  5 12 52 30.9940033  0  8G05G07G08G09G10G15G26G28
  18972224.049 8  99699698.25528        48.00028      1083.64428
  20787877.048 6 109240995.76226        40.00026      -835.46226
  19008002.303 7  99887693.82627        45.00027       540.01227
  19105328.054 7 100399240.27627        47.00027      4453.10327
  21399317.889 6 112454131.43626        41.00026     -1591.03426
  21750383.392 7 114299027.56627        43.00027      5097.82327
  18450089.583 7  96955928.57127        43.00027      3717.18827
  19641815.004 7 103218518.56627        46.00027      3636.86227
 13  4  5 12 52 45.9940033  0  9G05G07G08G09G10G15G19G26G28
  18969146.769 8  99683527.26528        48.00028      1073.61428
  20790265.755 6 109253547.12726        41.00026      -838.07426
  19006471.306 7  99879648.17327        45.00027       533.49827
  19092627.521 7 100332500.05927        47.00027      4446.69227
  21403866.217 6 112478042.62326        40.00026     -1595.61426
  21735833.766 7 114222572.39127        42.00027      5096.75427
  23401090.690 6 122973560.71736        36.00026      2642.18626
  18439489.568 7  96900221.90627        44.00027      3710.70027
  19631447.582 7 103164038.59527        46.00027      3627.65027
 13  4  5 12 53  0.9940033  0  9G05G07G08G09G10G15G19G26G28
  18966098.754 8  99667502.75628        49.00028      1063.95028
  20792662.018 6 109266139.14426        41.00026      -840.59826
  19004957.829 7  99871690.46227        46.00027       528.23127
  19079945.469 7 100265855.65027        47.00027      4440.93027
  21408426.847 6 112501998.65926        41.00026     -1598.55926
  21721288.293 7 114146141.50927        43.00027      5094.76327
  23393564.949 5 122934010.83715        34.00025      2633.06925
  18428907.963 7  96844611.85427        45.00027      3704.50127
  19621102.776 7 103109683.19027        44.00027      3619.57927
 13  4  5 12 53 15.9940033  0  9G05G07G08G09G10G15G19G26G28
  18963073.703 8  99651610.87328        48.00028      1055.48528
  20795063.865 6 109278757.91026        41.00026      -842.26526
  19003456.881 7  99863806.90627        45.00027       523.00127
  19067278.807 7 100199293.50927        46.00027      4435.12627
  21412987.148 6 112525985.65926        39.00026     -1598.74026
  21706748.004 7 114069721.53827        42.00027      5093.56127
  23386061.980 5 122894581.40815        33.00025      2625.34125
  18418342.378 7  96789084.94627        44.00027      3699.02127
  19610779.311 7 103055439.07327        44.00027      3612.75327
 13  4  5 12 53 30.9940033  0  9G05G07G08G09G10G15G19G26G28
  18960075.787 8  99635854.78928        49.00028      1046.24328
  20797470.755 6 109291406.55426        41.00026      -844.39626
  19001971.988 7  99856000.54527        46.00027       517.96827
  19054627.257 7 100132816.91927        45.00027      4428.97527
  21417559.156 6 112550006.66226        40.00026     -1602.12926
  21692208.482 7 113993315.66427        43.00027      5093.30627
  23378582.412 5 122855275.63625        34.00025      2615.06525
  18407793.230 7  96733644.55927        46.00027      3693.39527
  19600478.131 7 103001309.48127        44.00027      3604.88727
 13  4  5 12 53 45.9940033  0  9G05G07G08G09G10G15G19G26G28
  18957104.884 8  99620238.74528        50.00028      1036.54928
  20799883.962 6 109304088.98726        41.00026      -847.09126
  19000501.247 7  99848275.37227        46.00027       512.30427
  19041994.135 7 100066430.13427        45.00027      4422.29927
  21422137.987 6 112574065.58526        40.00026     -1605.67226
  21677672.276 7 113916928.29327        43.00027      5092.29927
  23371127.414 5 122816096.89525        35.00025      2607.67825
  18397261.585 7  96678295.05027        46.00027      3687.24427
  19590199.670 7 102947298.86027        43.00027      3596.98627
 13  4  5 12 54  0.9940033  0  9G05G07G08G09G10G15G19G26G28
  18954159.179 8  99604760.04928        50.00028      1027.74028
  20802303.784 7 109316802.47527        42.00027      -847.42127
  18999045.705 7  99840628.54627        46.00027       508.21427
  19029378.481 7 100000130.72227        46.00027      4417.30627
  21426724.253 6 112598159.44326        41.00026     -1605.98126
  21663138.844 7 113840557.01127        43.00027      5090.62927
  23363695.922 6 122777043.25626        36.00026      2599.46226
  18386746.012 7  96623033.93427        47.00027      3681.33727
  19579945.239 7 102893404.70427        44.00027      3589.71827
 13  4  5 12 54 15.9940033  0  9G05G07G08G09G10G15G19G26G28
  18951240.923 8  99589422.61628        50.00028      1018.27628
  20804730.201 7 109329550.91527        43.00027      -850.08227
  18997606.077 7  99833063.87827        46.00027       501.90427
  19016780.625 7  99933923.06027        46.00027      4411.53727
  21431317.463 7 112622292.00227        42.00027     -1609.98127
  21648610.665 7 113764206.04027        44.00027      5090.40927
  23356289.017 5 122738119.02125        35.00025      2591.73825
  18376248.255 7  96567865.50327        47.00027      3675.12627
  19569713.493 7 102839631.29727        44.00027      3581.26227
 13  4  5 12 54 30.9940033  0  9G05G07G08G09G10G15G19G26G28
  18948348.772 8  99574226.87628        50.00028      1008.48328
  20807163.126 7 109342334.62027        43.00027      -853.46227
  18996182.696 7  99825581.67127        46.00027       496.21027
  19004199.906 7  99867807.59127        46.00027      4404.52527
  21435916.990 7 112646463.30827        42.00027     -1612.42227
  21634084.876 7 113687876.00527        44.00027      5088.11027
  23348906.716 5 122699324.21315        35.00025      2582.52325
  18365767.949 7  96512790.35727        46.00027      3669.36127
  19559505.007 7 102785979.31927        45.00027      3572.97327
 13  4  5 12 54 45.9940033  0  9G05G07G08G09G10G15G19G26G28
  18945484.594 8  99559174.87328        49.00028       997.94628
  20809602.771 7 109355155.48527        43.00027      -855.77327
  18994773.518 7  99818183.93027        46.00027       489.56127
  18991637.072 7  99801786.48827        47.00027      4397.80827
  21440526.900 7 112670675.31627        43.00027     -1616.06027
  21619563.746 7 113611569.12827        43.00027      5085.04227
  23341549.858 5 122660662.59625        34.00025      2574.71225
  18355306.226 7  96457810.76627        47.00027      3661.89427
  19549318.980 7 102732451.08727        45.00027      3563.46427
 13  4  5 12 55  0.9940033  0  9G05G07G08G09G10G15G19G26G28
  18942647.988 8  99544272.71128        49.00028       987.85628
  20812051.018 7 109368019.65727        43.00027      -859.15227
  18993383.885 7  99810876.71427        46.00027       483.87727
  18979092.963 8  99735866.24328        48.00028      4390.53028
  21445143.180 7 112694933.98527        43.00027     -1618.96627
  21605050.591 7 113535291.98627        45.00027      5082.72827
  23334218.965 5 122622139.07125        34.00025      2562.41525
  18344863.437 8  96402933.26328        48.00028      3654.30628
  19539158.274 7 102679053.10727        46.00027      3555.12427
 13  4  5 12 55 15.9940033  0  9G05G07G08G09G10G15G19G26G28
  18939837.435 7  99529507.55327        47.00027       979.06427
  20814505.303 7 109380914.11927        42.00027      -860.85527
  18992008.475 7  99803647.23427        45.00027       479.11527
  18966565.083 7  99670034.27227        47.00027      4385.30827
  21449767.644 7 112719226.24527        43.00027     -1620.95927
  21590537.838 7 113459031.92527        43.00027      5083.12827
  23326912.573 5 122583741.73335        34.00025      2554.26525
  18334438.152 7  96348145.28227        46.00027      3649.20027
  19529019.083 7 102625772.77127        45.00027      3547.27427
 13  4  5 12 55 30.9940033  0  9G05G07G08G09G10G15G19G26G28
  18937052.744 7  99514875.24827        47.00027       970.77027
  20816962.624 7 109393834.45527        42.00027      -863.17727
  18990646.570 7  99796491.00427        45.00027       473.78827
  18954054.270 8  99604286.40828        48.00028      4380.02028
  21454395.109 7 112743547.74427        43.00027     -1622.81227
  21576029.081 7 113382784.70527        43.00027      5081.92727
  23319628.257 5 122545466.35225        33.00025      2549.59125
  18324028.379 7  96293442.78727        46.00027      3643.57027
  19518901.200 7 102572606.07327        45.00027      3540.74027
 13  4  5 12 55 45.9940033  0  9G05G07G08G09G10G15G19G26G28
  18934294.192 7  99500380.08627        47.00027       962.20827
  20819426.961 7 109406785.27427        42.00027      -863.80327
  18989298.627 7  99789412.45427        44.00027       469.72227
  18941560.802 8  99538627.37828        49.00028      4374.60228
  21459031.125 7 112767902.72227        44.00027     -1624.04227
  21561521.180 7 113306555.29327        42.00027      5081.70827
  23312369.869 5 122507317.67525        34.00025      2537.50925
  18313636.528 7  96238830.52527        47.00027      3638.14627
  19508805.688 7 102519557.81827        45.00027      3532.74827
 13  4  5 12 56  0.9940033  0  9G05G07G08G09G10G15G19G26G28
  18931561.729 7  99486024.56327        47.00027       952.64527
  20821897.108 7 109419768.69827        42.00027      -866.85627
  18987966.684 7  99782413.88127        44.00027       463.83127
  18929084.784 8  99473059.72828        50.00028      4368.66528
  21463672.359 7 112792293.33527        44.00027     -1626.98727
  21547020.135 7 113230346.26727        43.00027      5080.60527
  23305133.157 5 122469298.35325        33.00025      2531.25025
  18303261.586 7  96184311.12927        47.00027      3631.72827
  19498734.135 7 102466630.67127        45.00027      3524.41227
 13  4  5 12 56 15.9940033  0  9G05G07G08G09G10G15G19G26G28
  18928857.482 7  99471809.85727        47.00027       942.52027
  20824374.271 6 109432785.98226        41.00026      -868.22126
  18986649.278 7  99775496.55227        44.00027       458.35427
  18916623.633 8  99407585.02228        49.00028      4361.42228
  21468321.951 7 112816720.70627        45.00027     -1630.18327
  21532521.237 7 113154159.21527        43.00027      5078.52927
  23297924.764 5 122431409.98835        34.00025      2520.15725
  18292904.042 7  96129886.19827        47.00027      3624.81427
  19488686.680 7 102413826.30627        45.00027      3515.11927
 13  4  5 12 56 30.9940033  0 10G05G07G08G09G10G15G19G21G26G28
  18926177.667 7  99457726.91227        46.00027       934.60627
  20826855.725 6 109445827.96026        39.00026      -871.30526
  18985346.234 7  99768651.16327        42.00027       454.38127
  18904181.277 8  99342194.29728        49.00028      4357.07928
  21472974.527 7 112841175.50827        43.00027     -1630.92727
  21518023.492 6 113077985.13026        41.00026      5078.11626
  23290738.291 5 122393643.61725        34.00025      2514.66125
  23682584.281 5 124452820.19635        35.00025      3034.88625
  18282563.844 7  96075546.82327        46.00027      3619.94727
  19478658.840 7 102361135.72427        43.00027      3509.94827
 13  4  5 12 56 45.9940033  0 10G05G07G08G09G10G15G19G21G26G28
  18923522.944 7  99443774.37927        47.00027       925.75527
  20829343.794 6 109458893.23926        39.00026      -872.23426
  18984057.045 7  99761876.33127        43.00027       449.16227
  18891753.771 8  99276886.60028        49.00028      4350.41728
  21477631.815 7 112865656.29927        43.00027     -1633.21027
  21503533.406 7 113001823.08627        43.00027      5076.72827
  23283574.990 5 122355998.30625        34.00025      2503.90825
  23673935.496 6 124407365.20226        37.00026      3027.03426
  18272239.193 7  96021292.05827        47.00027      3613.72227
  19468652.010 7 102308557.71127        44.00027      3501.62627
 13  4  5 12 57  0.9940033  0 10G05G07G08G09G10G15G19G21G26G28
  18920895.095 7  99429958.74727        46.00027       915.99727
  20831833.835 6 109471988.17526        38.00026      -873.92226
  18982783.508 7  99755178.45227        43.00027       443.80027
  18879343.453 8  99211668.64628        49.00028      4344.55828
  21482296.676 7 112890169.36427        43.00027     -1635.62127
  21489043.809 7 112925679.70527        42.00027      5074.65527
  23276433.016 5 122318480.21315        32.00025      2498.92125
  23665306.151 6 124362018.05826        37.00026      3018.82526
  18261932.830 7  95967128.53427        46.00027      3607.62827
  19458670.534 7 102256099.32527        44.00027      3491.77527
 13  4  5 12 57 15.9940033  0 10G05G07G08G09G10G15G19G21G26G28
  18918293.212 7  99416286.19727        47.00027       907.35127
  20834332.234 6 109485118.87726        37.00026      -876.28926
  18981525.677 7  99748563.58427        44.00027       438.18527
  18866949.747 8  99146546.89828        49.00028      4338.60428
  21486968.674 7 112914720.68527        43.00027     -1638.03927
  21474557.091 7 112849561.39227        43.00027      5073.52027
  23269319.901 5 122281097.18335        34.00025      2486.43625
  23656697.834 6 124316785.20826        36.00026      3012.63626
  18251644.040 8  95913062.74128        48.00028      3601.94728
  19448713.454 7 102203766.84527        44.00027      3485.08427
 13  4  5 12 57 30.9940033  0 10G05G07G08G09G10G15G19G21G26G28
  18915717.556 7  99402750.10627        47.00027       897.35527
  20836837.596 6 109498278.53726        37.00026      -879.06326
  18980281.893 7  99742025.09727        44.00027       432.87027
  18854574.888 7  99081514.80427        47.00027      4332.39827
  21491646.902 7 112939303.39827        43.00027     -1639.95227
  21460076.098 7 112773461.92927        42.00027      5072.13027
  23262230.311 5 122243841.38935        33.00025      2477.98625
  23648110.195 6 124271660.14726        36.00026      3005.07426
  18241373.555 7  95859088.38727        47.00027      3595.00727
  19438777.803 7 102151553.99727        44.00027      3476.57227
 13  4  5 12 57 45.9940033  0 10G05G07G08G09G10G15G19G21G26G28
  18913169.367 7  99389358.79927        47.00027       888.50827
  20839348.646 5 109511475.49525        35.00025      -881.88525
  18979053.239 7  99735571.08727        44.00027       427.51527
  18842217.933 7  99016580.80927        47.00027      4326.09927
  21496329.231 7 112963925.66227        43.00027     -1641.70127
  21445599.815 7 112697389.87727        43.00027      5070.89027
  23255165.780 5 122206721.42315        32.00025      2472.07425
  23639547.004 5 124226651.31325        35.00025      2997.15025
  18231121.218 8  95805213.98928        48.00028      3588.84128
  19428866.949 7 102099469.36927        45.00027      3468.27527
 13  4  5 12 58  0.9940033  0 10G05G07G08G09G10G15G19G21G26G28
  18910646.637 7  99376109.68127        47.00027       878.05927
  20841868.998 6 109524707.08426        36.00026      -882.99926
  18977839.906 7  99729199.01927        43.00027       421.78327
  18829877.433 7  98951742.66727        46.00027      4318.97827
  21501024.944 7 112988584.76127        43.00027     -1645.50027
  21431128.820 7 112621342.94827        42.00027      5068.68827
  23248127.317 5 122169736.36635        32.00025      2459.76825
  23631004.106 5 124181756.32225        35.00025      2987.18925
  18220888.146 8  95751437.24528        48.00028      3581.55428
  19418978.919 7 102047510.58027        45.00027      3459.21627
 13  4  5 12 58 15.9940033  0 10G05G07G08G09G10G15G19G21G26G28
  18908153.888 7  99363009.54927        47.00027       869.21327
  20844393.834 6 109537980.29026        36.00026      -885.68926
  18976644.616 7  99722915.72627        43.00027       416.86427
  18817557.699 7  98887007.55527        44.00027      4312.76127
  21505726.224 7 113013287.37627        44.00027     -1647.69827
  21416662.694 7 112545328.30427        43.00027      5067.65727
  23241115.990 5 122132891.81425        33.00025      2450.09825
  23622480.772 5 124136982.18125        33.00025      2981.87225
  18210674.793 8  95697765.35928        48.00028      3574.97428
  19409115.966 7 101995684.89727        45.00027      3451.49827
 13  4  5 12 58 30.9940033  0 10G05G07G08G09G10G15G19G21G26G28
  18905687.488 7  99350047.39227        47.00027       859.44227
  20846926.400 5 109551283.74225        35.00025      -890.01425
  18975462.728 7  99716710.02527        43.00027       409.46827
  18805255.712 7  98822364.58727        44.00027      4305.69527
  21510430.313 7 113038022.35427        43.00027     -1651.18527
  21402204.105 7 112469335.08227        43.00027      5064.78227
  23234112.936 5                        30.00025      2443.58425
  23613981.780 5 124092318.30125        33.00025      2974.95725
  18200478.820 7  95644187.59027        47.00027      3568.28727
  19399277.250 7 101943981.67727        45.00027      3442.21827
 13  4  5 12 58 45.9940033  0 10G05G07G08G09G10G15G19G21G26G28
  18903246.862 7  99337222.45627        47.00027       851.56627
  20849463.278 6 109564616.66426        37.00026      -889.30226
  18974296.651 7  99710581.21527        43.00027       406.64127
  18792971.716 7  98757813.25227        45.00027      4300.81527
  21515143.407 7 113062788.72927        43.00027     -1650.94027
  21387745.727 7 112393363.02927        44.00027      5064.57127
  23227166.438 5                        32.00025      2435.44125
  23605501.949 5 124047764.09425        34.00025      2968.61525
  18190300.176 8  95590703.39828        48.00028      3563.80928
  19389462.809 7 101892400.28727        45.00027      3435.42427
 13  4  5 12 59  0.9940033  0 10G05G07G08G09G10G15G19G21G26G28
  18900832.185 8  99324530.06328        48.00028       841.35228
  20852004.448 5 109577974.42925        35.00025      -891.98125
  18973145.719 7  99704524.57727        42.00027       401.02627
  18780704.036 7  98693349.17627        45.00027      4294.81627
  21519863.253 7 113087581.70527        44.00027     -1654.18927
  21373292.793 7 112317407.36927        44.00027      5063.21827
  23220228.280 5 122023122.48735        32.00025      2426.72025
  23597044.733 5 124003315.04925        34.00025      2960.91425
  18180139.627 8  95537308.53028        48.00028      3556.57528
  19379669.831 7 101840936.50827        46.00027      3426.32427
 13  4  5 12 59 15.9940033  0 10G05G07G08G09G10G15G19G21G26G28
  18898442.793 7  99311977.06127        47.00027       832.80427
  20854552.423 5 109591363.57015        35.00025      -893.06825
  18972007.877 7  99698546.54427        42.00027       397.22327
  18768454.958 7  98628979.16127        45.00027      4288.34427
  21524588.702 7 113112407.65327        44.00027     -1656.26127
  21358842.303 7 112241475.08727        44.00027      5062.53527
  23213316.960 5 121986795.37515        33.00025      2415.63525
  23588608.632 5 123958978.02325        34.00025      2952.86225
  18169996.965 7  95484009.81327        47.00027      3550.68627
  19369898.701 7 101789596.97627        45.00027      3419.14427
 13  4  5 12 59 30.9940033  0 10G05G07G08G09G10G15G19G21G26G28
  18896079.960 7  99299564.29727        47.00027       824.16527
  20857106.070 6 109604784.98526        37.00026      -894.28326
  18970885.040 7  99692648.12927        43.00027       391.34727
  18756226.123 7  98564704.53627        47.00027      4282.97227
  21529317.711 7 113137267.41327        44.00027     -1656.87227
  21344399.141 7 112165567.54927        44.00027      5060.90727
  23206429.200 5 121950601.74735        32.00025      2411.33625
  23580193.646 5 123914754.15625        35.00025      2946.39125
  18159873.201 7  95430808.51127        47.00027      3544.55727
  19360153.292 7 101738383.05827        45.00027      3411.70027
 13  4  5 12 59 45.9940033  0 10G05G07G08G09G10G15G19G21G26G28
  18893744.052 8  99287290.31928        48.00028       812.83328
  20859664.340 6 109618237.30226        38.00026      -899.18326
  18969778.468 7  99686827.78627        42.00027       386.64827
  18744014.335 8  98500524.02228        48.00028      4274.95828
  21534053.279 7 113162159.34727        42.00027     -1660.67027
  21329958.090 7 112089683.62027        44.00027      5057.48927
  23199566.497 5 121914540.33315        32.00025      2400.32325
  23571798.377 5 123870642.25325        33.00025      2935.90725
  18149768.388 8  95377703.59028        48.00028      3537.13028
  19350431.632 7 101687293.68127        46.00027      3401.43427
 13  4  5 13  0  0.9940033  0 10G05G07G08G09G10G15G19G21G26G28
  18891435.612 7  99275166.45627        45.00027       803.61927
  20862233.797 6 109631731.76926        37.00026      -899.24426
  18968687.337 7  99681096.82227        42.00027       378.24527
  18731822.197 8  98436449.24928        48.00028      4268.74128
  21538801.203 7 113187094.71027        45.00027     -1664.09627
  21315525.467 7 112013835.01027        43.00027      5055.01927
  23192731.871 5 121878622.91515        31.00025      2391.44125
  23563428.151 5 123826653.76725        33.00025      2930.03925
  18139682.875 7  95324706.59627        47.00027      3530.08327
  19340735.730 7 101636340.47127        44.00027      3392.87527
 13  4  5 13  0 15.9940033  0 10G05G07G08G09G10G15G19G21G26G28
  18889156.330 7  99263187.24927        47.00027       793.12027
  20864809.081 6 109645262.82926        39.00026      -904.63926
  18967613.239 7  99675449.73527        42.00027       372.66427
  18719647.893 8  98372474.91028        49.00028      4260.52428
  21543551.151 7 113212067.93227        45.00027     -1667.16627
  21301097.469 7 111938016.56527        44.00027      5052.45027
  23185924.537 5 121842844.18715        33.00025      2379.01025
  23555080.329 5 123782783.62425        34.00025      2919.14125
  18129617.987 8  95271812.37928        48.00028      3521.61328
  19331064.518 7 101585518.16427        45.00027      3382.71727
 13  4  5 13  0 30.9940033  0 10G05G07G08G09G10G15G19G21G26G28
  18886905.441 7  99251355.11827        47.00027       784.15427
  20867390.300 6 109658832.93926        39.00026      -904.77726
  18966554.620 6  99669888.88326        41.00026       367.92726
  18707495.402 8  98308603.72228        50.00028      4255.30528
  21548311.745 7 113237081.16727        44.00027     -1668.31527
  21286675.597 7 111862230.90727        43.00027      5051.80827
  23179142.349 5 121807206.70115        33.00025      2370.53525
  23546753.659 5 123739034.34125        34.00025      2914.16625
  18119572.523 7  95219023.68027        47.00027      3516.34427
  19321417.878 7 101534829.62927        44.00027      3375.15927
 13  4  5 13  0 45.9940033  0 10G05G07G08G09G10G15G19G21G26G28
  18884682.244 8  99239663.89228        48.00028       774.49728
  20869979.928 6 109672435.49826        40.00026      -908.08826
  18965511.514 6  99664407.80826        41.00026       362.24426
  18695359.523 8  98244829.53728        51.00028      4248.65128
  21553078.323 7 113262127.85027        44.00027     -1671.46327
  21272257.511 7 111786471.80927        43.00027      5049.55927
  23172386.425 5 121771704.42015        32.00025      2363.67525
  23538451.575 5 123695399.84825        35.00025      2904.09925
  18109546.184 8  95166334.40328        48.00028      3509.41128
  19311795.144 7 101484268.63027        43.00027      3366.32227
 13  4  5 13  1  0.9940033  0 10G05G07G08G09G10G15G19G21G26G28
  18882484.421 8  99228110.73528        49.00028       765.71628
  20872573.100 6 109686067.91326        41.00026      -909.28526
  18964484.148 7  99659003.89627        42.00027       358.49927
  18683240.467 8  98181149.99828        50.00028      4242.28028
  21557852.562 7 113287205.39027        46.00027     -1673.61427
  21257847.295 7 111710737.25227        43.00027      5048.21827
  23165655.907 5 121736334.89715        33.00025      2354.16925
  23530170.135 5 123651877.66625        35.00025      2896.97725
  18099538.691 8  95113742.28328        48.00028      3503.04128
  19302198.481 7 101433832.82127        43.00027      3358.19227
 13  4  5 13  1 15.9940033  0 10G05G07G08G09G10G15G19G21G26G28
  18880309.440 8  99216686.40828        48.00028       757.21028
  20875172.205 6 109699721.08426        41.00026      -909.67926
  18963468.212 6  99653667.87526        41.00026       352.88926
  18671138.774 8  98117556.17028        50.00028      4236.82728
  21562626.436 7 113312304.33127        43.00027     -1673.59427
  21243438.929 7 111635018.21227        43.00027      5047.72527
  23158947.360 5 121701089.33535        32.00025      2346.21525
  23521908.432 5 123608458.92125        35.00025      2891.55825
  18089547.392 8  95061238.41428        48.00028      3497.07128
  19292622.671 7 101383513.36127        43.00027      3350.52527
 13  4  5 13  1 30.9940033  0 10G05G07G08G09G10G15G19G21G26G28
  18878162.292 8  99205403.45028        48.00028       747.63528
  20877775.497 6 109713407.23326        41.00026      -912.95726
  18962467.527 6  99648412.04126        40.00026       347.76726
  18659057.671 8  98054060.66128        50.00028      4230.34928
  21567409.854 7 113337436.92327        43.00027     -1675.72927
  21229032.622 7 111559327.27627        43.00027      5046.57127
  23152266.838 5 121665980.20115        32.00025      2337.72625
  23513668.122 5 123565156.06925        35.00025      2882.57125
  18079575.201 7  95008835.42727        47.00027      3490.65227
  19283069.739 7 101333323.06927        43.00027      3342.77127
 13  4  5 13  1 45.9940033  0 10G05G07G08G09G10G15G19G21G26G28
  18876041.878 8  99194257.47028        48.00028       738.83028
  20880386.014 6 109727121.94426        41.00026      -915.03226
  18961481.466 6  99643232.14026        41.00026       342.63126
  18646992.641 8  97990659.26528        50.00028      4223.69828
  21572199.536 7 113362598.67127        44.00027     -1678.78027
  21214635.337 7 111483660.49427        42.00027      5044.20327
  23145611.496 5 121631003.34025        34.00025      2329.19225
  23505449.659 5 123521964.97125        35.00025      2874.78325
  18069621.873 7  94956529.32127        47.00027      3484.11427
  19273542.597 7 101283257.68527        43.00027      3333.86127
 13  4  5 13  2  0.9940033  0 10G05G07G08G09G10G15G19G21G26G28
  18873947.028 8  99183246.72728        48.00028       728.68128
  20883000.038 6 109740863.54226        41.00026      -917.50326
  18960509.888 6  99638126.32726        40.00026       337.28426
  18634944.746 8  97927350.72328        49.00028      4216.25728
  21576993.040 7 113387787.81827        44.00027     -1681.40627
  21200240.442 7 111408016.36927        43.00027      5042.65627
  23138981.787 5 121596157.39825        34.00025      2316.99325
  23497250.357 5 123478884.11325        34.00025      2866.46325
  18059686.362 7  94904318.65427        47.00027      3477.16327
  19264040.496 7 101233315.95927        43.00027      3324.47927
 13  4  5 13  2 15.9940033  0 10G05G07G08G09G10G15G19G21G26G28
  18871879.034 8  99172376.93928        49.00028       719.66628
  20885620.938 6 109754637.74926        40.00026      -919.17826
  18959553.754 6  99633100.21526        41.00026       332.23626
  18622915.593 8  97864140.89828        48.00028      4209.98828
  21581791.605 7 113413009.92727        44.00027     -1682.52927
  21185850.869 7 111332400.94227        42.00027      5040.31027
  23132376.790 5 121561448.46715        34.00025      2310.24125
  23489075.067 5 123435919.52125        35.00025      2858.07625
  18049770.553 8  94852209.48628        48.00028      3470.35228
  19254560.470 7 101183503.64327        44.00027      3316.10127
 13  4  5 13  2 30.9940033  0 10G05G07G08G09G10G15G19G21G26G28
  18869836.465 8  99161648.54128        48.00028       709.94928
  20888249.010 6 109768444.96826        40.00026      -920.73726
  18958612.434 6  99628154.24626        41.00026       325.43626
  18610907.031 8  97801030.45128        48.00028      4203.49728
  21586600.256 7 113438265.17527        45.00027     -1684.37627
  21171467.440 7 111256815.04127        43.00027      5038.69227
  23125798.314 5 121526877.12525        34.00025      2295.83125
  23480922.131 5 123393071.80725        35.00025      2852.59825
  18039873.973 8  94800202.51528        48.00028      3463.26928
  19245107.108 7 101133821.73427        44.00027      3308.33827
 13  4  5 13  2 45.9940033  0 10G05G07G08G09G10G15G19G21G26G28
  18867820.124 8  99151057.28728        48.00028       702.37228
  20890881.619 6 109782280.88726        41.00026      -923.46126
  18957684.849 6  99623284.28226        41.00026       323.18826
  18598914.018 7  97738015.46527        47.00027      4198.93927
  21591410.600 7 113463549.24827        45.00027     -1685.85727
  21157087.361 7 111181254.63827        43.00027      5038.12527
  23119244.813 5 121492439.37425        33.00025      2290.15725
  23472788.896 5 123350337.04325        34.00025      2846.69825
  18029996.485 8  94748293.82628        48.00028      3458.22028
  19235677.165 7 101084266.26527        44.00027      3300.68727
 13  4  5 13  3  0.9940033  0 10G05G07G08G09G10G15G19G21G26G28
  18865830.429 7  99140601.02727        47.00027       692.67227
  20893517.910 6 109796143.09726        39.00026      -924.77926
  18956772.532 6  99618487.83326        41.00026       316.08126
  18586937.966 7  97675093.71927        45.00027      4191.43127
  21596229.320 7 113488859.45327        45.00027     -1688.45927
  21142715.517 7 111105717.75627        44.00027      5034.46527
  23112716.545 5 121458132.99335        34.00025      2285.23125
  23464678.171 5 123307713.01525        34.00025      2837.14225
  18020136.376 7  94696481.39027        47.00027      3450.68227
  19226271.668 7 101034835.02227        44.00027      3291.05327
 13  4  5 13  3 15.9940033  0 10G05G07G08G09G10G15G19G21G26G28
  18863868.288 7  99130293.78127        46.00027       682.98527
  20896164.654 6 109810045.81026        40.00026      -926.70126
  18955874.245 6  99613779.17226        40.00026       311.89526
  18574982.679 7  97612279.88927        43.00027      4183.97027
  21601054.234 7 113514210.08027        45.00027     -1690.12027
  21128346.710 7 111030219.01427        43.00027      5032.21127
  23106215.653 5 121423972.72315        34.00025      2270.93625
  23456590.149 5 123265214.13325        33.00025      2829.88225
  18010297.923 7  94644779.83427        47.00027      3444.06227
  19216892.016 7 100985542.66827        44.00027      3282.65227
 13  4  5 13  3 30.9940033  0 10G05G07G08G09G10G15G19G21G26G28
  18861933.439 7  99120122.96827        45.00027       672.73027
  20898814.241 6 109823976.40726        38.00026      -930.65426
  18954992.780 6  99609145.39826        40.00026       306.08026
  18563049.397 7  97549561.53727        43.00027      4177.05827
  21605882.220 7 113539588.33627        45.00027     -1693.43127
  21113986.436 7 110954745.93627        44.00027      5029.31127
  23099740.572 5 121389946.11425        31.00025      2262.55025
  23448524.272 5 123222828.06925        33.00025      2821.65225
  18000477.235 7  94593176.76327        46.00027      3436.65427
  19207536.322 7 100936376.80427        44.00027      3272.61027
 13  4  5 13  3 45.9940033  0 10G05G07G08G09G10G15G19G21G26G28
  18860025.673 7  99110095.26427        46.00027       663.79427
  20901473.077 6 109837941.41526        40.00026      -933.98526
  18954128.050 6  99604593.18126        41.00026       301.32026
  18551134.683 7  97486945.38827        45.00027      4171.11827
  21610718.669 7 113565000.56327        44.00027     -1695.63227
  21099631.800 7 110879305.47427        44.00027      5028.90327
  23093292.173 5 121356059.93215        32.00025      2255.92125
  23440482.004 5 123180561.47725        34.00025      2813.65625
  17990677.277 7  94541679.09027        46.00027      3430.04827
  19198205.164 7 100887344.04027        44.00027      3264.50827
 13  4  5 13  4  1.0039978  0 10G05G07G08G09G10G15G19G21G26G28
  21856068.299 7  99100206.19527        47.00027       654.90027
  23902060.615 6 109851936.42226        39.00026      -934.02026
  21951200.677 6  99600118.19326        41.00026       296.76026
  21537162.647 7  97424427.33827        47.00027      4164.30727
  24613485.372 7 113590442.38727        46.00027     -1697.15327
  24083205.061 7 110803893.46827        45.00027      5026.50727
  26084794.043 5 121322310.01215        32.00025      2248.80325
  26430385.522 5 123138410.39725        35.00025      2805.68225
  20978821.621 7  94490282.71127        47.00027      3423.29627
  22186824.415 7 100838440.61927        44.00027      3256.40327
 13  4  5 13  4 16.0039978  0 10G05G07G08G09G10G15G19G21G26G28
  21854211.610 7  99090456.96927        45.00027       646.12127
  23904728.055 6 109865962.66226        38.00026      -935.64026
  21950363.081 6  99595721.35826        41.00026       290.41726
  21525285.853 7  97362008.80427        47.00027      4158.96427
  24618331.472 7 113615914.68327        45.00027     -1697.66727
  24068861.296 7 110728511.57627        45.00027      5025.98127
  26078381.537 5                        30.00025      2237.07125
  26422385.816 5 123096376.04025        35.00025      2799.11325
  20969059.758 7  94438989.11427        46.00027      3417.28127
  22177540.949 7 100789667.91927        43.00027      3248.38527
 13  4  5 13  4 31.0039978  0 10G05G07G08G09G10G15G19G21G26G28
  21852381.950 7  99080846.86427        46.00027       635.57327
  23907405.301 6 109880019.64426        40.00026      -939.08526
  21949542.797 7  99591402.16527        43.00027       284.65527
  21513426.385 8  97299689.64728        48.00028      4151.17128
  24623183.051 7 113641416.84027        45.00027     -1700.38327
  24054522.189 7 110653159.55727        45.00027      5022.00527
  26072019.672 5                        30.00025      2226.31025
  26414411.272 5 123054458.19225        35.00025      2788.79625
  20959318.903 7  94387798.15627        46.00027      3408.52127
  22168284.285 7 100741025.74627        44.00027      3238.65727
 13  4  5 13  4 46.0039978  0 10G05G07G08G09G10G15G19G21G26G28
  21850580.997 7  99071379.86227        45.00027       626.03427
  23910086.055 6 109894110.82826        39.00026      -940.29626
  21948736.630 7  99587164.30927        43.00027       279.77827
  21501588.643 8  97237473.65228        48.00028      4143.99028
  24628045.099 7 113666952.41227        46.00027     -1704.17427
  24040188.841 7 110577841.38127        45.00027      5019.65827
  26065680.616 5                        30.00025      2217.33725
  26406455.925 5 123012660.77525        35.00025      2783.64425
  20949597.960 7  94336713.79127        46.00027      3401.82627
  22159054.407 7 100692517.99627        43.00027      3228.91227
 13  4  5 13  5  1.0039978  0 10G05G07G08G09G10G15G19G21G26G28
  21848808.592 7  99062057.34027        46.00027       617.40727
  23912775.220 6 109908237.69526        39.00026      -941.76226
  21947945.889 7  99583009.17827        43.00027       274.94727
  21489770.394 8  97175362.66428        49.00028      4138.25028
  24632910.655 7 113692522.89527        46.00027     -1705.35827
  24025865.265 7 110502558.79027        45.00027      5018.47927
  26059358.451 5                        30.00025      2207.97025
  26398525.880 5 122970985.25925        34.00025      2774.95825
  20939898.010 7  94285737.73327        46.00027      3395.46627
  22149849.571 7 100644146.35827        43.00027      3220.37527
 13  4  5 13  5 16.0039978  0 10G05G07G08G09G10G15G19G21G26G28
  21847060.391 7  99052870.25527        46.00027       608.34227
  23915467.404 6 109922391.24626        37.00026      -943.42326
  21947168.811 7  99578927.78327        42.00027       270.31527
  21477969.367 8  97113347.81428        49.00028      4131.67828
  24637780.312 7 113718118.95527        45.00027     -1706.47027
  24011542.684 7 110427303.19027        43.00027      5014.98327
  26053082.948 5 136909874.49315        33.00025      2201.14425
  26390616.688 5 122929422.98515        32.00025      2766.75025
  20930217.394 7  94234861.28927        46.00027      3388.74527
  22140670.004 7 100595902.17527        44.00027      3212.39227
 13  4  5 13  5 31.0039978  0 10G05G07G08G09G10G15G19G21G26G28
  21845338.383 7  99043823.35827        46.00027       598.73827
  23918168.819 6 109936576.36526        39.00026      -946.63326
  21946407.212 7  99574924.97127        42.00027       264.19827
  21466187.710 8  97051434.19828        50.00028      4123.90628
  24642657.194 7 113743745.25627        45.00027     -1708.74027
  23997229.630 7 110352079.68227        44.00027      5013.37427
  26046817.217 5 136876957.66615        32.00025      2190.24925
  26382729.971 5 122887978.90025        32.00025      2759.12925
  20920555.258 7  94184089.64827        46.00027      3381.17027
  22131514.185 7 100547790.55127        44.00027      3203.18427
 13  4  5 13  5 46.0039978  0 10G05G07G08G09G10G15G19G21G26G28
  21843645.726 7  99034920.57327        47.00027       589.63227
  23920873.044 6 109950796.79326        36.00026      -947.73326
  21945661.806 7  99571004.76927        43.00027       258.54527
  21454425.581 8  96989625.96928        49.00028      4117.55428
  24647541.910 7 113769405.56527        46.00027     -1710.94627
  23982920.661 7 110276892.30427        43.00027      5011.62727
  26040572.478 4                        29.00024      2179.41024
  26374865.487 5 122846657.18425        33.00025      2752.32425
  20910914.988 7  94133427.02427        46.00027      3374.68427
  22122384.943 7 100499815.48227        44.00027      3194.62427
 13  4  5 13  6  1.0039978  0 10G05G07G08G09G10G15G19G21G26G28
  21841977.970 7  99026154.05527        47.00027       580.23727
  23923582.818 6 109965044.70326        36.00026      -950.11226
  21944930.693 7  99567158.99727        43.00027       254.56227
  21442682.611 8  96927915.56528        49.00028      4111.36928
  24652428.057 7 113795091.89727        44.00027     -1713.43327
  23968618.758 7 110201733.60327        42.00027      5010.20727
  26034362.553 4                        26.00024      2172.86224
  26367024.334 5 122805450.22615        33.00025      2745.83125
  20901293.738 7  94082865.91527        46.00027      3367.21127
  22113279.311 7 100451969.80527        43.00027      3185.48227
 13  4  5 13  6 16.0000000  0 10G05G07G08G09G10G15G19G21G26G28
  21840337.785 8  99017528.62728        48.00028       569.77328
  23926302.450 6 109979318.81826        36.00026      -954.79026
  21944213.399 7  99563391.24927        44.00027       248.93527
  21430961.821 8  96866322.22828        49.00028      4103.62528
  24657319.702 7 113820799.82927        43.00027     -1715.74227
  23954326.401 7 110126626.59527        42.00027      5007.23127
  26028195.538 4                        27.00024      2162.05424
  26359207.574 5 122764371.68225        34.00025      2732.67725
  20891694.370 7  94032422.57327        45.00027      3360.75227
  22104202.211 7 100404268.84227        44.00027      3175.94827
 13  4  5 13  6 31.0000000  0 10G05G07G08G09G10G15G19G21G26G28
  21838722.903 8  99009040.31728        49.00028       559.96228
  23929024.946 5 109993627.55225        35.00025      -954.38525
  21943511.951 7  99559700.05427        43.00027       242.45627
  21419257.485 8  96804813.89928        49.00028      4096.08128
  24662218.727 7 113846543.45927        44.00027     -1717.33127
  23940034.183 6 110051532.05626        41.00026      5004.35026
  26022007.826 4                        25.00024      2150.38524
  26351411.234 5 122723400.57225        34.00025      2728.42525
  20882111.999 7  93982070.97227        45.00027      3352.54627
  22095147.359 7 100356688.04327        43.00027      3166.60827
 13  4  5 13  6 46.0000000  0 10G05G07G08G09G10G15G19G21G26G28
  21837133.343 8  99000689.69128        48.00028       553.12728
  23931753.008 5 110007965.15525        34.00025      -954.78025
  21942823.887 7  99556084.63327        43.00027       238.68327
  21407571.893 8  96743405.52728        48.00028      4090.87328
  24667120.790 7 113872314.09727        42.00027     -1718.12827
  23925753.012 6 109976468.73326        41.00026      5005.29226
  26015893.180 4                        28.00024      2144.02524
  26343637.612 5 122682546.06425        33.00025      2719.32225
  20872550.133 7  93931823.21527        44.00027      3347.05827
  22086118.422 7 100309238.61527        43.00027      3159.89427
 13  4  5 13  7  1.0000000  0 10G05G07G08G09G10G15G19G21G26G28
  21835570.271 8  98992474.19728        50.00028       543.79828
  23934486.740 5 110022328.91325        35.00025      -957.28625
  21942149.801 7  99552542.30427        44.00027       233.89827
  21395904.570 8  96682094.66528        48.00028      4084.55728
  24672027.860 7 113898108.95027        43.00027     -1720.04927
  23911468.210 6 109901434.13726        40.00026      5001.40526
  26009793.663 4                        28.00024      2137.03324
  26335884.390 5 122641805.73025        34.00025      2712.22725
  20863006.676 7  93881676.90127        46.00027      3340.57227
  22077114.490 7 100261918.24927        44.00027      3150.57727
 13  4  5 13  7 16.0000000  0 10G05G07G08G09G10G15G19G21G26G28
  21834031.699 8  98984393.00428        49.00028       533.71128
  23937226.720 6 110036718.00326        37.00026      -960.16426
  21941489.029 7  99549072.36027        44.00027       228.36827
  21384254.889 7  96620881.02127        47.00027      4076.71527
  24676940.916 6 113923927.34626        40.00026     -1721.66126
  23897197.752 6 109826427.98026        40.00026      4998.46126
  26003697.634 4                        26.00024      2125.78124
  26328155.285 5 122601179.29825        35.00025      2705.19125
  20853483.460 7  93831631.75027        45.00027      3331.65127
  22068133.871 7 100214726.51027        43.00027      3141.21227
 13  4  5 13  7 31.0000000  0 10G05G07G08G09G10G15G19G21G26G28
  21832519.792 8  98976445.68828        49.00028       526.01528
  23939969.667 6 110051132.31726        39.00026      -961.73526
  21940843.177 7  99545674.54427        44.00027       225.06727
  21372624.212 7  96559764.47427        46.00027      4072.05727
  24681858.963 7 113949768.76727        42.00027     -1722.25927
  23882929.477 6 109751450.23626        40.00026      4998.26826
  25997653.416 4                        28.00024      2116.27424
  26320445.775 5 122560666.45635        35.00025      2696.36525
  20843979.128 7  93781687.75527        45.00027      3326.55127
  22059177.404 7 100167663.40427        43.00027      3133.95827
 13  4  5 13  7 46.0000000  0 10G05G07G08G09G10G15G19G21G26G28
  21831030.849 8  98968622.93928        49.00028       518.29228
  23942714.778 6 110065562.41826        37.00026      -961.79626
  21940208.546 7  99542339.33727        43.00027       221.07127
  21361009.642 7  96498735.77527        46.00027      4067.14827
  24686778.528 7 113975623.65627        42.00027     -1723.38127
  23868661.708 6 109676491.77726        39.00026      4998.15726
  25991621.920 4                        29.00024      2108.74624
  26312755.864 5 122520258.11425        35.00025      2691.23225
  20834492.332 7  93731835.72927        45.00027      3321.08027
  22050243.169 7 100120719.59427        43.00027      3126.68927
 13  4  5 13  8  1.0000000  0 10G05G07G08G09G10G15G19G21G26G28
  21829567.766 8  98960933.58228        49.00028       507.97528
  23945465.507 6 110080016.93226        38.00026      -964.07526
  21939587.264 7  99539075.45827        43.00027       215.66127
  21349413.795 7  96437803.95927        45.00027      4058.94927
  24691702.455 7 114001500.66227        42.00027     -1726.55927
  23854403.378 6 109601561.78026        39.00026      4994.97026
  25985622.341 5                        31.00025      2101.58625
  26305087.694 6 122479963.23526        36.00026      2684.05626
  20825025.848 7  93682084.79327        45.00027      3314.28327
  22041334.812 7 100073904.40027        43.00027      3117.34427
 13  4  5 13  8 16.0000000  0 10G05G07G08G09G10G15G19G21G26G28
  21828129.481 8  98953379.54028        49.00028       499.56828
  23948222.885 6 110094497.88626        41.00026      -966.33026
  21938980.239 7  99535884.85727        43.00027       210.93427
  21337837.004 7  96376971.41527        46.00027      4052.69327
  24696632.996 7 114027401.58527        42.00027     -1727.27327
  23840151.959 6 109526662.66926        40.00026      4992.77326
  25979631.100 5                        32.00025      2089.53125
  26297441.267 5 122439784.09325        35.00025      2675.18625
  20815578.298 7  93632437.22927        46.00027      3307.30427
  22032452.334 7 100027220.00327        45.00027      3108.46627
 13  4  5 13  8 31.0000000  0 10G05G07G08G09G10G15G19G21G26G28
  21826717.232 8  98945958.91128        48.00028       490.25028
  23950984.417 6 110109003.44726        40.00026      -967.94426
  21938385.935 7  99532765.80627        43.00027       205.60827
  21326279.670 7  96316236.45327        45.00027      4045.67627
  24701566.957 7 114053324.55327        44.00027     -1728.64427
  23825901.011 6 109451792.74126        39.00026      4991.26726
  25973688.320 5 136492652.66215        33.00025      2080.36125
  26289816.584 5 122399718.88725        34.00025      2666.91525
  20806149.750 7  93582891.62027        46.00027      3299.77027
  22023592.768 7  99980664.86227        44.00027      3100.02627
 13  4  5 13  8 46.0000000  0 10G05G07G08G09G10G15G19G21G26G28
  21825329.500 8  98938663.84728        48.00028       482.10928
  23953747.117 6 110123525.77526        39.00026      -968.78026
  21937805.487 6  99529710.42126        41.00026       202.84826
  21314739.943 7  96255591.46027        45.00027      4039.88727
  24706502.193 7 114079261.49627        42.00027     -1729.99827
  23811660.969 6 109376944.51726        40.00026      4988.38426
  25967759.502 5 136461497.61615        32.00025      2073.28325
  26282215.091 5 122359760.01025        34.00025      2659.44225
  20796740.678 7  93533440.27127        46.00027      3293.70627
  22014756.672 7  99934231.30227        43.00027      3090.28727
 13  4  5 13  9  1.0000000  0 10G05G07G08G09G10G15G19G21G26G28
  21823964.174 7  98931491.36227        47.00027       473.83127
  23956511.772 6 110138061.65426        39.00026      -970.25226
  21937235.003 6  99526715.31526        40.00026       196.73526
  21303216.847 7  96195033.34627        47.00027      4033.48327
  24711440.534 7 114105208.99327        42.00027     -1730.67327
  23797420.876 6 109302114.97726        40.00026      4988.08526
  25961836.893 4                        29.00024      2060.00124
  26274629.252 5 122319904.31235        34.00025      2652.82925
  20787347.991 7  93484080.29027        46.00027      3287.27727
  22005944.135 7  99887916.35627        45.00027      3083.79427
 13  4  5 13  9 16.0000000  0 10G05G07G08G09G10G15G19G21G26G28
  21822626.524 7  98924462.14627        47.00027       464.20227
  23959286.199 6 110152632.52326        39.00026      -972.66226
  21936677.955 6  99523801.74426        40.00026       192.61626
  21291714.760 8  96134583.65928        48.00028      4026.73828
  24716386.449 7 114131188.11927        43.00027     -1732.61227
  23783186.959 6 109227325.79226        39.00026      4984.77026
  25955973.407 5                        30.00025      2052.71925
  26267068.628 5 122280173.16425        35.00025      2643.99925
  20777977.134 7  93434833.28727        47.00027      3279.43727
  21997157.615 7  99841741.48327        45.00027      3073.83127
 13  4  5 13  9 31.0000000  0 10G05G07G08G09G10G15G19G21G26G28
  21821311.734 7  98917560.54927        46.00027       455.92727
  23962062.214 6 110167222.20226        39.00026      -974.13426
  21936136.194 6  99520954.01026        39.00026       187.01026
  21280230.316 8  96074226.98828        48.00028      4020.76828
  24721333.166 7 114157183.13727        43.00027     -1733.03527
  23768961.122 6 109152561.60926        40.00026      4983.92626
  25950119.136 5                        30.00025      2046.36125
  26259527.915 5 122240551.26025        35.00025      2637.06325
  20768624.408 7  93385683.80027        46.00027      3273.14027
  21988395.230 7  99795691.28227        45.00027      3066.70027
 13  4  5 13  9 46.0000000  0 10G05G07G08G09G10G15G19G21G26G28
  21820022.439 7  98910793.32427        45.00027       447.45827
  23964840.882 6 110181837.25426        37.00026      -973.54426
  21935606.369 6  99518178.40326        38.00026       183.18226
  21268764.211 8  96013970.01428        49.00028      4014.46628
  24726284.735 7 114183200.17727        42.00027     -1735.39827
  23754740.380 6 109077829.10626        40.00026      4981.04826
  25944306.255 5                        32.00025      2036.41425
  26252011.161 5 122201044.97225        35.00025      2628.58725
  20759291.575 7  93336638.60327        46.00027      3266.91527
  21979657.291 7  99749772.49627        46.00027      3057.06927
 13  4  5 13 10  1.0000000  0 10G05G07G08G09G10G15G19G21G26G28
  21818755.916 7  98904149.12427        43.00027       438.39027
  23967623.284 6 110196466.77126        37.00026      -975.15926
  21935088.567 6  99515463.85226        37.00026       179.08426
  21257314.371 8  95953801.95128        49.00028      4007.65928
  24731237.804 7 114209228.24627        43.00027     -1737.13427
  23740521.593 6 109003117.63426        39.00026      4979.39626
  25938474.287 4                        28.00024      2034.70824
  26244513.184 5 122161643.77325        35.00025      2623.41225
  20749975.722 7  93287686.96727        46.00027      3259.83227
  21970941.341 7  99703974.26627        45.00027      3049.15727
 13  4  5 13 10 16.0000000  0  9G05G07G08G09G10G15G21G26G28
  21817516.144 7  98897644.42627        42.00027       428.24827
  23970416.119 6 110211126.95826        38.00026      -979.91526
  21934584.497 5  99512826.73225        35.00025       171.79325
  21245884.056 8  95893739.45728        48.00028      3999.59628
  24736196.021 7 114235283.59227        42.00027     -1738.15827
  23726312.211 6 108928443.86126        38.00026      4976.42726
  26237039.741 5 122122364.06925        35.00025      2613.62925
  20740681.820 7  93238845.61027        45.00027      3251.45627
  21962252.385 7  99658313.30727        44.00027      3038.53827
 13  4  5 13 10 31.0000000  0  9G05G07G08G09G10G15G21G26G28
  21816308.551 7  98891282.61027        43.00027       420.44627
  23973209.550 5 110225821.51825        35.00025      -979.87225
  21934098.525 6  99510270.47626        37.00026       168.17626
  21234475.555 8  95833786.22928        49.00028      3993.85828
  24741158.461 7 114261369.62627        42.00027     -1739.61027
  23712110.421 6 108853811.71526        39.00026      4975.61426
  26229587.361 5 122083209.63725        35.00025      2606.12325
  20731407.742 7  93190118.31627        45.00027      3245.34727
  21953590.617 7  99612793.34727        46.00027      3030.41927
 13  4  5 13 10 46.0000000  0  9G05G07G08G09G10G15G21G26G28
  21815127.656 7  98885068.04527        45.00027       410.11627
  23976011.600 5 110240554.66515        35.00025      -983.97125
  21933629.897 6  99507799.30926        37.00026       161.80426
  21223088.919 8  95773946.69428        49.00028      3986.41228
  24746131.563 7 114287490.30827        42.00027     -1741.83627
  23697913.586 6 108779225.69726        38.00026      4972.36926
  26222163.110 5 122044185.00025        35.00025      2597.47125
  20722157.483 7  93141509.70627        45.00027      3237.51627
  21944956.315 7  99567418.90327        45.00027      3020.49227
 13  4  5 13 11  1.0000000  0  9G05G07G08G09G10G15G21G26G28
  21813972.030 7  98878982.80727        45.00027       401.34027
  23978821.766 5 110255308.25315        34.00025      -983.67625
  21933172.944 6  99505395.39426        37.00026       158.24626
  21211719.855 7  95714203.29227        47.00027      3979.71627
  24751104.438 7 114313627.80627        42.00027     -1742.01427
  23683730.100 6 108704668.37326        39.00026      4968.90626
  26214758.386 5 122005272.20525        34.00025      2589.94025
  20712925.687 7  93093002.17027        44.00027      3230.48127
  21936347.212 7  99522172.39827        44.00027      3012.27427
 13  4  5 13 11 16.0000000  0  9G05G07G08G09G10G15G21G26G28
  21812841.758 8  98873034.13928        48.00028       392.42328
  23981631.634 6 110270089.77516        36.00026      -986.08826
  21932729.758 6  99503065.90926        38.00026       152.56926
  21200371.365 8  95654563.46528        48.00028      3972.65228
  24756083.647 7 114339789.02527        43.00027     -1745.54427
  23669545.289 6 108630147.21626        38.00026      4967.45726
  26207376.417 5 121966478.75125        35.00025      2580.86125
  20703714.151 7  93044603.29927        44.00027      3222.87427
  21927761.231 7  99477061.26727        45.00027      3003.34027
 13  4  5 13 11 31.0000000  0  9G05G07G08G09G10G15G21G26G28
  21811735.097 7  98867220.71527        47.00027       382.65627
  23984450.419 5 110284897.96825        35.00025      -988.27425
  21932299.033 6  99500809.73026        37.00026       148.66526
  21189041.495 7  95595026.26027        47.00027      3965.60527
  24761064.148 7 114365972.88827        42.00027     -1746.77127
  23655371.487 6 108555661.38026        37.00026      4963.38426
  26200016.960 6 121927803.82726        36.00026      2574.23526
  20694524.881 7  92996312.21727        44.00027      3215.31927
  21919201.790 7  99432084.66427        44.00027      2993.15227
 13  4  5 13 11 46.0000000  0  9G05G07G08G09G10G15G21G26G28
  21810656.408 8  98861549.26428        48.00028       372.87628
  23987273.357 5 110299739.54815        34.00025      -991.58525
  21931886.037 6  99498633.55526        37.00026       143.19526
  21177732.651 7  95535598.74927        46.00027      3957.36527
  24766053.217 7 114392185.89127        42.00027     -1749.65727
  23641205.800 6 108481217.85426        37.00026      4959.20226
  26192681.583 5 121889254.37425        35.00025      2565.08825
  20685356.428 7  92948135.89727        43.00027      3207.24427
  21910670.951 7  99387249.58227        43.00027      2983.71927
 13  4  5 13 12  1.0000000  0  9G05G07G08G09G10G15G21G26G28
  21809602.900 8  98856012.92428        50.00028       364.67628
  23990102.701 6 110314607.51426        36.00026      -990.66626
  21931487.856 6  99496530.21326        39.00026       138.22926
  21166442.131 7  95476274.13627        46.00027      3951.75327
  24771045.637 7 114418420.76227        42.00027     -1749.71927
  23627049.957 6 108406809.99526        40.00026      4959.22826
  26185368.823 6 121850823.27526        36.00026      2559.66226
  20676209.284 7  92900067.67427        44.00027      3201.14627
  21902164.961 7  99342549.22627        44.00027      2975.23727
 13  4  5 13 12 16.0000000  0 10G05G07G08G09G10G15G19G21G26G28
  21808576.789 8  98850616.42628        50.00028       354.53928
  23992938.726 5 110329506.83825        35.00025      -993.61125
  21931104.245 6  99494504.74326        40.00026       131.88126
  21155172.882 7  95417057.69227        46.00027      3943.69527
  24776043.274 7 114444682.63527        43.00027     -1751.96127
  23612895.403 6 108332443.27826        38.00026      4956.31726
  25887511.240 5 136039789.55515        31.00025      1941.28525
  26178078.048 5 121812515.84625        35.00025      2549.16325
  20667083.898 7  92852112.90927        44.00027      3191.86727
  21893686.054 7  99297988.96027        45.00027      2965.31627
 13  4  5 13 12 31.0000000  0 10G05G07G08G09G10G15G19G21G26G28
  21807574.829 8  98845352.49928        49.00028       346.20728
  23995779.342 6 110344430.23526        37.00026      -994.31726
  21930732.589 6  99492549.90326        40.00026       128.70026
  21143923.422 7  95357942.39927        45.00027      3936.80527
  24781044.104 6 114470963.98126        41.00026     -1752.82026
  23598754.409 6 108258110.55926        39.00026      4952.88526
  25881987.685 5                        30.00025      1933.65925
  26170809.717 5 121774325.07425        35.00025      2544.95825
  20657979.158 7  92804264.66527        44.00027      3186.54327
  21885231.473 7  99253561.65127        44.00027      2957.69127
 13  4  5 13 12 46.0000000  0 10G05G07G08G09G10G15G19G21G26G28
  21806599.393 8  98840231.63228        49.00028       335.87928
  23998625.488 5 110359388.31225        35.00025      -999.10025
  21930375.712 6  99490676.10226        40.00026       121.02126
  21132695.356 7  95298938.93827        45.00027      3929.20927
  24786051.583 7 114497274.97927        42.00027     -1756.04627
  23584616.399 6 108183822.75126        39.00026      4951.31626
  25876460.359 5                        30.00025      1924.36325
  26163567.017 5 121736261.50225        34.00025      2533.29625
  20648897.956 7  92756533.69627        44.00027      3177.56627
  21876803.258 7  99209278.09527        43.00027      2947.53027
 13  4  5 13 13  1.0000000  0 10G05G07G08G09G10G15G19G21G26G28
  21805652.017 8  98835254.46328        49.00028       327.91428
  24001478.442 6 110374381.49026        36.00026      -998.84826
  21930035.257 6  99488883.78226        40.00026       117.46226
  21121489.033 7  95240047.93727        46.00027      3922.93327
  24791062.518 6 114523616.06426        41.00026     -1755.52826
  23570487.829 6 108109580.64026        40.00026      4948.64926
  25870994.371 4                        28.00024      1913.47624
  26156346.777 5 121698325.82525        35.00025      2525.37625
  20639836.789 7  92708920.70027        44.00027      3170.57427
  21868402.964 7  99165138.87627        43.00027      2938.04627
 13  4  5 13 13 16.0000000  0 10G05G07G08G09G10G15G19G21G26G28
  21804731.585 8  98830414.09028        49.00028       318.58828
  24004338.061 6 110389403.11226        36.00026      -999.42726
  21929708.971 6  99487166.24926        40.00026       111.77826
  21110303.930 7  95181263.06727        46.00027      3916.78427
  24796078.181 6 114549980.40526        41.00026     -1757.43526
  23556368.438 6 108035377.90326        39.00026      4946.52326
  25865555.222 5                        30.00025      1904.75425
  26149151.875 5 121660511.51025        35.00025      2519.07425
  20630799.371 7  92661419.43827        45.00027      3163.78927
  21860030.538 7  99121137.53927        43.00027      2929.58427
 13  4  5 13 13 31.0000000  0 10G05G07G08G09G10G15G19G21G26G28
  21803836.769 8  98825714.68828        49.00028       308.74528
  24007203.909 6 110404457.47726        37.00026     -1003.93226
  21929395.755 6  99485527.73026        41.00026       106.86226
  21099138.858 7  95122588.82227        47.00027      3907.24627
  24801101.871 7 114576372.22227        42.00027     -1759.66027
  23542258.208 6 107961219.31726        41.00026      4942.66526
  25860130.346 4                        28.00024      1892.63424
  26141978.959 6 121622823.05126        36.00026      2507.05726
  20621782.508 7  92614034.43027        45.00027      3155.55727
  21851683.607 7  99077278.72127        43.00027      2920.02927
 13  4  5 13 13 46.0000000  0 10G05G07G08G09G10G15G19G21G26G28
  21802967.500 8  98821147.40728        48.00028       300.36028
  24010072.724 6 110419535.82026        37.00026     -1006.35326
  21929098.715 7  99483959.48127        42.00027       102.43327
  21087992.372 8  95064016.66528        48.00028      3901.27328
  24806126.695 6 114602782.69626        41.00026     -1761.03526
  23528150.090 6 107887096.23226        40.00026      4940.11426
  25854733.636 4                        29.00024      1882.20924
  26134828.816 5 121585251.70625        35.00025      2499.87525
  20612786.081 7  92566757.18427        46.00027      3148.67127
  21843361.944 7  99033553.83427        42.00027      2910.69527
 13  4  5 13 14  1.0000000  0 10G05G07G08G09G10G15G19G21G26G28
  21802126.169 7  98816722.57227        46.00027       290.45827
  24012948.991 5 110434648.29925        35.00025     -1006.52925
  21928813.926 6  99482471.87026        39.00026        96.17926
  21076868.693 7  95005557.20527        46.00027      3894.14927
  24811156.475 6 114629221.84726        39.00026     -1764.89226
  23514056.997 6 107813019.52326        39.00026      4937.67826
  25849378.073 4                        28.00024      1873.65124
  26127703.767 5 121547808.06425        33.00025      2492.12425
  20603812.547 7  92519598.49027        45.00027      3139.38027
  21835068.305 6  98989973.59926        41.00026      2900.35726
 13  4  5 13 14 16.0000000  0 10G05G07G08G09G10G15G19G21G26G28
  21801307.977 7  98812431.79727        46.00027       281.22027
  24015830.369 6 110449786.52426        37.00026     -1010.93926
  21928546.255 7  99481056.29327        42.00027        91.08927
  21065763.145 8  94947202.19628        48.00028      3885.77428
  24816189.327 6 114655681.42426        38.00026     -1764.01526
  23499967.672 6 107738980.97126        41.00026      4933.88026
  25844047.639 4                        29.00024      1863.82024
  26120602.469 5 121510483.80525        34.00025      2487.72525
  20594859.553 7  92472550.05327        46.00027      3131.80727
  21826802.342 7  98946529.83627        42.00027      2890.87527
 13  4  5 13 14 31.0000000  0 10G05G07G08G09G10G15G19G21G26G28
  21800515.315 7  98808274.22627        45.00027       273.09327
  24018714.646 6 110464949.69126        37.00026     -1010.09926
  21928291.062 7  99479711.92927        43.00027        88.48527
  21054678.695 8  94888951.11928        48.00028      3880.93528
  24821226.960 6 114682160.19726        40.00026     -1765.18926
  23485882.554 6 107664979.96426        40.00026      4932.41726
  25838732.126 5                        30.00025      1857.50325
  26113521.498 5 121473278.35825        35.00025      2476.29525
  20585927.290 7  92425611.45427        46.00027      3126.18427
  21818562.172 7  98903221.81027        43.00027      2883.41927
 13  4  5 13 14 46.0000000  0 10G05G07G08G09G10G15G19G21G26G28
  21799744.937 7  98804241.30027        44.00027       264.32227
  24021605.187 6 110480129.42226        39.00026     -1011.97726
  21928046.809 7  99478430.38327        43.00027        83.38727
  21043611.659 8  94830795.70228        48.00028      3873.95128
  24826270.963 6 114708649.54126        39.00026     -1765.81426
  23471809.179 6 107591008.60926        40.00026      4929.60326
  25833441.042 5                        30.00025      1848.47725
  26106463.894 5 121436183.58525        34.00025      2468.41425
  20577014.345 7  92378774.50227        46.00027      3119.16427
  21810346.310 7  98860041.45927        44.00027      2873.86927
 13  4  5 13 15  1.0000000  0 10G05G07G08G09G10G15G19G21G26G28
  21799001.485 7  98800343.81527        42.00027       254.97427
  24024497.716 6 110495336.50226        38.00026     -1015.00626
  21927817.092 7  99477222.30827        43.00027        78.06727
  21032564.848 8  94772746.95028        48.00028      3865.93828
  24831316.867 6 114735160.28526        38.00026     -1768.17326
  23457738.335 6 107517077.90626        39.00026      4928.27926
  25828191.733 5                        30.00025      1838.95425
  26099427.196 5 121399210.30125        34.00025      2461.44825
  20568122.810 7  92332050.28527        46.00027      3110.89627
  21802156.099 7  98816999.73327        43.00027      2865.59227
 13  4  5 13 15 16.0000000  0 10G05G07G08G09G10G15G19G21G26G28
  21798285.813 7  98796578.45427        43.00027       246.37027
  24027398.152 6 110510567.70426        40.00026     -1015.44126
  21927601.284 7  99476084.49827        44.00027        74.27327
  21021539.222 8  94714801.87728        48.00028      3859.36228
  24836362.929 6 114761688.89826        39.00026     -1768.63126
  23443676.477 6 107443184.84226        41.00026      4924.35826
  25822956.071 5                        31.00025      1829.24825
  26092413.654 5 121362355.25025        34.00025      2453.66525
  20559252.234 7  92285435.88927        47.00027      3104.28027
  21793991.191 7  98774093.38727        45.00027      2856.43427
 13  4  5 13 15 31.0000000  0 10G05G07G08G09G10G15G19G21G26G28
  21797597.748 7  98792947.96827        44.00027       238.05327
  24030300.035 6 110525825.75426        39.00026     -1017.24326
  21927399.034 7  99475019.68727        44.00027        68.55527
  21010534.187 8  94656963.54728        48.00028      3852.01628
  24841417.052 6 114788238.13526        38.00026     -1770.64326
  23429622.524 6 107369332.65626        40.00026      4922.22726
  25817770.123 5                        30.00025      1816.41925
  26085423.791 5 121325621.84725        34.00025      2444.29025
  20550403.295 7  92238934.42227        46.00027      3096.89827
  21785852.109 7  98731325.70527        44.00027      2847.19227
 13  4  5 13 15 46.0000000  0 10G05G07G08G09G10G15G19G21G26G28
  21796934.531 7  98789453.69427        46.00027       228.78027
  24033210.416 6 110541112.00726        40.00026     -1020.54926
  21927209.715 7  99474029.26127        44.00027        63.30527
  20999549.028 8  94599233.63928        49.00028      3844.74928
  24846471.926 6 114814809.31226        40.00026     -1772.85026
  23415577.786 6 107295523.09426        40.00026      4920.26126
  25812591.070 5                        31.00025      1807.49925
  26078455.881 5 121289011.38725        34.00025      2435.66325
  20541575.785 7  92192547.58527        47.00027      3088.59227
  21777739.901 7  98688698.29027        44.00027      2837.14427
 13  4  5 13 16  1.0000000  0 10G05G07G08G09G10G15G19G21G26G28
  21796297.368 8  98786094.11728        48.00028       219.73028
  24036124.270 6 110556425.02526        40.00026     -1021.91826
  21927035.874 7  99473111.63427        45.00027        59.05927
  20988583.815 8  94541610.79828        49.00028      3837.68128
  24851532.209 6 114841400.68326        40.00026     -1773.85426
  23401538.822 6 107221754.94426        39.00026      4916.87526
  25807433.986 5                        31.00025      1798.27925
  26071513.623 6 121252522.53026        36.00026      2428.85026
  20532770.874 7  92146274.16127        47.00027      3080.45027
  21769655.944 7  98646209.93427        45.00027      2827.30127
 13  4  5 13 16 16.0000000  0 10G05G07G08G09G10G15G19G21G26G28
  21795684.391 8  98782864.54528        48.00028       210.79528
  24039042.051 6 110571760.21526        39.00026     -1023.70426
  21926873.218 7  99472262.38927        44.00027        54.08227
  20977637.343 8  94484090.73328        48.00028      3830.80428
  24856599.875 7 114868007.57127        42.00027     -1774.15827
  23387509.789 6 107148024.01526        40.00026      4914.99026
  25802319.271 5                        32.00025      1789.02725
  26064591.101 5 121216151.01425        35.00025      2420.48825
  20523986.152 7  92100109.90827        46.00027      3073.56327
  21761597.535 7  98603856.28227        45.00027      2818.10227
 13  4  5 13 16 31.0000000  0 10G05G07G08G09G10G15G19G21G26G28
  21795096.367 8  98779770.40228        50.00028       201.28328
  24041965.973 6 110587123.11226        40.00026     -1026.13126
  21926725.849 7  99471486.92327        45.00027        48.92927
  20966712.806 8  94426679.12428        48.00028      3823.90728
  24861665.567 6 114894635.34226        41.00026     -1776.66226
  23373486.652 6 107074336.19026        41.00026      4910.09026
  25797218.813 5                        31.00025      1778.76825
  26057693.970 5 121179902.13125        35.00025      2413.61425
  20515223.260 7  92054060.58827        47.00027      3064.99827
  21753565.492 7  98561642.92927        46.00027      2808.73127
 13  4  5 13 16 46.0000000  0 10G05G07G08G09G10G15G19G21G26G28
  21794533.280 8  98776813.76728        50.00028       192.98028
  24044893.945 6 110602515.71026        39.00026     -1026.47726
  21926592.685 7  99470787.17727        44.00027        44.21827
  20955808.511 8  94369378.25028        48.00028      3816.09728
  24866735.553 6 114921285.95026        39.00026     -1777.60126
  23359475.349 6 107000693.78126        41.00026      4908.81226
  25792154.826 5                        32.00025      1770.79325
  26050819.523 5 121143778.26325        34.00025      2404.43125
  20506483.229 7  92008128.59827        47.00027      3058.34827
  21745558.997 7  98519572.25027        45.00027      2799.45327
 13  4  5 13 17  1.0000000  0 10G05G07G08G09G10G15G19G21G26G28
  21793996.665 8  98773998.05928        50.00028       183.87928
  24047829.804 6 110617941.65126        39.00026     -1027.25926
  21926474.405 7  99470166.68527        45.00027        39.15227
  20944925.872 7  94312191.93027        47.00027      3809.98227
  24871813.619 6 114947962.69126        41.00026     -1777.29926
  23345470.658 6 106927100.74426        41.00026      4906.33926
  25787115.828 5                        32.00025      1760.25425
  26043969.629 5 121107783.28025        34.00025      2396.69625
  20497765.429 7  91962317.78327        47.00027      3051.51727
  21737580.545 7  98477648.03927        45.00027      2791.50927
 13  4  5 13 17 16.0000000  0 10G05G07G08G09G10G15G19G21G26G28
  21793484.812 8  98771304.27428        50.00028       174.68428
  24050767.146 6 110633381.83226        39.00026     -1029.78226
  21926368.463 7  99469606.41227        44.00027        34.38727
  20934062.009 7  94255101.26927        47.00027      3801.87427
  24876890.061 6 114974646.58126        40.00026     -1779.67626
  23331473.052 7 106853538.30727        42.00027      4902.91327
  25782112.690 5 135485916.53215        33.00025      1752.18825
  26037139.157 5 121071898.05315        33.00025      2387.50825
  20489067.627 7  91916609.33027        47.00027      3043.12527
  21729624.534 7  98435851.32127        43.00027      2781.48627
 13  4  5 13 17 31.0000000  0 10G05G07G08G09G10G15G19G21G26G28
  21792996.761 8  98768740.63128        51.00028       166.64028
  24053710.037 6 110648844.86626        40.00026     -1032.47826
  21926275.278 7  99469114.87327        44.00027        30.54527
  20923217.552 7  94198115.06427        47.00027      3796.00727
  24881969.871 6 115001346.03826        40.00026     -1781.20826
  23317483.229 7 106780015.42627        43.00027      4900.13227
  25777124.750 5 135459718.73715        33.00025      1740.52825
  26030332.732 5 121036131.45525        33.00025      2383.06925
  20480390.765 8  91871012.15828        48.00028      3036.07128
  21721697.001 7  98394191.02027        44.00027      2772.80427
 13  4  5 13 17 46.0000000  0 10G05G07G08G09G10G15G19G21G26G28
  21792531.605 8  98766301.20928        50.00028       158.22128
  24056655.389 6 110664324.59126        40.00026     -1033.93326
  21926193.819 7  99468685.82127        44.00027        26.52527
  20912391.922 7  94141227.45427        46.00027      3788.50527
  24887057.325 7 115028054.57327        43.00027     -1781.63427
  23303498.013 7 106706526.21227        43.00027      4898.59927
  25772165.012 5 135433655.70525        32.00025      1732.32825
  26023545.082 5 121000477.62615        30.00025      2372.64625
  20471734.006 7  91825520.45127        47.00027      3028.87327
  21713794.928 7  98352661.26727        44.00027      2763.93227
 13  4  5 13 18  1.0000000  0 10G05G07G08G09G10G15G19G21G26G28
  21792092.310 8  98763994.27628        49.00028       148.35728
  24059606.413 6 110679829.27526        39.00026     -1034.22126
  21926126.266 7  99468327.66327        43.00027        20.07227
  20901586.797 7  94084446.93927        45.00027      3780.82827
  24892143.207 6 115054780.51526        41.00026     -1783.37226
  23289523.283 7 106633079.44027        43.00027      4893.78027
  25767232.494 5 135407735.77115        32.00025      1721.03525
  26016772.492 5                        30.00025      2363.47725
  20463098.954 7  91780142.82927        47.00027      3020.04527
  21705919.275 7  98311270.57027        43.00027      2754.13027
 13  4  5 13 18 16.0000000  0 10G05G07G08G09G10G15G19G21G26G28
  21791679.452 8  98761825.95028        49.00028       139.93828
  24062562.845 6 110695365.28026        40.00026     -1036.24626
  21926072.379 7  99468046.66727        44.00027        16.93127
  20890802.525 7  94027780.05227        45.00027      3774.49027
  24897232.493 6 115081530.11026        41.00026     -1784.26026
  23275554.854 7 106559681.69927        43.00027      4891.49827
  25762329.085 5 135381965.62825        33.00025      1714.78725
  26010042.184 5                        30.00025      2355.23425
  20454486.902 7  91734885.83027        47.00027      3012.89927
  21698070.146 7  98270025.30027        44.00027      2744.82927
 13  4  5 13 18 31.0000000  0 10G05G07G08G09G10G15G19G21G26G28
  21791290.483 8  98759781.15228        48.00028       132.53428
  24065523.240 6 110710917.65626        40.00026     -1036.15826
  21926030.218 7  99467827.78327        43.00027        12.86227
  20880037.431 7  93971212.13527        44.00027      3767.79227
  24902325.671 6 115108288.12726        41.00026     -1785.04126
  23261595.482 7 106486318.41327        43.00027      4889.61827
  25757450.698 5 135356330.43025        33.00025      1703.26025
  26003338.035 5                        30.00025      2347.69925
  20445894.971 7  91689734.80727        47.00027      3006.68227
  21690245.378 7  98228910.75127        44.00027      2736.94327
 13  4  5 13 18 46.0000000  0 10G05G07G08G09G10G15G19G21G26G28
  21790925.195 8  98757867.20028        48.00028       123.89728
  24068487.856 6 110726493.44826        40.00026     -1039.90026
  21926001.510 7  99467678.21827        43.00027         8.11227
  20869291.950 7  93914750.46427        44.00027      3760.78027
  24907415.882 6 115135061.65626        39.00026     -1784.52526
  23247643.369 7 106412997.05227        43.00027      4887.72727
  25752598.418 5 135330837.42615        32.00025      1696.17625
  25996630.220 5                        30.00025      2339.46925
  20437324.085 7  91644697.25327        46.00027      2999.11327
  21682448.652 7  98187934.35827        43.00027      2727.63727
 13  4  5 13 19  1.0000000  0 10G05G07G08G09G10G15G19G21G26G28
  21790582.714 7  98756074.90227        46.00027       116.03127
  24071453.887 6 110742083.78826        40.00026     -1039.89926
  21925984.582 7  99467588.96427        42.00027         4.41427
  20858565.840 7  93858386.31427        44.00027      3753.99327
  24912511.886 6 115161841.64126        39.00026     -1785.33326
  23233696.666 7 106339708.79127        43.00027      4885.36827
  25747773.027 5 135305477.72115        31.00025      1685.44225
  25989951.531 4                        29.00024      2332.61324
  20428773.388 7  91599764.44127        46.00027      2992.29427
  21674676.340 7  98147087.41427        45.00027      2719.75327
 13  4  5 13 19 16.0000000  0 10G05G07G08G09G10G15G19G21G26G28
  21790265.151 7  98754411.25827        46.00027       107.29027
  24074424.908 6 110757695.87026        39.00026     -1041.14726
  21925979.729 7  99467567.13927        42.00027        -0.66127
  20847859.640 7  93802127.12727        46.00027      3747.04427
  24917610.439 6 115188634.98326        40.00026     -1785.09226
  23219758.460 7 106266461.19827        44.00027      4881.95027
  25742973.429 5 135280258.61815        32.00025      1677.53825
  25983314.425 5 136543238.80115        32.00025      2325.91925
  20420243.806 7  91554943.83027        47.00027      2984.69427
  21666929.643 7  98106377.16627        45.00027      2710.08127
 13  4  5 13 19 31.0000000  0 10G05G07G08G09G10G15G19G21G26G28
  21789971.251 7  98752873.69227        44.00027        98.26527
  24077397.342 6 110773327.12626        37.00026     -1043.66426
  21925987.423 6  99467610.02226        41.00026        -4.18326
  20837175.201 7  93745970.54627        46.00027      3741.12327
  24922712.533 6 115215439.07926        40.00026     -1786.76826
  23205825.629 7 106193252.08827        42.00027      4879.92427
  25738201.803 5 135255178.06335        32.00025      1668.93225
  25976689.971 5 136508412.28035        32.00025      2318.93525
  20411735.060 7  91510233.19027        47.00027      2977.52527
  21659208.948 7  98065801.35727        45.00027      2701.36327
 13  4  5 13 19 46.0000000  0 10G05G07G08G09G10G15G19G21G26G28
  21789701.154 7  98751456.54527        46.00027        90.97327
  24080376.653 6 110788971.71326        39.00026     -1042.62126
  21926007.926 7  99467711.93327        43.00027        -8.06027
  20826507.375 7  93689910.95727        47.00027      3734.83427
  24927814.069 6 115242247.99426        41.00026     -1786.94826
  23191901.053 7 106120076.09427        43.00027      4877.74527
  25733453.788 5 135230230.07415        34.00025      1660.90425
  25970083.787 5 136473695.38925        33.00025      2311.60125
  20403247.812 8  91465627.01128        48.00028      2970.66428
  21651512.701 7  98025354.27527        47.00027      2692.34027
 13  4  5 13 20  1.0000000  0 10G05G07G08G09G10G15G19G21G26G28
  21789456.394 7  98750167.60627        43.00027        82.53427
  24083358.127 6 110804637.79926        36.00026     -1044.49526
  21926039.875 6  99467880.92526        41.00026       -12.70526
  20815860.505 7  93633956.68427        46.00027      3726.86227
  24932918.135 6 115269069.58426        37.00026     -1786.46826
  23177985.568 6 106046941.60626        41.00026      4874.63326
  25728734.425 5 135205422.99525        33.00025      1650.42225
  25963501.021 5 136439097.11725        32.00025      2303.27425
  20394781.155 7  91421133.77727        46.00027      2962.96127
  21643842.158 7  97985044.44527        45.00027      2683.55027
 13  4  5 13 20 16.0000000  0 10G05G07G08G09G10G15G19G21G26G28
  21789234.878 7  98749000.42027        45.00027        73.16327
  24086341.712 6 110820318.94026        38.00026     -1046.98526
  21926084.040 7  99468110.53227        43.00027       -18.04327
  20805231.714 8  93578101.55128        48.00028      3719.40528
  24938025.377 6 115295897.35926        41.00026     -1789.70226
  23164072.699 7 105973842.53127        42.00027      4870.18327
  25724039.736 5 135180750.60925        33.00025      1639.45725
  25956939.648 5 136404611.66325        35.00025      2293.83625
  20386335.264 8  91376747.25228        48.00028      2954.74928
  21636195.486 7  97944865.42527        46.00027      2673.05427
 13  4  5 13 20 31.0000000  0 10G05G07G08G09G10G15G19G21G26G28
  21789037.687 7  98747960.39627        46.00027        65.32027
  24089330.096 6 110836020.59426        38.00026     -1047.42826
  21926141.921 7  99468406.26227        42.00027       -21.67927
  20794622.678 8  93522351.31528        48.00028      3713.39428
  24943128.972 6 115322736.76426        38.00026     -1790.22626
  23150170.651 7 105900784.80927        42.00027      4869.67327
  25719370.928 5 135156218.41825        34.00025      1632.91525
  25950400.578 5 136370244.19925        34.00025      2287.05925
  20377910.157 8  91332473.24228        48.00028      2948.67228
  21628576.456 7  97904823.07927        46.00027      2664.96927
 13  4  5 13 20 46.0000000  0 10G05G07G08G09G10G15G19G21G26G28
  21788863.234 7  98747039.47027        46.00027        57.13427
  24092321.902 6 110851734.89526        38.00026     -1046.97326
  21926207.427 7  99468760.11727        42.00027       -26.37127
  20784031.894 8  93466698.22528        48.00028      3707.23228
  24948236.424 6 115349579.74826        37.00026     -1789.22326
  23136273.978 6 105827760.66026        41.00026      4867.85626
  25714726.095 5 135131818.64315        33.00025      1623.32625
  25943882.849 5 136335986.90925        34.00025      2281.01925
  20369505.170 7  91288304.13527        47.00027      2941.72627
  21620980.669 7  97864909.73527        45.00027      2656.40727
 13  4  5 13 21  1.0000000  0 10G05G07G08G09G10G15G19G21G26G28
  21788714.363 7  98746244.46627        47.00027        48.91027
  24095315.974 6 110867468.69126        38.00026     -1050.06626
  21926286.388 6  99469178.87226        41.00026       -29.90926
  20773462.416 8  93411149.29528        48.00028      3699.81428
  24953349.896 6 115376432.84626        39.00026     -1790.97026
  23122383.551 6 105754777.29026        40.00026      4864.56326
  25710109.916 5 135107558.44125        33.00025      1614.19325
  25937385.222 5 136301846.53525        34.00025      2270.93125
  20361121.210 7  91244246.96427        47.00027      2933.76827
  21613409.767 7  97825132.23427        44.00027      2647.31327
 13  4  5 13 21 16.0000000  0 10G05G07G08G09G10G15G19G21G26G28
  21788585.665 8  98745565.48628        48.00028        41.50428
  24098311.670 6 110883211.95026        37.00026     -1049.72926
  21926375.679 6  99469652.69526        40.00026       -33.38126
  20762910.424 7  93355694.93827        47.00027      3693.81727
  24958457.662 6 115403285.91726        37.00026     -1790.49726
  23108503.821 6 105681825.31826        41.00026      4862.31326
  25705516.927 5 135083428.02325        32.00025      1604.25025
  25930909.182 5 136267813.74725        33.00025      2266.05125
  20352757.545 7  91200292.24427        47.00027      2927.19427
  21605863.801 7  97785480.89827        43.00027      2638.68327
 13  4  5 13 21 31.0000000  0 10G05G07G08G09G10G15G19G21G26G28
  21788481.117 8  98745015.27728        49.00028        32.18028
  24101311.571 6 110898977.63426        39.00026     -1052.97326
  21926478.040 6  99470194.29426        41.00026       -38.48326
  20752378.866 8  93300348.18828        49.00028      3685.60728
  24963571.099 6 115430152.03126        38.00026     -1790.44026
  23094626.726 6 105608917.84326        40.00026      4858.59426
  25700953.831 5 135059440.32825        32.00025      1593.79325
  25924455.495 5 136233900.99225        34.00025      2256.16325
  20344415.587 7  91156453.13027        47.00027      2918.37227
  21598344.725 7  97745968.84327        43.00027      2628.97127
 13  4  5 13 21 46.0000000  0 10G05G07G08G09G10G15G19G21G26G28
  21788400.791 8  98744591.69028        49.00028        24.49028
  24104316.202 6 110914763.58926        37.00026     -1052.11926
  21926593.211 6  99470801.55326        41.00026       -41.94526
  20741866.468 8  93245107.13428        48.00028      3679.66828
  24968686.961 6 115457028.82726        39.00026     -1793.10126
  23080762.440 6 105536053.02026        40.00026      4855.96326
  25696415.533 5 135035593.34625        33.00025      1587.34425
  25918025.505 5 136200106.52525        34.00025      2248.39625
  20336094.867 7  91112727.72027        47.00027      2911.26727
  21590851.546 7  97706594.11827        42.00027      2620.30627
 13  4  5 13 22  1.0000000  0 10G05G07G08G09G10G15G19G21G26G28
  21788344.057 8  98744287.48628        50.00028        15.90528
  24107323.048 6 110930562.85826        38.00026     -1053.67726
  21926720.124 6  99471467.33326        41.00026       -47.09626
  20731373.213 8  93189964.96228        48.00028      3672.11028
  24973801.515 6 115483908.97126        40.00026     -1792.85726
  23066904.087 6 105463224.22226        41.00026      4853.91526
  25691903.722 5 135011880.19115        33.00025      1574.31525
  25911615.984 5 136166423.45025        34.00025      2238.94125
  20327793.743 7  91069109.21827        47.00027      2904.09027
  21583383.757 7  97667349.84327        43.00027      2611.46227
 13  4  5 13 22 16.0000000  0 10G05G07G08G09G10G15G19G21G26G28
  21788308.630 8  98744104.95328        48.00028         8.40828
  24110331.989 6 110946377.94726        37.00026     -1054.58526
  21926859.288 6  99472193.98726        40.00026       -50.82726
  20720899.678 7  93134924.19527        47.00027      3665.95727
  24978916.139 6 115510794.85026        37.00026     -1792.40826
  23053051.824 6 105390434.16426        40.00026      4851.43826
  25687416.884 5                        30.00025      1566.17025
  25905227.127 5 136132854.25535        33.00025      2235.49025
  20319514.432 7  91025600.41127        46.00027      2897.10027
  21575940.608 7  97628238.52027        42.00027      2603.23627
 13  4  5 13 22 31.0000000  0 10G05G07G08G09G10G15G19G21G26G28
  21788296.464 8  98744041.39628        49.00028        -0.61228
  24113343.495 6 110962205.96426        38.00026     -1056.17826
  21927009.708 6  99472978.92026        41.00026       -54.39426
  20710445.267 8  93079982.47928        49.00028      3658.98428
  24984035.474 6 115537683.70326        39.00026     -1793.82126
  23039207.867 6 105317680.48526        40.00026      4848.90226
  25682952.575 5                        30.00025      1559.17025
  25898860.830 5 136099396.67325        35.00025      2226.45725
  20311255.625 7  90982198.84727        47.00027      2888.81127
  21568522.935 7  97589257.87927        42.00027      2594.06227
 13  4  5 13 22 46.0000000  0 10G05G07G08G09G10G15G19G21G26G28
  21788306.024 7  98744093.57727        47.00027        -8.24027
  24116358.125 6 110978043.95226        38.00026     -1055.23326
  21927168.765 6  99473819.04826        41.00026       -57.89926
  20700007.766 7  93025136.88127        47.00027      3652.93327
  24989151.582 6 115564572.19826        39.00026     -1793.40426
  23025370.908 6 105244960.57726        41.00026      4845.76226
  25678495.802 4                        28.00024      1547.58124
  25892514.934 5 136066048.09125        33.00025      2219.55025
  20303016.642 7  90938901.78927        46.00027      2883.32827
  21561129.327 7  97550404.97827        42.00027      2584.71927
